[{"id":30100013,"lat":44.138,"lng":4.104,"addr":"ZI AV. DE CROUPILLAC","city":"ALES","cp":"30100","fuels":{"E85":{"p":0.843,"d":"2026-05-01"}},"brand":"TotalEnergies","h24":true,"services":["Boutique alimentaire","Boutique non alimentaire","Station de gonflage","Carburant additivé","Piste poids lourds","Lavage automatique","Vente de gaz domestique (Butane, Propane)","Vente d'additifs carburants","Wifi","Automate CB 24/24","DAB (Distributeur automatique de billets)"]},{"id":30160002,"lat":44.287,"lng":4.11,"addr":"Sauvegarde","city":"BESSEGES","cp":"30160","fuels":{"Gazole":{"p":2.271,"d":"2026-04-28"},"SP95":{"p":2.156,"d":"2026-04-28"},"SP98":{"p":2.201,"d":"2026-04-28"}},"h24":true,"services":["Toilettes publiques","Vente de gaz domestique (Butane, Propane)","Vente d'additifs carburants","Automate CB 24/24"]},{"id":30000016,"lat":43.815227701262,"lng":4.3693488211645,"addr":"120 Chemin du Mas Fléchier","city":"NîMES","cp":"30900","fuels":{"Gazole":{"p":2.147,"d":"2026-04-30"},"SP95":{"p":2.055,"d":"2026-04-30"},"E10":{"p":1.99,"d":"2026-04-30"}},"brand":"Leclerc","h24":true,"services":["Station de gonflage","Lavage automatique","Lavage manuel","Automate CB 24/24"]},{"id":30420002,"lat":43.7831211,"lng":4.2036004,"addr":"2, rue du Levant","city":"Calvisson","cp":"30420","fuels":{"Gazole":{"p":2.169,"d":"2026-04-29"},"E10":{"p":1.969,"d":"2026-04-29"},"SP98":{"p":2.055,"d":"2026-04-29"}},"brand":"Système U","services":["Laverie","Boutique alimentaire","Station de gonflage","Piste poids lourds","Lavage manuel","Vente de gaz domestique (Butane, Propane)","DAB (Distributeur automatique de billets)"]},{"id":30500003,"lat":44.255,"lng":4.203,"addr":"Route d'Uzès","city":"Saint-Ambroix","cp":"30500","fuels":{"Gazole":{"p":2.21,"d":"2026-04-29"},"E85":{"p":0.818,"d":"2026-04-29"},"E10":{"p":2.041,"d":"2026-04-29"},"SP98":{"p":2.256,"d":"2026-04-29"}},"brand":"Intermarché","services":["Toilettes publiques","Laverie","Restauration à emporter","Location de véhicule","Vente de gaz domestique (Butane, Propane)"]},{"id":30300006,"lat":43.691,"lng":4.605,"addr":"RN 113","city":"FOURQUES","cp":"30300","fuels":{"Gazole":{"p":2.25,"d":"2026-04-30"},"E10":{"p":1.99,"d":"2026-04-30"},"SP98":{"p":1.99,"d":"2026-04-30"}},"brand":"TotalEnergies","h24":true,"services":["Boutique alimentaire","Boutique non alimentaire","Restauration à emporter","Vente de fioul domestique","Vente de pétrole lampant","Station de gonflage","Carburant additivé","Piste poids lourds","Lavage automatique","Lavage manuel","Vente de gaz domestique (Butane, Propane)","Automate CB 24/24","DAB (Distributeur automatique de billets)"]},{"id":30100012,"lat":44.14,"lng":4.091,"addr":"198 Avenue des Frères Lumière","city":"Alès","cp":"30100","fuels":{"Gazole":{"p":2.189,"d":"2026-04-30"},"E10":{"p":2.038,"d":"2026-04-30"},"SP98":{"p":2.103,"d":"2026-04-30"}},"brand":"Groupement des Mousquetaires","h24":true,"services":["Station de gonflage","Piste poids lourds","Automate CB 24/24"]},{"id":30300005,"lat":43.789,"lng":4.645,"addr":"ZI DOMITIA SUD Avenue jean Monnet","city":"Beaucaire","cp":"30300","fuels":{"Gazole":{"p":2.269,"d":"2026-05-01"},"E85":{"p":0.899,"d":"2026-05-01"},"E10":{"p":2.049,"d":"2026-05-01"}},"brand":"Eni","h24":true,"services":["Toilettes publiques","Boutique alimentaire","Boutique non alimentaire","Restauration à emporter","Restauration sur place","Bar","Vente de fioul domestique","Carburant additivé","Piste poids lourds","Automate CB 24/24","DAB (Distributeur automatique de billets)"]},{"id":30140002,"lat":44.05184,"lng":3.98507,"addr":"24 Avenue du Pasteur Rollin","city":"Anduze","cp":"30140","fuels":{"Gazole":{"p":2.259,"d":"2026-04-29"},"SP98":{"p":2.109,"d":"2026-04-29"}},"brand":"Avia","services":["Toilettes publiques","Station de gonflage","Carburant additivé","Services réparation / entretien","DAB (Distributeur automatique de billets)"]},{"id":30900017,"lat":43.81,"lng":4.329,"addr":"2705 RTE DE MONTPELLIER","city":"NIMES","cp":"30900","fuels":{"Gazole":{"p":2.09,"d":"2026-05-01"},"E85":{"p":0.842,"d":"2026-05-01"},"GPLc":{"p":1.049,"d":"2026-05-01"},"E10":{"p":1.99,"d":"2026-05-01"},"SP98":{"p":1.99,"d":"2026-05-01"}},"brand":"TotalEnergies","h24":true,"services":["Boutique alimentaire","Carburant additivé","Vente de gaz domestique (Butane, Propane)","Bornes électriques","Vente d'additifs carburants","Automate CB 24/24"]},{"id":30700006,"lat":44.011,"lng":4.408,"addr":"AVENUE DE LA GARE","city":"UZES","cp":"30700","fuels":{"Gazole":{"p":2.199,"d":"2026-04-30"},"E10":{"p":1.999,"d":"2026-04-30"},"SP98":{"p":2.099,"d":"2026-04-30"}},"brand":"Dyneff","h24":true,"services":["Automate CB 24/24"]},{"id":30380002,"lat":44.073,"lng":4.081,"addr":"1296 AVENUE JEAN MOULIN","city":"Saint-Christol-lez-Alès","cp":"30380","fuels":{"Gazole":{"p":2.178,"d":"2026-04-30"},"E85":{"p":0.815,"d":"2026-04-21"},"E10":{"p":2.028,"d":"2026-04-30"}},"h24":true,"services":["Carburant additivé","Automate CB 24/24"]},{"id":30980002,"lat":43.808186038803,"lng":4.2322961056652,"addr":"LIEU DIT CAMPASTIER - ROUTE DE SOMMIERES - RD 40","city":"SAINT DIONISY","cp":"30980","fuels":{"Gazole":{"p":2.168,"d":"2026-04-30"},"E10":{"p":1.969,"d":"2026-04-24"},"SP98":{"p":2.099,"d":"2026-04-24"}},"brand":"Netto","h24":true,"services":["Carburant additivé","Automate CB 24/24"]},{"id":30750001,"lat":44.13128,"lng":3.38283,"addr":"Le Gardiol","city":"LANUéJOLS","cp":"30750","fuels":{"Gazole":{"p":2.32,"d":"2026-04-30"},"E10":{"p":2.02,"d":"2026-04-30"}},"brand":"Dyneff","services":["DAB (Distributeur automatique de billets)"]},{"id":30320007,"lat":43.868,"lng":4.422,"addr":"Autoroute A9 - AIRE DE NIMES MARGUERITTES SUD","city":"MARGUERITTES","cp":"30320","fuels":{"Gazole":{"p":2.339,"d":"2026-05-01"},"GPLc":{"p":1.13,"d":"2026-05-01"},"E10":{"p":2.119,"d":"2026-05-01"},"SP98":{"p":2.199,"d":"2026-05-01"}},"brand":"Avia","h24":true,"services":["Toilettes publiques","Douches","Laverie","Boutique alimentaire","Boutique non alimentaire","Restauration à emporter","Restauration sur place","Bar","Station de gonflage","Aire de camping-cars","Piste poids lourds","Espace bébé","Bornes électriques","Wifi","Automate CB 24/24","DAB (Distributeur automatique de billets)"]},{"id":30150002,"lat":44.045,"lng":4.787,"addr":"ROUTE D'AVIGNON","city":"ROQUEMAURE","cp":"30150","fuels":{"Gazole":{"p":2.399,"d":"2026-04-10"},"E10":{"p":2.099,"d":"2026-04-10"},"SP98":{"p":2.199,"d":"2026-04-10"}},"brand":"Intermarché","h24":true,"services":["Toilettes publiques","Laverie","Relais colis","Boutique alimentaire","Boutique non alimentaire","Vente de pétrole lampant","Station de gonflage","Aire de camping-cars","Piste poids lourds","Lavage automatique","Lavage manuel","Vente de gaz domestique (Butane, Propane)","Vente d'additifs carburants","Automate CB 24/24","DAB (Distributeur automatique de billets)"]},{"id":30130004,"lat":44.255,"lng":4.646,"addr":"Avenue Gaston Doumergue","city":"Pont-Saint-Esprit","cp":"30130","fuels":{"Gazole":{"p":2.249,"d":"2026-04-30"},"SP95":{"p":2.049,"d":"2026-04-30"},"E85":{"p":0.818,"d":"2026-04-30"},"SP98":{"p":2.099,"d":"2026-04-30"}},"brand":"Intermarché","services":["Station de gonflage","Vente de gaz domestique (Butane, Propane)","DAB (Distributeur automatique de billets)"]},{"id":30210008,"lat":43.94,"lng":4.6,"addr":"Route nationale 100","city":"Fournès","cp":"30210","fuels":{"Gazole":{"p":2.498,"d":"2026-04-07"},"E10":{"p":2.149,"d":"2026-04-07"},"SP98":{"p":2.249,"d":"2026-03-31"}},"h24":true,"services":["Boutique alimentaire","Boutique non alimentaire","Restauration à emporter","Station de gonflage","Vente d'additifs carburants","Automate CB 24/24"]},{"id":30140003,"lat":44.065,"lng":3.971,"addr":"1600 Route de Saint-Jean-du-Gard","city":"ANDUZE","cp":"30140","fuels":{"Gazole":{"p":2.199,"d":"2026-04-20"},"SP95":{"p":2.059,"d":"2026-04-15"},"E10":{"p":1.989,"d":"2026-04-15"}},"brand":"Intermarché","h24":true,"services":["Laverie","Station de gonflage","Lavage automatique","Lavage manuel","Vente de gaz domestique (Butane, Propane)","Automate CB 24/24","DAB (Distributeur automatique de billets)"]},{"id":30310001,"lat":43.737293,"lng":4.217911,"addr":"Route de Codognan","city":"VERGEZE","cp":"30310","fuels":{"Gazole":{"p":2.159,"d":"2026-04-30"},"SP95":{"p":2.059,"d":"2026-04-30"},"E85":{"p":0.815,"d":"2026-04-30"},"E10":{"p":1.999,"d":"2026-04-30"},"SP98":{"p":2.068,"d":"2026-04-30"}},"brand":"Système U","h24":true,"services":["Relais colis","Station de gonflage","Location de véhicule","Lavage automatique","Lavage manuel","Vente de gaz domestique (Butane, Propane)","Vente d'additifs carburants","Automate CB 24/24"]},{"id":30300003,"lat":43.817,"lng":4.616,"addr":"Route de Nimes","city":"BEAUCAIRE","cp":"30300","fuels":{"Gazole":{"p":2.153,"d":"2026-04-29"},"E85":{"p":0.839,"d":"2026-04-29"},"E10":{"p":2.015,"d":"2026-04-29"},"SP98":{"p":2.122,"d":"2026-04-29"}},"brand":"Carrefour","services":["Carburant additivé","Piste poids lourds","Vente de gaz domestique (Butane, Propane)","DAB (Distributeur automatique de billets)"]},{"id":30000019,"lat":43.825,"lng":4.379,"addr":"390 AV PIERRE MENDES FRANCE","city":"NIMES","cp":"30000","fuels":{"Gazole":{"p":2.09,"d":"2026-05-01"}},"brand":"TotalEnergies","h24":true,"services":["Boutique alimentaire","Boutique non alimentaire","Station de gonflage","Carburant additivé","Piste poids lourds","Lavage automatique","Lavage manuel","Vente de gaz domestique (Butane, Propane)","Automate CB 24/24"]},{"id":30230002,"lat":43.800404,"lng":4.4186247,"addr":"55 route de nimes","city":"Bouillargues","cp":"30230","fuels":{"Gazole":{"p":2.168,"d":"2026-04-30"},"SP95":{"p":2.049,"d":"2026-04-30"},"E10":{"p":1.999,"d":"2026-04-30"}},"brand":"Carrefour","services":["Laverie","Boutique alimentaire","Lavage automatique"]},{"id":30800002,"lat":43.677,"lng":4.432,"addr":"ROUTE D'ARLES","city":"Saint-Gilles","cp":"30800","fuels":{"Gazole":{"p":2.199,"d":"2026-04-27"},"E85":{"p":0.819,"d":"2026-04-16"},"E10":{"p":1.999,"d":"2026-04-14"},"SP98":{"p":2.119,"d":"2026-04-29"}},"brand":"Intermarché","h24":true,"services":["Station de gonflage","Location de véhicule","Piste poids lourds","Vente de gaz domestique (Butane, Propane)","Vente d'additifs carburants","Automate CB 24/24","DAB (Distributeur automatique de billets)"]},{"id":30220002,"lat":43.574,"lng":4.196,"addr":"1121 Route de Nîmes","city":"AIGUES-MORTES","cp":"30220","fuels":{"Gazole":{"p":2.169,"d":"2026-04-22"},"E85":{"p":0.819,"d":"2026-04-16"},"GPLc":{"p":1.046,"d":"2026-04-13"},"E10":{"p":1.98,"d":"2026-04-29"},"SP98":{"p":2.099,"d":"2026-04-30"}},"brand":"Intermarché","services":["Toilettes publiques","Station de gonflage","Location de véhicule","Piste poids lourds","Lavage manuel","Vente de gaz domestique (Butane, Propane)","DAB (Distributeur automatique de billets)"]},{"id":30000010,"lat":43.847489529364,"lng":4.3465058716558005,"addr":"78 route d'Alès","city":"NîMES","cp":"30000","fuels":{"Gazole":{"p":2.25,"d":"2026-04-21"},"SP95":{"p":2.158,"d":"2026-04-07"},"SP98":{"p":2.198,"d":"2026-04-07"}},"brand":"Campus","services":["Toilettes publiques","Boutique alimentaire","Boutique non alimentaire","Vente de fioul domestique","Station de gonflage","Piste poids lourds","Lavage automatique","Services réparation / entretien","Vente de gaz domestique (Butane, Propane)"]},{"id":30900021,"lat":43.826,"lng":4.353,"addr":"40 AV MARECHAL JUIN","city":"NIMES","cp":"30900","fuels":{"Gazole":{"p":2.299,"d":"2026-05-01"},"E85":{"p":1.049,"d":"2026-05-01"},"E10":{"p":2.129,"d":"2026-05-01"},"SP98":{"p":2.299,"d":"2026-05-01"}},"brand":"Esso","services":["Relais colis","Boutique alimentaire","Boutique non alimentaire","Station de gonflage","Carburant additivé","Vente de gaz domestique (Butane, Propane)"]},{"id":30340006,"lat":44.1,"lng":4.138,"addr":"RTE D'UZES","city":"MEJANNES LES ALES","cp":"30340","fuels":{"Gazole":{"p":2.31,"d":"2026-04-29"},"GPLc":{"p":1.2,"d":"2026-04-29"},"E10":{"p":2.14,"d":"2026-04-29"}},"h24":true,"services":["Relais colis","Boutique alimentaire","Boutique non alimentaire","Station de gonflage","Carburant additivé","Piste poids lourds","Lavage automatique","Lavage manuel","Vente de gaz domestique (Butane, Propane)","Vente d'additifs carburants","Automate CB 24/24"]},{"id":30220001,"lat":43.577,"lng":4.199,"addr":"940, route de Nîmes","city":"AIGUES-MORTES","cp":"30220","fuels":{"Gazole":{"p":2.169,"d":"2026-04-22"},"SP95":{"p":2.069,"d":"2026-04-28"},"E10":{"p":1.98,"d":"2026-04-29"},"SP98":{"p":2.099,"d":"2026-04-30"}},"brand":"Système U","services":["Station de gonflage","Location de véhicule","Lavage automatique","Lavage manuel","Vente de gaz domestique (Butane, Propane)","DAB (Distributeur automatique de billets)"]},{"id":30190003,"lat":43.92419,"lng":4.2639,"addr":"Avenue Charles de Gaulle","city":"LA CALMETTE","cp":"30190","fuels":{"Gazole":{"p":2.19,"d":"2026-04-29"},"E85":{"p":0.8,"d":"2026-04-29"},"E10":{"p":2.055,"d":"2026-04-29"},"SP98":{"p":2.13,"d":"2026-04-29"}},"brand":"Casino","services":["Vente de fioul domestique","Station de gonflage","Location de véhicule","Piste poids lourds","Lavage automatique","Lavage manuel","Vente de gaz domestique (Butane, Propane)","DAB (Distributeur automatique de billets)"]},{"id":30700001,"lat":43.99,"lng":4.429,"addr":"PONT DES CHARETTES","city":"UZèS","cp":"30700","fuels":{"Gazole":{"p":2.131,"d":"2026-04-29"},"SP95":{"p":2.066,"d":"2026-04-29"},"E10":{"p":1.995,"d":"2026-04-29"},"SP98":{"p":2.156,"d":"2026-04-29"}},"brand":"Carrefour","services":["Station de gonflage","Vente de gaz domestique (Butane, Propane)","DAB (Distributeur automatique de billets)"]},{"id":30600004,"lat":43.689586008599996,"lng":4.2732579259363,"addr":"206 avenue de la condamine","city":"vauvert","cp":"30600","fuels":{"Gazole":{"p":2.199,"d":"2026-04-23"},"E85":{"p":0.819,"d":"2026-04-22"},"E10":{"p":1.989,"d":"2026-04-30"},"SP98":{"p":2.099,"d":"2026-04-20"}},"brand":"Carrefour","h24":true,"services":["Station de gonflage","Lavage automatique","Vente de gaz domestique (Butane, Propane)","Automate CB 24/24"]},{"id":30250002,"lat":43.79,"lng":4.122,"addr":"Le Grand Jardin","city":"AUJARGUES","cp":"30250","fuels":{"Gazole":{"p":2.109,"d":"2026-04-30"},"E85":{"p":0.819,"d":"2026-04-30"},"E10":{"p":1.959,"d":"2026-04-30"}},"brand":"Intermarché","services":["Laverie","Relais colis","Vente de gaz domestique (Butane, Propane)","Bornes électriques"]},{"id":30100019,"lat":44.132283602066,"lng":4.07407374177,"addr":"541 Quai de Bilina","city":"ALES","cp":"30100","fuels":{"Gazole":{"p":2.189,"d":"2026-04-30"},"E85":{"p":0.819,"d":"2026-04-17"},"E10":{"p":2.037,"d":"2026-04-29"},"SP98":{"p":2.103,"d":"2026-04-30"}},"brand":"Netto","h24":true,"services":["Station de gonflage","Automate CB 24/24"]},{"id":30000021,"lat":43.851,"lng":4.401,"addr":"314 route d'Avignon","city":"Nimes","cp":"30000","fuels":{"Gazole":{"p":2.09,"d":"2026-05-01"},"E85":{"p":0.871,"d":"2026-05-01"},"GPLc":{"p":1.049,"d":"2026-04-29"},"E10":{"p":1.99,"d":"2026-05-01"},"SP98":{"p":1.99,"d":"2026-05-01"}},"brand":"TotalEnergies","h24":true,"services":["Boutique alimentaire","Boutique non alimentaire","Restauration à emporter","Station de gonflage","Carburant additivé","Piste poids lourds","Lavage automatique","Vente de gaz domestique (Butane, Propane)","Vente d'additifs carburants","Automate CB 24/24","DAB (Distributeur automatique de billets)"]},{"id":30129002,"lat":43.821,"lng":4.469,"addr":"DE LA REPUBLIQUE","city":"Manduel","cp":"30129","fuels":{"Gazole":{"p":2.17,"d":"2026-04-25"},"SP95":{"p":2.059,"d":"2026-04-25"},"SP98":{"p":2.118,"d":"2026-04-25"}},"brand":"Intermarché","h24":true,"services":["Boutique alimentaire","Station de gonflage","Piste poids lourds","Lavage automatique","Vente de gaz domestique (Butane, Propane)","Automate CB 24/24"]},{"id":30250003,"lat":43.791,"lng":4.091,"addr":"Lotissement de la Tuilerie","city":"Villevieille","cp":"30250","fuels":{"Gazole":{"p":2.24,"d":"2026-04-21"},"SP95":{"p":2.018,"d":"2026-04-21"},"E85":{"p":0.759,"d":"2026-04-21"},"SP98":{"p":2.1,"d":"2026-04-21"}},"brand":"Carrefour","h24":true,"services":["Vente de pétrole lampant","Carburant additivé","Vente de gaz domestique (Butane, Propane)","Automate CB 24/24","DAB (Distributeur automatique de billets)"]},{"id":30400004,"lat":43.958,"lng":4.779,"addr":"128, Avenue Général Leclerc","city":"Villeneuve-lès-Avignon","cp":"30400","fuels":{"Gazole":{"p":2.298,"d":"2026-04-27"},"E10":{"p":2.119,"d":"2026-04-27"},"SP98":{"p":2.198,"d":"2026-04-27"}},"brand":"Agip","h24":true,"services":["Boutique alimentaire","Boutique non alimentaire","Station de gonflage","Carburant additivé","Piste poids lourds","Lavage automatique","Lavage manuel","Vente de gaz domestique (Butane, Propane)","Vente d'additifs carburants","Automate CB 24/24","DAB (Distributeur automatique de billets)"]},{"id":30127001,"lat":43.757,"lng":4.512,"addr":"4 avenue des arenes","city":"BELLEGARDE","cp":"30127","fuels":{"Gazole":{"p":2.178,"d":"2026-04-27"},"SP95":{"p":2.051,"d":"2026-04-27"},"SP98":{"p":2.139,"d":"2026-04-27"}},"brand":"Carrefour","services":["Laverie","Relais colis","Station de gonflage","Location de véhicule","Lavage automatique","Lavage manuel","Vente de gaz domestique (Butane, Propane)"]},{"id":30160001,"lat":44.29233,"lng":4.0934,"addr":"Rue du Docteur Paul Vermale","city":"BESSEGES","cp":"30160","fuels":{"Gazole":{"p":2.269,"d":"2026-04-28"},"SP95":{"p":2.149,"d":"2026-04-28"},"SP98":{"p":2.199,"d":"2026-04-28"}},"brand":"Carrefour","services":["Station de gonflage","Lavage automatique","Lavage manuel","Vente de gaz domestique (Butane, Propane)","DAB (Distributeur automatique de billets)"]},{"id":30620001,"lat":43.767,"lng":4.282,"addr":"Chemin de Calvisson","city":"Bernis","cp":"30620","fuels":{"Gazole":{"p":2.221,"d":"2026-04-16"},"E10":{"p":1.953,"d":"2026-04-16"},"SP98":{"p":2.061,"d":"2026-04-16"}},"h24":true,"services":["Station de gonflage","Aire de camping-cars","Piste poids lourds","Automate CB 24/24"]},{"id":30350002,"lat":43.985,"lng":4.106,"addr":"153 Route de Montpellier","city":"LEDIGNAN","cp":"30350","fuels":{"Gazole":{"p":2.09,"d":"2026-05-01"},"E85":{"p":0.859,"d":"2026-04-15"},"E10":{"p":1.99,"d":"2026-04-20"},"SP98":{"p":1.99,"d":"2026-04-28"}},"brand":"Gonzalez Jean Marc SARL","h24":true,"services":["Carburant additivé","Vente de gaz domestique (Butane, Propane)","Vente d'additifs carburants","Automate CB 24/24"]},{"id":30330003,"lat":44.076,"lng":4.586,"addr":"RD 310","city":"Gaujac","cp":"30330","fuels":{"Gazole":{"p":2.195,"d":"2026-04-30"},"E10":{"p":1.985,"d":"2026-04-30"},"SP98":{"p":2.088,"d":"2026-04-30"}},"brand":"Intermarché","services":["Boutique alimentaire","Lavage automatique","Vente de gaz domestique (Butane, Propane)"]},{"id":30320008,"lat":43.884,"lng":4.492,"addr":"185 ROUTE D'AVIGNON","city":"BEZOUCE","cp":"30320","fuels":{"SP95":{"p":1.99,"d":"2026-05-01"}},"brand":"TotalEnergies","h24":true,"services":["Toilettes publiques","Relais colis","Station de gonflage","Lavage automatique","Services réparation / entretien","Vente d'additifs carburants","Automate CB 24/24"]},{"id":30100014,"lat":44.121,"lng":4.087,"addr":"44 AV CARNOT","city":"ALES","cp":"30100","fuels":{"Gazole":{"p":2.25,"d":"2026-04-29"},"E10":{"p":1.99,"d":"2026-04-21"}},"brand":"TotalEnergies","h24":true,"services":["Boutique alimentaire","Restauration à emporter","Station de gonflage","Carburant additivé","Lavage automatique","Vente d'additifs carburants","Automate CB 24/24"]},{"id":30760001,"lat":44.293968,"lng":4.567869,"addr":"75 chemin dechetterie","city":"st julien de peyrolas","cp":"30760","fuels":{"Gazole":{"p":2.239,"d":"2026-04-27"},"E85":{"p":0.829,"d":"2026-04-27"},"E10":{"p":1.999,"d":"2026-04-27"},"SP98":{"p":2.099,"d":"2026-04-27"}},"h24":true,"services":["Laverie","Relais colis","Boutique alimentaire","Carburant additivé","Vente de gaz domestique (Butane, Propane)","Bornes électriques","Automate CB 24/24"]},{"id":30330001,"lat":44.157,"lng":4.623,"addr":"AVENUE DE LA MAYRE","city":"BAGNOLS-SUR-CèZE","cp":"30200","fuels":{"Gazole":{"p":2.16,"d":"2026-04-30"},"E85":{"p":0.927,"d":"2026-04-30"},"E10":{"p":2.011,"d":"2026-04-30"},"SP98":{"p":2.141,"d":"2026-04-30"}},"brand":"Carrefour","h24":true,"services":["Vente de gaz domestique (Butane, Propane)","Automate CB 24/24","DAB (Distributeur automatique de billets)"]},{"id":30200004,"lat":44.155,"lng":4.612,"addr":"Route de Tresques","city":"BAGNOLS-SUR-CèZE","cp":"30200","fuels":{"Gazole":{"p":2.195,"d":"2026-04-29"},"E85":{"p":0.819,"d":"2026-04-16"},"E10":{"p":1.985,"d":"2026-04-29"},"SP98":{"p":2.085,"d":"2026-04-29"}},"brand":"Groupement des Mousquetaires","services":["Laverie","Relais colis","Boutique alimentaire","Location de véhicule","Lavage automatique","DAB (Distributeur automatique de billets)"]},{"id":30290002,"lat":44.062,"lng":4.639,"addr":"chemin des lonnes, route des vignerons","city":"saint-victor-la-coste","cp":"30290","fuels":{"Gazole":{"p":2.195,"d":"2026-04-29"},"E85":{"p":0.819,"d":"2026-04-22"},"E10":{"p":2.027,"d":"2026-04-29"},"SP98":{"p":2.139,"d":"2026-04-29"}},"h24":true,"services":["Laverie","Boutique alimentaire","Station de gonflage","Carburant additivé","Lavage automatique","Vente de gaz domestique (Butane, Propane)","Bornes électriques","Automate CB 24/24"]},{"id":30110003,"lat":44.211,"lng":4.032,"addr":"1 Rue des Tuileries","city":"LA GRAND-COMBE","cp":"30110","fuels":{"Gazole":{"p":2.149,"d":"2026-04-30"},"E85":{"p":0.819,"d":"2026-04-30"},"E10":{"p":1.989,"d":"2026-04-30"},"SP98":{"p":2.099,"d":"2026-04-30"}},"brand":"Intermarché","h24":true,"services":["Laverie","Station de gonflage","Lavage automatique","Vente de gaz domestique (Butane, Propane)","Automate CB 24/24","DAB (Distributeur automatique de billets)"]},{"id":30540001,"lat":43.786,"lng":4.304,"addr":"37 Rue de l'Aubepin","city":"MILHAUD","cp":"30540","fuels":{"Gazole":{"p":2.221,"d":"2026-04-16"},"E85":{"p":0.819,"d":"2026-04-16"},"E10":{"p":1.953,"d":"2026-04-16"},"SP98":{"p":2.061,"d":"2026-04-16"}},"brand":"Intermarché","h24":true,"services":["Vente de fioul domestique","Lavage manuel","Vente de gaz domestique (Butane, Propane)","Automate CB 24/24","DAB (Distributeur automatique de billets)"]},{"id":30900002,"lat":43.81719,"lng":4.34044,"addr":"405 Chemin Bas de Montpellier","city":"NîMES","cp":"30900","fuels":{"Gazole":{"p":2.195,"d":"2026-04-30"},"SP95":{"p":2.131,"d":"2026-04-30"},"GPLc":{"p":1.068,"d":"2026-04-30"},"E10":{"p":2.028,"d":"2026-04-30"}},"brand":"Carrefour","services":["Vente de pétrole lampant","Vente de gaz domestique (Butane, Propane)","DAB (Distributeur automatique de billets)"]},{"id":30360001,"lat":44.219,"lng":4.484,"addr":"ROUTE DE BARJAC","city":"Cornillon","cp":"30630","fuels":{"Gazole":{"p":2.142,"d":"2026-04-30"},"SP95":{"p":2.045,"d":"2026-04-30"}},"brand":"Intermarché","h24":true,"services":["Vente de gaz domestique (Butane, Propane)","Automate CB 24/24"]},{"id":30400005,"lat":43.958,"lng":4.778,"addr":"97 AVENUE GÉNÉRAL LECLERC","city":"Villeneuve-lès-Avignon","cp":"30400","fuels":{"Gazole":{"p":2.09,"d":"2026-05-01"},"E85":{"p":0.869,"d":"2026-05-01"},"E10":{"p":1.99,"d":"2026-05-01"}},"brand":"TotalEnergies","h24":true,"services":["Boutique alimentaire","Boutique non alimentaire","Restauration à emporter","Station de gonflage","Carburant additivé","Lavage automatique","Vente de gaz domestique (Butane, Propane)","Vente d'additifs carburants","Automate CB 24/24","DAB (Distributeur automatique de billets)"]},{"id":30800001,"lat":43.665,"lng":4.401,"addr":"1 Rue de Cambon","city":"SAINT-GILLES","cp":"30800","fuels":{"Gazole":{"p":2.199,"d":"2026-04-21"},"SP95":{"p":2.049,"d":"2026-04-14"},"E85":{"p":0.819,"d":"2026-04-16"},"GPLc":{"p":0.959,"d":"2026-04-14"},"E10":{"p":1.999,"d":"2026-04-14"}},"brand":"Intermarché","h24":true,"services":["Toilettes publiques","Laverie","Relais colis","Boutique alimentaire","Boutique non alimentaire","Restauration à emporter","Restauration sur place","Bar","Vente de fioul domestique","Vente de pétrole lampant","Station de gonflage","Piste poids lourds","Vente de gaz domestique (Butane, Propane)","Automate CB 24/24","DAB (Distributeur automatique de billets)"]},{"id":30190002,"lat":43.976087047953,"lng":4.2034940976462005,"addr":"RN106","city":"Brignon","cp":"30190","fuels":{"Gazole":{"p":2.395,"d":"2026-04-21"},"SP95":{"p":2.288,"d":"2026-04-21"},"E10":{"p":2.255,"d":"2026-04-21"}},"brand":"Berbon Sarl","services":["Vente de fioul domestique","Vente de gaz domestique (Butane, Propane)"]},{"id":30430003,"lat":44.305971513512006,"lng":4.3426764305023,"addr":"80 rue Pierre Andre Benoit, quartier la Reboulasse","city":"BARJAC","cp":"30430","fuels":{"Gazole":{"p":2.261,"d":"2026-04-25"},"SP95":{"p":2.144,"d":"2026-04-25"},"E85":{"p":0.878,"d":"2026-04-25"}},"h24":true,"services":["Piste poids lourds","Vente de gaz domestique (Butane, Propane)","Automate CB 24/24"]},{"id":30133001,"lat":43.96,"lng":4.75,"addr":"1 Avenue de Tavel","city":"Les Angles","cp":"30133","fuels":{"Gazole":{"p":2.175,"d":"2026-04-25"},"E10":{"p":1.995,"d":"2026-04-29"}},"brand":"Leclerc","services":["Toilettes publiques","Boutique alimentaire","Boutique non alimentaire","Restauration sur place","Station de gonflage","Lavage automatique","Lavage manuel","Vente de gaz domestique (Butane, Propane)"]},{"id":30150001,"lat":44.05271,"lng":4.77918,"addr":"Boulevard National","city":"Roquemaure","cp":"30150","fuels":{"Gazole":{"p":2.395,"d":"2026-04-14"},"E10":{"p":2.095,"d":"2026-04-14"},"SP98":{"p":2.159,"d":"2026-04-23"}},"services":["Station de gonflage"]},{"id":30430002,"lat":44.305983685312,"lng":4.3426901021774,"addr":"Quartier Reboulasse","city":"Barjac","cp":"30430","fuels":{"Gazole":{"p":2.261,"d":"2026-04-25"},"SP95":{"p":2.144,"d":"2026-04-25"},"E85":{"p":0.878,"d":"2026-04-25"}},"brand":"Carrefour","services":["Vente de gaz domestique (Butane, Propane)","DAB (Distributeur automatique de billets)"]},{"id":30126008,"lat":43.99899198079999,"lng":4.6990798723954,"addr":"AIRE DE TAVEL SUD","city":"Tavel","cp":"30126","fuels":{"Gazole":{"p":2.544,"d":"2026-04-30"},"GPLc":{"p":1.144,"d":"2026-04-30"},"E10":{"p":2.294,"d":"2026-04-30"},"SP98":{"p":2.394,"d":"2026-04-30"}},"brand":"Eni","services":["Toilettes publiques","Douches","Boutique alimentaire","Station de gonflage","Carburant additivé","Espace bébé"]},{"id":30900004,"lat":43.821,"lng":4.337,"addr":"15 RUE DES POETES","city":"Nîmes","cp":"30900","fuels":{"Gazole":{"p":2.186,"d":"2026-05-01"},"E10":{"p":1.99,"d":"2026-05-01"},"SP98":{"p":2.07,"d":"2026-05-01"}},"brand":"Esso"},{"id":30900015,"lat":43.81305,"lng":4.33267,"addr":"2290 ROUTE DE MONTPELLIER","city":"NIMES","cp":"30900","fuels":{"Gazole":{"p":2.09,"d":"2026-05-01"}},"brand":"TotalEnergies","services":["Boutique alimentaire","Restauration à emporter","Station de gonflage","Carburant additivé","Lavage automatique","Vente de gaz domestique (Butane, Propane)","DAB (Distributeur automatique de billets)"]},{"id":30340004,"lat":44.13,"lng":4.124,"addr":"RTE DE BAGNOLS","city":"Saint-Privat-des-Vieux","cp":"30340","fuels":{"Gazole":{"p":2.31,"d":"2026-04-29"},"E85":{"p":0.95,"d":"2026-04-29"},"E10":{"p":2.14,"d":"2026-04-29"},"SP98":{"p":2.2,"d":"2026-04-29"}},"brand":"Agip","h24":true,"services":["Laverie","Boutique non alimentaire","Station de gonflage","Carburant additivé","Piste poids lourds","Services réparation / entretien","Vente de gaz domestique (Butane, Propane)","Vente d'additifs carburants","Automate CB 24/24"]},{"id":30650001,"lat":43.975,"lng":4.684,"addr":"597 AVENUE DE SIGNARGUES","city":"Rochefort-du-Gard","cp":"30650","fuels":{"Gazole":{"p":2.296,"d":"2026-04-17"},"E10":{"p":2.047,"d":"2026-04-17"},"SP98":{"p":2.198,"d":"2026-04-17"}},"brand":"Georges Pruvost GPF","h24":true,"services":["Toilettes publiques","Boutique non alimentaire","Station de gonflage","Carburant additivé","Aire de camping-cars","Lavage automatique","Lavage manuel","Services réparation / entretien","Vente d'additifs carburants","Wifi","Automate CB 24/24"]},{"id":30580001,"lat":44.151,"lng":4.362,"addr":"Lieu-dit Mas Neuf","city":"Lussan","cp":"30580","fuels":{"Gazole":{"p":2.28,"d":"2026-04-17"},"SP95":{"p":2.08,"d":"2026-04-17"},"SP98":{"p":2.12,"d":"2026-04-17"}},"brand":"Bonnaure Badine et Marion","h24":true,"services":["Toilettes publiques","Boutique non alimentaire","Restauration à emporter","Restauration sur place","Bar","Station de gonflage","Vente de gaz domestique (Butane, Propane)","Bornes électriques","Vente d'additifs carburants","Wifi","Automate CB 24/24"]},{"id":30000012,"lat":43.845,"lng":4.308,"addr":"RUE DON SAUVEUR PAGANELLI","city":"NIMES. VACQUEROLLES","cp":"30900","fuels":{"Gazole":{"p":2.169,"d":"2026-04-30"},"E85":{"p":0.819,"d":"2026-04-16"},"E10":{"p":1.999,"d":"2026-04-27"},"SP98":{"p":2.149,"d":"2026-04-27"}},"brand":"Intermarché","h24":true,"services":["Laverie","Restauration sur place","Vente de fioul domestique","Station de gonflage","Location de véhicule","Piste poids lourds","Lavage automatique","Lavage manuel","Vente de gaz domestique (Butane, Propane)","Bornes électriques","Automate CB 24/24","DAB (Distributeur automatique de billets)"]},{"id":30240002,"lat":43.49,"lng":4.186,"addr":"CHEMIN DE TERRE NEUVE","city":"Le Grau-du-Roi","cp":"30240","fuels":{"Gazole":{"p":2.25,"d":"2026-04-27"},"E10":{"p":2.13,"d":"2026-04-29"},"SP98":{"p":2.18,"d":"2026-04-29"}},"h24":true,"services":["Boutique alimentaire","Restauration à emporter","Restauration sur place","Station de gonflage","Carburant additivé","Piste poids lourds","Lavage automatique","Lavage manuel","Vente de gaz domestique (Butane, Propane)","Vente d'additifs carburants","Automate CB 24/24","DAB (Distributeur automatique de billets)"]},{"id":30220003,"lat":43.628,"lng":4.192,"addr":"180 AVENUE DU GENERAL TROUCHAUD","city":"Saint-Laurent-d'Aigouze","cp":"30220","fuels":{"Gazole":{"p":2.179,"d":"2026-04-30"},"SP95":{"p":2.099,"d":"2026-04-30"},"E10":{"p":2.079,"d":"2026-04-30"},"SP98":{"p":2.139,"d":"2026-04-30"}},"brand":"Système U","h24":true,"services":["Relais colis","Boutique alimentaire","Station de gonflage","Aire de camping-cars","Piste poids lourds","Lavage automatique","Lavage manuel","Vente de gaz domestique (Butane, Propane)","Automate CB 24/24"]},{"id":30021001,"lat":43.817,"lng":4.392,"addr":"1755 avenue Pierre MENDES FRANCE","city":"NîMES","cp":"30021","fuels":{"Gazole":{"p":2.147,"d":"2026-04-29"},"SP95":{"p":2.072,"d":"2026-04-29"},"E10":{"p":1.998,"d":"2026-04-29"},"SP98":{"p":2.109,"d":"2026-04-29"}},"brand":"Carrefour","h24":true,"services":["Relais colis","Station de gonflage","Carburant additivé","Location de véhicule","Piste poids lourds","Lavage automatique","Lavage manuel","Vente de gaz domestique (Butane, Propane)","Automate CB 24/24","DAB (Distributeur automatique de billets)"]},{"id":30490002,"lat":43.873,"lng":4.596,"addr":"13 Avenue du Général de Gaulle","city":"MONTFRIN","cp":"30490","fuels":{"Gazole":{"p":2.199,"d":"2026-04-29"},"SP95":{"p":2.047,"d":"2026-04-29"},"E85":{"p":0.818,"d":"2026-04-29"},"SP98":{"p":2.106,"d":"2026-04-29"}},"brand":"Intermarché","services":["Station de gonflage","Lavage automatique","Vente de gaz domestique (Butane, Propane)","DAB (Distributeur automatique de billets)"]},{"id":30240001,"lat":43.522,"lng":4.139,"addr":"ZA du Port de Pêche","city":"Le Grau-du-Roi","cp":"30240","fuels":{"Gazole":{"p":2.199,"d":"2026-04-27"},"SP95":{"p":2.069,"d":"2026-04-27"},"E10":{"p":2.029,"d":"2026-04-27"}},"brand":"Système U","h24":true,"services":["Toilettes publiques","Station de gonflage","Carburant additivé","Location de véhicule","Lavage automatique","Vente de gaz domestique (Butane, Propane)","Automate CB 24/24","DAB (Distributeur automatique de billets)"]},{"id":30320006,"lat":43.875,"lng":4.45,"addr":"AUTOROUTE A9 - AIRE DE MARGUERITES NORD","city":"MARGUERITTES","cp":"30320","fuels":{"Gazole":{"p":2.09,"d":"2026-05-01"},"E85":{"p":0.999,"d":"2026-05-01"},"GPLc":{"p":1.149,"d":"2026-05-01"},"E10":{"p":1.99,"d":"2026-05-01"},"SP98":{"p":1.99,"d":"2026-05-01"}},"brand":"TotalEnergies","services":["Toilettes publiques","Douches","Boutique alimentaire","Boutique non alimentaire","Restauration à emporter","Restauration sur place","Station de gonflage","Carburant additivé","Piste poids lourds","Espace bébé","DAB (Distributeur automatique de billets)"]},{"id":30900018,"lat":43.812,"lng":4.339,"addr":"35 RUE RUDOLPHE DIESEL","city":"NIMES","cp":"30900","fuels":{"Gazole":{"p":2.09,"d":"2026-05-01"},"E10":{"p":1.99,"d":"2026-05-01"}},"brand":"TotalEnergies","services":["Boutique alimentaire","Station de gonflage","Carburant additivé","Piste poids lourds","Lavage automatique","Wifi"]},{"id":30200006,"lat":44.131,"lng":4.675,"addr":"ROUTE D'AVIGNON - RN 580","city":"ORSAN","cp":"30200","fuels":{"Gazole":{"p":2.09,"d":"2026-05-01"},"E85":{"p":0.839,"d":"2026-05-01"},"E10":{"p":1.99,"d":"2026-05-01"}},"brand":"TotalEnergies","h24":true,"services":["Boutique alimentaire","Boutique non alimentaire","Restauration à emporter","Station de gonflage","Carburant additivé","Piste poids lourds","Lavage automatique","Vente de gaz domestique (Butane, Propane)","Vente d'additifs carburants","Wifi","Automate CB 24/24"]},{"id":30100011,"lat":44.135,"lng":4.092,"addr":"2 AVENUE D'INDY","city":"ALES","cp":"30100","fuels":{"Gazole":{"p":2.31,"d":"2026-04-29"},"SP95":{"p":2.17,"d":"2026-04-29"},"E85":{"p":0.95,"d":"2026-04-29"},"E10":{"p":2.14,"d":"2026-04-29"},"SP98":{"p":2.2,"d":"2026-04-29"}},"brand":"Eni","h24":true,"services":["Toilettes publiques","Boutique alimentaire","Boutique non alimentaire","Vente de fioul domestique","Vente de pétrole lampant","Station de gonflage","Carburant additivé","Piste poids lourds","Lavage manuel","Services réparation / entretien","Vente de gaz domestique (Butane, Propane)","Vente d'additifs carburants","Automate CB 24/24"]},{"id":30132003,"lat":43.784,"lng":4.393,"addr":"ROUTE DE ST GILLES","city":"CAISSARGUES","cp":"30132","fuels":{"Gazole":{"p":2.299,"d":"2026-04-28"},"SP95":{"p":2.099,"d":"2026-04-28"},"E85":{"p":0.899,"d":"2026-04-28"},"SP98":{"p":2.199,"d":"2026-04-28"}},"brand":"Dyneff","services":["Toilettes publiques","Boutique alimentaire","Station de gonflage","Lavage automatique","Lavage manuel","Services réparation / entretien","Vente de gaz domestique (Butane, Propane)","DAB (Distributeur automatique de billets)"]},{"id":30110004,"lat":44.21,"lng":4.022,"addr":"LA POMAREDE","city":"Les Salles-du-Gardon","cp":"30110","fuels":{"Gazole":{"p":2.149,"d":"2026-04-30"},"E10":{"p":1.989,"d":"2026-04-30"},"SP98":{"p":2.109,"d":"2026-04-30"}},"brand":"Netto","h24":true,"services":["Boutique alimentaire","Station de gonflage","Aire de camping-cars","Piste poids lourds","Vente de gaz domestique (Butane, Propane)","Automate CB 24/24"]},{"id":30140001,"lat":44.051,"lng":3.987,"addr":"Rue de Luxembourg","city":"Anduze","cp":"30140","fuels":{"Gazole":{"p":2.199,"d":"2026-04-20"},"E10":{"p":2.049,"d":"2026-04-28"},"SP98":{"p":2.109,"d":"2026-04-28"}},"brand":"Système U","h24":true,"services":["Station de gonflage","Location de véhicule","Vente de gaz domestique (Butane, Propane)","Wifi","Automate CB 24/24","DAB (Distributeur automatique de billets)"]},{"id":30320004,"lat":43.858941893133995,"lng":4.4331301495777,"addr":"92 Allée de la picholine","city":"Marguerittes","cp":"30320","fuels":{"Gazole":{"p":2.179,"d":"2026-04-27"},"GPLc":{"p":0.899,"d":"2026-04-30"},"E10":{"p":1.999,"d":"2026-04-20"},"SP98":{"p":2.111,"d":"2026-04-27"}},"brand":"Intermarché","h24":true,"services":["Laverie","Boutique alimentaire","Restauration à emporter","Station de gonflage","Piste poids lourds","Lavage automatique","Lavage manuel","Vente de gaz domestique (Butane, Propane)","Wifi","Automate CB 24/24","DAB (Distributeur automatique de billets)"]},{"id":30100001,"lat":44.10715,"lng":4.09387,"addr":"Rue Olivier de Serres","city":"ALèS","cp":"30100","fuels":{"Gazole":{"p":2.189,"d":"2026-04-30"},"SP95":{"p":2.069,"d":"2026-04-29"},"E10":{"p":2.038,"d":"2026-04-28"},"SP98":{"p":2.103,"d":"2026-04-30"}},"brand":"Système U","services":["Toilettes publiques","Boutique alimentaire","Boutique non alimentaire","Restauration à emporter","Restauration sur place","Bar","Vente de fioul domestique","Station de gonflage","Carburant additivé","Location de véhicule","Lavage automatique","Lavage manuel","Services réparation / entretien","DAB (Distributeur automatique de billets)"]},{"id":30210006,"lat":43.942,"lng":4.569,"addr":"32 Route de Bagnols","city":"Remoulins","cp":"30210","fuels":{"Gazole":{"p":2.328,"d":"2026-04-30"},"E85":{"p":1.056,"d":"2026-04-30"},"E10":{"p":2.208,"d":"2026-04-30"},"SP98":{"p":2.22,"d":"2026-04-30"}},"brand":"Avia","services":["Relais colis","Boutique alimentaire","Vente de fioul domestique","Carburant additivé","Piste poids lourds","Lavage automatique","Services réparation / entretien","Vente de gaz domestique (Butane, Propane)","DAB (Distributeur automatique de billets)"]},{"id":30390002,"lat":43.896826126273005,"lng":4.692677424112,"addr":"760 AVENUE DU GENERAL DE GAULLE","city":"ARAMON","cp":"30390","fuels":{"Gazole":{"p":2.282,"d":"2026-04-23"},"SP95":{"p":2.131,"d":"2026-04-07"},"E10":{"p":2.082,"d":"2026-04-07"}},"brand":"Carrefour","h24":true,"services":["Laverie","Relais colis","Boutique alimentaire","Station de gonflage","Location de véhicule","Piste poids lourds","Lavage automatique","Vente de gaz domestique (Butane, Propane)","Automate CB 24/24"]},{"id":30640001,"lat":43.726,"lng":4.33,"addr":"711 avenue Cabassan Clarettes","city":"Beauvoisin","cp":"30640","fuels":{"Gazole":{"p":2.214,"d":"2026-04-28"},"E85":{"p":0.784,"d":"2026-04-17"},"E10":{"p":2.084,"d":"2026-04-28"}},"brand":"Système U","h24":true,"services":["Laverie","Station de gonflage","Piste poids lourds","Lavage automatique","Vente de gaz domestique (Butane, Propane)","Automate CB 24/24"]},{"id":30290001,"lat":44.106,"lng":4.661,"addr":"Rue Victor Hugo","city":"LAUDUN","cp":"30290","fuels":{"Gazole":{"p":2.195,"d":"2026-04-29"},"E85":{"p":0.819,"d":"2026-04-22"},"E10":{"p":2.027,"d":"2026-04-29"},"SP98":{"p":2.139,"d":"2026-04-29"}},"brand":"Système U","services":["Boutique alimentaire","Boutique non alimentaire","Location de véhicule","Lavage automatique","Vente de gaz domestique (Butane, Propane)","DAB (Distributeur automatique de billets)"]},{"id":30240004,"lat":43.519,"lng":4.132,"addr":"1 RUE ALTIER","city":"Le Grau-du-Roi","cp":"30240","fuels":{"Gazole":{"p":2.36,"d":"2026-04-28"},"SP95":{"p":2.26,"d":"2026-04-29"},"SP98":{"p":2.2,"d":"2026-04-03"}},"services":["Boutique non alimentaire","Vente de gaz domestique (Butane, Propane)"]},{"id":30170001,"lat":43.951,"lng":3.873,"addr":"Place de La Couronne","city":"Saint-Hippolyte-du-Fort","cp":"30170","fuels":{"Gazole":{"p":2.239,"d":"2026-04-30"},"E85":{"p":0.759,"d":"2026-04-09"},"E10":{"p":2.06,"d":"2026-04-30"},"SP98":{"p":2.145,"d":"2026-04-28"}},"brand":"Système U","h24":true,"services":["Laverie","Station de gonflage","Aire de camping-cars","Piste poids lourds","Lavage automatique","Vente de gaz domestique (Butane, Propane)","Automate CB 24/24"]},{"id":30300011,"lat":43.790397508843,"lng":4.6372614587217,"addr":"AVENUE JEAN MONNET","city":"BEAUCAIRE","cp":"30300","fuels":{"Gazole":{"p":2.249,"d":"2026-04-21"}},"brand":"Avia","services":["Piste poids lourds","DAB (Distributeur automatique de billets)"]},{"id":30380001,"lat":44.097,"lng":4.068,"addr":"Vieille Route d'Anduze","city":"SAINT-CHRISTOL-LèS-ALèS","cp":"30380","fuels":{"Gazole":{"p":2.179,"d":"2026-04-30"},"E10":{"p":2.029,"d":"2026-04-30"},"SP98":{"p":2.105,"d":"2026-04-30"}},"brand":"Intermarché","h24":true,"services":["Laverie","Piste poids lourds","Vente de gaz domestique (Butane, Propane)","Automate CB 24/24","DAB (Distributeur automatique de billets)"]},{"id":30260001,"lat":43.914,"lng":3.995,"addr":"639 Avenue de l'Aigoual","city":"Quissac","cp":"30260","fuels":{"Gazole":{"p":2.26,"d":"2026-04-30"},"SP95":{"p":2.15,"d":"2026-04-30"},"E85":{"p":0.99,"d":"2026-04-30"},"GPLc":{"p":1.039,"d":"2026-04-30"},"SP98":{"p":2.2,"d":"2026-04-30"}},"brand":"Dyneff","h24":true,"services":["Relais colis","Station de gonflage","Carburant additivé","Services réparation / entretien","Vente d'additifs carburants","Wifi","Automate CB 24/24","DAB (Distributeur automatique de billets)"]},{"id":30190004,"lat":43.945,"lng":4.227,"addr":"4 Lieu-Dit les Gousats","city":"SAINT-GENIèS-DE-MALGOIRèS","cp":"30190","fuels":{"Gazole":{"p":2.199,"d":"2026-04-22"},"E85":{"p":0.819,"d":"2026-04-16"},"E10":{"p":2.029,"d":"2026-04-28"},"SP98":{"p":2.149,"d":"2026-04-28"}},"brand":"Intermarché","services":["Laverie","Boutique alimentaire","Station de gonflage","Lavage automatique","Vente de gaz domestique (Butane, Propane)","DAB (Distributeur automatique de billets)"]},{"id":30140006,"lat":44.055,"lng":3.99,"addr":"RTE D'ALES","city":"ANDUZE","cp":"30140","fuels":{"Gazole":{"p":2.31,"d":"2026-04-29"},"SP95":{"p":2.17,"d":"2026-04-29"},"E85":{"p":0.95,"d":"2026-04-29"}},"brand":"Agip","h24":true,"services":["Boutique alimentaire","Boutique non alimentaire","Vente de fioul domestique","Carburant additivé","Piste poids lourds","Services réparation / entretien","Vente de gaz domestique (Butane, Propane)","Vente d'additifs carburants","Automate CB 24/24"]},{"id":30510002,"lat":43.734412460033994,"lng":4.3475591304305,"addr":"KM2 ROUTE DE NIMES","city":"Générac","cp":"30510","fuels":{"Gazole":{"p":2.299,"d":"2026-04-17"},"SP95":{"p":2.059,"d":"2026-04-29"},"SP98":{"p":2.109,"d":"2026-04-29"}},"brand":"Avia","services":["DAB (Distributeur automatique de billets)"]},{"id":30000011,"lat":43.85628,"lng":4.4032,"addr":"ROUTE D'AVIGNON","city":"NIMES","cp":"30000","fuels":{"Gazole":{"p":2.189,"d":"2026-04-30"},"E85":{"p":0.819,"d":"2026-04-30"},"E10":{"p":1.998,"d":"2026-04-30"},"SP98":{"p":2.099,"d":"2026-04-30"}},"brand":"Intermarché","services":["Vente de fioul domestique","Vente de gaz domestique (Butane, Propane)","DAB (Distributeur automatique de billets)"]},{"id":30132002,"lat":43.792,"lng":4.383,"addr":"allée Chardonnay","city":"CAISSARGUES","cp":"30132","fuels":{"Gazole":{"p":2.169,"d":"2026-04-30"},"E85":{"p":0.819,"d":"2026-04-30"},"E10":{"p":1.999,"d":"2026-04-30"},"SP98":{"p":2.129,"d":"2026-04-30"}},"brand":"Intermarché","services":["Laverie","Vente de gaz domestique (Butane, Propane)","DAB (Distributeur automatique de billets)"]},{"id":30104001,"lat":44.111,"lng":4.096,"addr":"QUAI DU MAS D'HOURS","city":"ALèS","cp":"30100","fuels":{"Gazole":{"p":2.189,"d":"2026-04-30"},"GPLc":{"p":1.082,"d":"2026-04-29"},"E10":{"p":2.038,"d":"2026-04-30"},"SP98":{"p":2.103,"d":"2026-04-30"}},"brand":"Cora","h24":true,"services":["Station de gonflage","Piste poids lourds","Vente de gaz domestique (Butane, Propane)","Bornes électriques","Automate CB 24/24","DAB (Distributeur automatique de billets)"]},{"id":30360002,"lat":44.045,"lng":4.145,"addr":"372 CHEMIN DE LA ROUVIERETTE","city":"Vézénobres","cp":"30360","fuels":{"Gazole":{"p":2.199,"d":"2026-04-20"},"SP95":{"p":2.089,"d":"2026-04-10"},"SP98":{"p":2.139,"d":"2026-04-10"}},"brand":"Carrefour","h24":true,"services":["Laverie","Relais colis","Boutique alimentaire","Boutique non alimentaire","Restauration à emporter","Bar","Station de gonflage","Location de véhicule","Lavage automatique","Lavage manuel","Services réparation / entretien","Vente de gaz domestique (Butane, Propane)","Automate CB 24/24","DAB (Distributeur automatique de billets)"]},{"id":30500002,"lat":44.255,"lng":4.203,"addr":"Route d'Uzès","city":"Saint-Ambroix","cp":"30500","fuels":{"Gazole":{"p":2.21,"d":"2026-04-30"},"E10":{"p":2.04,"d":"2026-04-30"},"SP98":{"p":2.23,"d":"2026-04-30"}},"brand":"Carrefour","h24":true,"services":["Station de gonflage","Automate CB 24/24","DAB (Distributeur automatique de billets)"]},{"id":30420001,"lat":43.781,"lng":4.201,"addr":"163 route de sommieres","city":"Calvisson","cp":"30420","fuels":{"Gazole":{"p":2.25,"d":"2026-04-23"},"E10":{"p":1.99,"d":"2026-04-23"},"SP98":{"p":1.99,"d":"2026-04-23"}},"brand":"TotalEnergies","h24":true,"services":["Boutique alimentaire","Boutique non alimentaire","Vente de fioul domestique","Station de gonflage","Carburant additivé","Piste poids lourds","Lavage automatique","Services réparation / entretien","Vente de gaz domestique (Butane, Propane)","Vente d'additifs carburants","Wifi","Automate CB 24/24"]},{"id":30210001,"lat":43.939,"lng":4.574,"addr":"Impasse Roussin","city":"REMOULINS","cp":"30210","fuels":{"Gazole":{"p":2.199,"d":"2026-04-21"},"E85":{"p":0.839,"d":"2026-04-08"},"E10":{"p":1.999,"d":"2026-04-15"},"SP98":{"p":2.129,"d":"2026-04-08"}},"brand":"Carrefour","h24":true,"services":["Vente de pétrole lampant","Station de gonflage","Location de véhicule","Piste poids lourds","Lavage automatique","Lavage manuel","Vente de gaz domestique (Butane, Propane)","Automate CB 24/24","DAB (Distributeur automatique de billets)"]},{"id":30260002,"lat":43.902,"lng":4.006,"addr":"45 VOIE ROMAINE","city":"QUISSAC","cp":"30260","fuels":{"Gazole":{"p":2.24,"d":"2026-04-27"},"SP95":{"p":2.12,"d":"2026-04-27"}},"services":["Toilettes publiques","Boutique alimentaire","Boutique non alimentaire","Station de gonflage","Piste poids lourds","DAB (Distributeur automatique de billets)"]},{"id":30960003,"lat":44.218,"lng":4.156,"addr":"LES CAMBONS","city":"LES MAGES","cp":"30960","fuels":{"Gazole":{"p":2.31,"d":"2026-04-29"},"E85":{"p":0.95,"d":"2026-04-29"},"GPLc":{"p":1.2,"d":"2026-04-29"},"E10":{"p":2.14,"d":"2026-04-29"},"SP98":{"p":2.2,"d":"2026-04-29"}},"h24":true,"services":["Relais colis","Boutique alimentaire","Boutique non alimentaire","Restauration à emporter","Restauration sur place","Vente de fioul domestique","Station de gonflage","Carburant additivé","Piste poids lourds","Lavage automatique","Lavage manuel","Vente de gaz domestique (Butane, Propane)","Vente d'additifs carburants","Automate CB 24/24"]},{"id":30900023,"lat":43.81,"lng":4.36,"addr":"200 avenue du Docteur Claude Baillet","city":"Nîmes","cp":"30000","fuels":{"Gazole":{"p":2.139,"d":"2026-04-30"},"E85":{"p":0.798,"d":"2026-04-30"},"GPLc":{"p":1.069,"d":"2026-04-28"},"E10":{"p":1.999,"d":"2026-04-28"},"SP98":{"p":2.099,"d":"2026-04-30"}},"brand":"Auchan","h24":true,"services":["Station de gonflage","Vente de gaz domestique (Butane, Propane)","Automate CB 24/24"]},{"id":30400001,"lat":43.979,"lng":4.786,"addr":"Route de Pujaut","city":"VILLENEUVE-LèS-AVIGNON","cp":"30400","fuels":{"Gazole":{"p":2.167,"d":"2026-04-30"},"E85":{"p":0.881,"d":"2026-04-21"},"E10":{"p":2.017,"d":"2026-04-30"},"SP98":{"p":2.149,"d":"2026-04-30"}},"brand":"Carrefour","h24":true,"services":["Automate CB 24/24","DAB (Distributeur automatique de billets)"]},{"id":30500001,"lat":44.268,"lng":4.196,"addr":"Route de Saint-Brès","city":"Saint-BRES","cp":"30500","fuels":{"Gazole":{"p":2.38,"d":"2026-04-28"},"SP95":{"p":2.2,"d":"2026-04-28"},"SP98":{"p":2.24,"d":"2026-04-28"}},"brand":"Avia","h24":true,"services":["Boutique non alimentaire","Vente de fioul domestique","Station de gonflage","Carburant additivé","Services réparation / entretien","Vente de gaz domestique (Butane, Propane)","Automate CB 24/24"]},{"id":30130014,"lat":44.252147948319994,"lng":4.6469518799714,"addr":"39 AVENUE GENERAL DE GAULLE","city":"Pont-Saint-Esprit","cp":"30130","fuels":{"Gazole":{"p":2.249,"d":"2026-04-30"},"SP95":{"p":2.049,"d":"2026-04-30"},"E85":{"p":0.818,"d":"2026-04-30"},"GPLc":{"p":1.099,"d":"2026-04-30"},"E10":{"p":1.999,"d":"2026-04-30"},"SP98":{"p":2.099,"d":"2026-04-30"}},"h24":true,"services":["Automate CB 24/24"]},{"id":30100018,"lat":44.114,"lng":4.101,"addr":"CENTRE COMMERCIAL LIDL 173 RTE DE NIMES","city":"Alès","cp":"30100","fuels":{"Gazole":{"p":2.189,"d":"2026-04-28"},"E85":{"p":0.889,"d":"2026-04-23"},"E10":{"p":2.035,"d":"2026-04-28"},"SP98":{"p":2.105,"d":"2026-04-28"}},"brand":"Esso","h24":true,"services":["Boutique alimentaire","Restauration à emporter","Restauration sur place","Bar","Station de gonflage","Carburant additivé","Aire de camping-cars","Piste poids lourds","Lavage automatique","Lavage manuel","Vente de gaz domestique (Butane, Propane)","Bornes électriques","Vente d'additifs carburants","Automate CB 24/24","DAB (Distributeur automatique de billets)"]},{"id":30000006,"lat":43.838,"lng":4.372,"addr":"47 Boulevard Talabot","city":"Nîmes","cp":"30900","fuels":{"Gazole":{"p":2.191,"d":"2026-04-29"},"E10":{"p":1.999,"d":"2026-04-29"},"SP98":{"p":2.07,"d":"2026-04-29"}},"brand":"Esso"},{"id":30126005,"lat":44.001,"lng":4.701,"addr":"AUTOROUTE A9","city":"Tavel","cp":"30126","fuels":{"Gazole":{"p":2.415,"d":"2026-05-01"},"GPLc":{"p":1.149,"d":"2026-05-01"},"E10":{"p":2.155,"d":"2026-05-01"},"SP98":{"p":2.255,"d":"2026-05-01"}},"brand":"Esso","services":["Toilettes publiques","Douches","Boutique alimentaire","Boutique non alimentaire","Station de gonflage","Carburant additivé","Piste poids lourds","Espace bébé"]},{"id":30120003,"lat":43.974,"lng":3.592,"addr":"Quartier Tuber CD 48","city":"Avèze","cp":"30120","fuels":{"Gazole":{"p":2.199,"d":"2026-04-28"},"SP95":{"p":2.069,"d":"2026-04-28"},"E10":{"p":2.029,"d":"2026-04-28"},"SP98":{"p":2.139,"d":"2026-04-28"}},"brand":"Intermarché","h24":true,"services":["Toilettes publiques","Laverie","Station de gonflage","Location de véhicule","Lavage automatique","Lavage manuel","Vente de gaz domestique (Butane, Propane)","Automate CB 24/24","DAB (Distributeur automatique de billets)"]},{"id":30100003,"lat":44.141,"lng":4.09,"addr":"42 chemin de brueges","city":"Alès","cp":"30100","fuels":{"Gazole":{"p":2.199,"d":"2026-04-24"},"E10":{"p":2.079,"d":"2026-04-30"},"SP98":{"p":2.109,"d":"2026-04-28"}},"brand":"Système U","h24":true,"services":["Relais colis","Boutique alimentaire","Boutique non alimentaire","Restauration à emporter","Station de gonflage","Location de véhicule","Piste poids lourds","Lavage automatique","Lavage manuel","Vente de gaz domestique (Butane, Propane)","Automate CB 24/24","DAB (Distributeur automatique de billets)"]},{"id":30120002,"lat":43.991,"lng":3.608,"addr":"Place du Maréchal Juin","city":"LE VIGAN","cp":"30120","fuels":{"Gazole":{"p":2.214,"d":"2026-04-28"},"SP95":{"p":2.092,"d":"2026-04-27"},"E85":{"p":0.759,"d":"2026-04-27"},"GPLc":{"p":1.11,"d":"2026-04-21"}},"brand":"Système U","h24":true,"services":["Toilettes publiques","Boutique alimentaire","Boutique non alimentaire","Restauration à emporter","Vente de pétrole lampant","Station de gonflage","Aire de camping-cars","Location de véhicule","Piste poids lourds","Lavage manuel","Services réparation / entretien","Vente de gaz domestique (Butane, Propane)","Automate CB 24/24","DAB (Distributeur automatique de billets)"]},{"id":30600003,"lat":43.707,"lng":4.268,"addr":"Mas Saint-Laurent","city":"Vauvert","cp":"30600","fuels":{"Gazole":{"p":2.199,"d":"2026-04-20"},"E10":{"p":1.989,"d":"2026-04-29"},"SP98":{"p":2.099,"d":"2026-04-13"}},"brand":"Intermarché","h24":true,"services":["Toilettes publiques","Laverie","Relais colis","Restauration à emporter","Restauration sur place","Station de gonflage","Piste poids lourds","Lavage automatique","Lavage manuel","Services réparation / entretien","Vente de gaz domestique (Butane, Propane)","Automate CB 24/24","DAB (Distributeur automatique de billets)"]},{"id":30129003,"lat":43.825232309078,"lng":4.4959062170312,"addr":"Route de Beaucaire - Mas Volette","city":"Redessan","cp":"30129","fuels":{"Gazole":{"p":2.189,"d":"2026-04-30"},"E85":{"p":0.819,"d":"2026-04-30"},"E10":{"p":1.999,"d":"2026-04-30"}},"brand":"Auchan","h24":true,"services":["Aire de camping-cars","Vente de gaz domestique (Butane, Propane)","Automate CB 24/24"]},{"id":30000008,"lat":43.837,"lng":4.395,"addr":"Route de Beaucaire","city":"NîMES","cp":"30000","fuels":{"Gazole":{"p":2.147,"d":"2026-04-30"},"E85":{"p":0.798,"d":"2026-04-30"},"GPLc":{"p":1.068,"d":"2026-04-30"},"E10":{"p":1.99,"d":"2026-04-30"},"SP98":{"p":2.07,"d":"2026-04-30"}},"brand":"Leclerc","h24":true,"services":["Laverie","Vente de pétrole lampant","Station de gonflage","Carburant additivé","Piste poids lourds","Lavage automatique","Vente de gaz domestique (Butane, Propane)","Automate CB 24/24"]},{"id":30470001,"lat":43.694,"lng":4.203,"addr":"Route des Plages","city":"Aimargues","cp":"30470","fuels":{"Gazole":{"p":2.199,"d":"2026-04-27"},"E85":{"p":0.815,"d":"2026-04-16"},"E10":{"p":2.016,"d":"2026-04-29"},"SP98":{"p":2.099,"d":"2026-04-30"}},"brand":"Système U","h24":true,"services":["Toilettes publiques","Laverie","Boutique alimentaire","Boutique non alimentaire","Restauration à emporter","Restauration sur place","Station de gonflage","Location de véhicule","Lavage automatique","Lavage manuel","Vente de gaz domestique (Butane, Propane)","Automate CB 24/24","DAB (Distributeur automatique de billets)"]},{"id":30900016,"lat":43.822,"lng":4.329,"addr":"BD PASTEUR MARC BOEGNER","city":"NIMES","cp":"30900","fuels":{"Gazole":{"p":2.09,"d":"2026-05-01"},"GPLc":{"p":1.049,"d":"2026-05-01"},"E10":{"p":1.99,"d":"2026-05-01"},"SP98":{"p":1.99,"d":"2026-05-01"}},"brand":"TotalEnergies","services":["Boutique alimentaire","Boutique non alimentaire","Restauration à emporter","Station de gonflage","Carburant additivé","Lavage automatique","Vente de gaz domestique (Butane, Propane)","Vente d'additifs carburants","Wifi"]},{"id":30320001,"lat":43.867,"lng":4.444,"addr":"58 Avenue Clément Ader","city":"Marguerittes","cp":"30320","fuels":{"Gazole":{"p":2.189,"d":"2026-04-30"},"SP95":{"p":2.049,"d":"2026-04-27"},"E85":{"p":0.819,"d":"2026-04-29"},"E10":{"p":1.999,"d":"2026-04-27"},"SP98":{"p":2.099,"d":"2026-04-27"}},"brand":"Système U","h24":true,"services":["Toilettes publiques","Laverie","Relais colis","Boutique alimentaire","Boutique non alimentaire","Restauration à emporter","Restauration sur place","Vente de fioul domestique","Station de gonflage","Carburant additivé","Aire de camping-cars","Location de véhicule","Piste poids lourds","Lavage automatique","Espace bébé","Vente de gaz domestique (Butane, Propane)","Bornes électriques","Vente d'additifs carburants","Wifi","Automate CB 24/24","DAB (Distributeur automatique de billets)"]},{"id":30960004,"lat":44.226,"lng":4.163,"addr":"route de la gare","city":"Les Mages","cp":"30960","fuels":{"Gazole":{"p":2.165,"d":"2026-04-25"},"E85":{"p":0.765,"d":"2026-04-25"},"E10":{"p":1.995,"d":"2026-04-25"},"SP98":{"p":2.065,"d":"2026-04-25"}},"brand":"Système U","h24":true,"services":["Laverie","Relais colis","Boutique alimentaire","Boutique non alimentaire","Vente de gaz domestique (Butane, Propane)","Automate CB 24/24"]},{"id":30210007,"lat":43.939,"lng":4.57,"addr":"86 avenue Geoffroy Perret","city":"REMOULINS","cp":"30210","fuels":{"Gazole":{"p":2.25,"d":"2026-04-22"},"E10":{"p":1.99,"d":"2026-04-20"},"SP98":{"p":1.99,"d":"2026-04-30"}},"brand":"TotalEnergies","h24":true,"services":["Boutique non alimentaire","Station de gonflage","Carburant additivé","Vente de gaz domestique (Butane, Propane)","Vente d'additifs carburants","Automate CB 24/24"]},{"id":30460001,"lat":44.043507000000005,"lng":3.859017,"addr":"20 RUE DE LA BARAQUE","city":"LASALLE","cp":"30460","fuels":{"Gazole":{"p":2.32,"d":"2026-04-24"},"E10":{"p":2.11,"d":"2026-04-24"},"SP98":{"p":2.18,"d":"2026-04-24"}}},{"id":30100007,"lat":44.117,"lng":4.107,"addr":"ZAC du Rieu Rocade Est","city":"Alès","cp":"30100","fuels":{"Gazole":{"p":2.189,"d":"2026-04-30"},"SP95":{"p":2.069,"d":"2026-04-30"},"E10":{"p":2.038,"d":"2026-04-30"},"SP98":{"p":2.103,"d":"2026-04-30"}},"brand":"Leclerc","h24":true,"services":["Boutique alimentaire","Boutique non alimentaire","Vente de gaz domestique (Butane, Propane)","Automate CB 24/24"]},{"id":30820002,"lat":43.821,"lng":4.261,"addr":"1 bis chemin des Rôles","city":"Caveirac","cp":"30820","fuels":{"Gazole":{"p":2.169,"d":"2026-04-28"},"E85":{"p":0.819,"d":"2026-04-17"},"E10":{"p":1.959,"d":"2026-04-28"},"SP98":{"p":2.069,"d":"2026-04-18"}},"brand":"Intermarché","h24":true,"services":["Toilettes publiques","Restauration à emporter","Restauration sur place","Automate CB 24/24"]},{"id":30128001,"lat":43.777667615294,"lng":4.428600305955,"addr":"1 rue Jacques Flory, Rte de Bouillargues","city":"Garons","cp":"30128","fuels":{"Gazole":{"p":2.179,"d":"2026-04-28"},"E85":{"p":0.849,"d":"2026-04-30"},"E10":{"p":1.999,"d":"2026-04-29"},"SP98":{"p":2.099,"d":"2026-04-29"}},"h24":true,"services":["Relais colis","Piste poids lourds","Vente de gaz domestique (Butane, Propane)","Automate CB 24/24"]},{"id":30250001,"lat":43.78095,"lng":4.08168,"addr":"Route de Saussines","city":"Sommières","cp":"30250","fuels":{"Gazole":{"p":2.096,"d":"2026-04-30"},"E85":{"p":0.819,"d":"2026-04-28"},"E10":{"p":1.946,"d":"2026-04-30"},"SP98":{"p":2.062,"d":"2026-04-30"}},"brand":"Intermarché","services":["Lavage manuel","Vente de gaz domestique (Butane, Propane)","DAB (Distributeur automatique de billets)"]},{"id":30130015,"lat":44.241,"lng":4.641,"addr":"1578 AVENUE GENERAL DE GAULLE","city":"Pont-Saint-Esprit","cp":"30130","fuels":{"Gazole":{"p":2.239,"d":"2026-04-30"},"E85":{"p":0.899,"d":"2026-04-30"},"E10":{"p":1.999,"d":"2026-04-30"},"SP98":{"p":2.099,"d":"2026-04-30"}},"h24":true,"services":["Relais colis","Location de véhicule","Vente de gaz domestique (Butane, Propane)","Bornes électriques","Automate CB 24/24","DAB (Distributeur automatique de billets)"]},{"id":30126009,"lat":44.059424936173,"lng":4.7111592904926995,"addr":"Zone d'Activité Commerciale de Tesan - Route de St Genies de Comolas","city":"Saint-Laurent-des-Arbres","cp":"30126","fuels":{"Gazole":{"p":2.179,"d":"2026-04-25"},"E85":{"p":0.819,"d":"2026-04-21"},"E10":{"p":2.039,"d":"2026-04-27"},"SP98":{"p":2.099,"d":"2026-04-27"}},"brand":"Auchan","h24":true,"services":["Vente de gaz domestique (Butane, Propane)","Automate CB 24/24"]},{"id":30130016,"lat":44.273179000000006,"lng":4.62822,"addr":"108 route des platanes","city":"pont st esprit","cp":"30130","fuels":{"Gazole":{"p":2.22,"d":"2026-04-29"},"E10":{"p":2.09,"d":"2026-04-29"},"SP98":{"p":2.14,"d":"2026-04-29"}},"h24":true,"services":["Relais colis","Boutique alimentaire","Boutique non alimentaire","Station de gonflage","Piste poids lourds","Services réparation / entretien","Vente de gaz domestique (Butane, Propane)","Vente d'additifs carburants","Automate CB 24/24"]},{"id":30700004,"lat":44.025,"lng":4.389,"addr":"Route d'Alès","city":"Montaren-et-Saint-Médiers","cp":"30700","fuels":{"Gazole":{"p":2.128,"d":"2026-04-30"},"SP95":{"p":2.065,"d":"2026-04-30"},"E85":{"p":0.818,"d":"2026-04-30"},"E10":{"p":1.944,"d":"2026-04-30"},"SP98":{"p":2.098,"d":"2026-04-30"}},"brand":"Intermarché","h24":true,"services":["Station de gonflage","Piste poids lourds","Lavage automatique","Lavage manuel","Vente de gaz domestique (Butane, Propane)","Bornes électriques","Automate CB 24/24","DAB (Distributeur automatique de billets)"]},{"id":30700007,"lat":44.009,"lng":4.419,"addr":"6/8 AVENUE MARECHAL FOCH","city":"UZES","cp":"30700","fuels":{"Gazole":{"p":2.09,"d":"2026-05-01"},"E85":{"p":0.829,"d":"2026-05-01"},"E10":{"p":1.99,"d":"2026-05-01"},"SP98":{"p":1.99,"d":"2026-05-01"}},"brand":"TotalEnergies","services":["Boutique alimentaire","Boutique non alimentaire","Vente de fioul domestique","Station de gonflage","Vente de gaz domestique (Butane, Propane)","Wifi"]},{"id":30130010,"lat":44.258,"lng":4.649,"addr":"PLACE DU PLAN","city":"Pont-Saint-Esprit","cp":"30130","fuels":{"Gazole":{"p":2.09,"d":"2026-05-01"},"E10":{"p":1.99,"d":"2026-05-01"},"SP98":{"p":1.99,"d":"2026-05-01"}},"brand":"TotalEnergies","services":["Relais colis","Boutique alimentaire","Boutique non alimentaire","Restauration à emporter","Station de gonflage","Vente de gaz domestique (Butane, Propane)","Vente d'additifs carburants","Wifi"]}]