[{"id":37380004,"lat":47.474,"lng":0.777,"addr":"AUTOROUTE A10 - AIRE TOURS VAL DE LOIRE","city":"MONNAIE","cp":"37380","fuels":{"Gazole":{"p":2.09,"d":"2026-05-01"},"E85":{"p":0.999,"d":"2026-05-01"},"GPLc":{"p":1.139,"d":"2026-05-01"},"E10":{"p":1.99,"d":"2026-05-01"},"SP98":{"p":1.99,"d":"2026-05-01"}},"brand":"TotalEnergies","services":["Toilettes publiques","Douches","Boutique alimentaire","Boutique non alimentaire","Station de gonflage","Piste poids lourds","Espace bébé","DAB (Distributeur automatique de billets)"]},{"id":37500002,"lat":47.154,"lng":0.236,"addr":"ROUTE DE SAUMUR","city":"CHINON","cp":"37500","fuels":{"Gazole":{"p":2.25,"d":"2026-04-09"},"SP95":{"p":1.99,"d":"2026-03-23"}},"brand":"Elan"},{"id":37270005,"lat":47.355,"lng":0.817,"addr":"62 CHEMIN DE LA BUSSARDIERE","city":"VERETZ","cp":"37270","fuels":{"Gazole":{"p":2.169,"d":"2026-04-29"},"E85":{"p":0.818,"d":"2026-04-20"},"E10":{"p":1.949,"d":"2026-04-29"},"SP98":{"p":2.049,"d":"2026-04-29"}},"brand":"Intermarché","services":["Toilettes publiques","Relais colis","Boutique alimentaire","Boutique non alimentaire","Station de gonflage","Lavage automatique","Lavage manuel","Vente de gaz domestique (Butane, Propane)","Vente d'additifs carburants","DAB (Distributeur automatique de billets)"]},{"id":37700010,"lat":47.39668,"lng":0.71715,"addr":"76, QUAI DE LA LOIRE","city":"ST PIERRE DES CORPS","cp":"37700","fuels":{"Gazole":{"p":2.09,"d":"2026-05-01"},"E85":{"p":0.859,"d":"2026-05-01"},"GPLc":{"p":1.039,"d":"2026-05-01"},"SP98":{"p":1.99,"d":"2026-05-01"}},"brand":"TotalEnergies","services":["Boutique alimentaire","Boutique non alimentaire","Station de gonflage","Carburant additivé","Lavage automatique"]},{"id":37290002,"lat":46.858936662702,"lng":0.9392421249000401,"addr":"16 ROUTE DE LOCHES","city":"Preuilly-sur-Claise","cp":"37290","fuels":{"Gazole":{"p":2.25,"d":"2026-04-17"},"SP95":{"p":1.99,"d":"2026-04-08"},"SP98":{"p":1.99,"d":"2026-04-08"}},"h24":true,"services":["Station de gonflage","Location de véhicule","Services réparation / entretien","Vente d'additifs carburants","Automate CB 24/24"]},{"id":37510001,"lat":47.344,"lng":0.615,"addr":"9, rue Jean Mermoz","city":"Ballan-Miré","cp":"37510","fuels":{"Gazole":{"p":2.169,"d":"2026-04-30"},"E10":{"p":1.999,"d":"2026-04-30"},"SP98":{"p":2.089,"d":"2026-04-30"}},"brand":"Auchan","h24":true,"services":["Boutique alimentaire","Boutique non alimentaire","Lavage automatique","Vente de gaz domestique (Butane, Propane)","Automate CB 24/24","DAB (Distributeur automatique de billets)"]},{"id":37800006,"lat":47.16719,"lng":0.6305,"addr":"AUTOROUTE A10 - AIRE DE SAINTE MAURE DE TOURAINE","city":"Saint-Épain","cp":"37800","fuels":{"Gazole":{"p":2.09,"d":"2026-05-01"},"E85":{"p":0.999,"d":"2026-05-01"},"GPLc":{"p":1.139,"d":"2026-05-01"},"E10":{"p":1.99,"d":"2026-05-01"},"SP98":{"p":1.99,"d":"2026-05-01"}},"brand":"TotalEnergies"},{"id":37390004,"lat":47.442,"lng":0.624,"addr":"81 route de Château-la-Vallière","city":"La Membrolle-sur-Choisille","cp":"37390","fuels":{"E10":{"p":1.99,"d":"2026-04-22"}},"brand":"TotalEnergies","h24":true,"services":["Piste poids lourds","Automate CB 24/24"]},{"id":37190003,"lat":47.307,"lng":0.536,"addr":"aire des Jardins de Villandry A85","city":"Druye","cp":"37190","fuels":{"Gazole":{"p":2.45,"d":"2026-04-14"},"GPLc":{"p":1.06,"d":"2026-03-23"},"E10":{"p":2.19,"d":"2026-04-09"},"SP98":{"p":2.29,"d":"2026-04-09"}},"brand":"Avia","h24":true,"services":["Toilettes publiques","Douches","Boutique alimentaire","Boutique non alimentaire","Restauration à emporter","Restauration sur place","Station de gonflage","Aire de camping-cars","Piste poids lourds","Lavage automatique","Espace bébé","Bornes électriques","Automate CB 24/24"]},{"id":37600007,"lat":47.139650599999996,"lng":1.0000621031469001,"addr":"105 RUE ST JACQUES","city":"LOCHES","cp":"37600","fuels":{"Gazole":{"p":2.09,"d":"2026-04-30"}},"brand":"Total Energie"},{"id":37380001,"lat":47.501,"lng":0.789,"addr":"La Croix Poêlon","city":"Monnaie","cp":"37380","fuels":{"Gazole":{"p":2.199,"d":"2026-04-29"},"SP95":{"p":2.072,"d":"2026-04-13"},"E85":{"p":0.819,"d":"2026-04-20"},"SP98":{"p":2.08,"d":"2026-04-13"}},"brand":"Auchan","h24":true,"services":["Toilettes publiques","Laverie","Boutique alimentaire","Station de gonflage","Piste poids lourds","Lavage automatique","Vente de gaz domestique (Butane, Propane)","Automate CB 24/24","DAB (Distributeur automatique de billets)"]},{"id":37320008,"lat":47.23,"lng":0.768,"addr":"ROUTE DE TOURS","city":"SAINT BRANCHS","cp":"37320","fuels":{"Gazole":{"p":2.165,"d":"2026-04-29"},"E10":{"p":1.983,"d":"2026-04-29"},"SP98":{"p":2.132,"d":"2026-04-29"}},"h24":true,"services":["Toilettes publiques","Relais colis","Boutique alimentaire","Boutique non alimentaire","Station de gonflage","Lavage manuel","Vente de gaz domestique (Butane, Propane)","Automate CB 24/24"]},{"id":37250006,"lat":47.246553839515,"lng":0.69664144470514,"addr":"RUE DES PEUPLIERS - ROND POINT DU FOUR A CHAUX","city":"Sorigny","cp":"37250","fuels":{"Gazole":{"p":2.169,"d":"2026-04-27"},"E85":{"p":0.789,"d":"2026-04-20"},"E10":{"p":1.989,"d":"2026-04-27"},"SP98":{"p":2.099,"d":"2026-04-27"}},"brand":"Auchan","h24":true,"services":["Station de gonflage","Lavage automatique","Lavage manuel","Vente de gaz domestique (Butane, Propane)","Automate CB 24/24"]},{"id":37100001,"lat":47.426,"lng":0.7,"addr":"ROND POINT GUSTAVE EFFEIL","city":"TOURS","cp":"37100","fuels":{"Gazole":{"p":2.092,"d":"2026-04-30"},"E85":{"p":0.775,"d":"2026-04-29"},"GPLc":{"p":0.999,"d":"2026-02-02"},"E10":{"p":1.999,"d":"2026-04-30"},"SP98":{"p":2.069,"d":"2026-04-30"}},"brand":"Auchan","h24":true,"services":["Station de gonflage","Automate CB 24/24","DAB (Distributeur automatique de billets)"]},{"id":37390003,"lat":47.47,"lng":0.702,"addr":"ZAC DE LA GRANDE PIECE","city":"CHANCEAUX SUR CHOISILLE","cp":"37390","fuels":{"Gazole":{"p":2.105,"d":"2026-04-24"},"SP95":{"p":1.985,"d":"2026-04-24"},"E10":{"p":1.955,"d":"2026-04-24"},"SP98":{"p":2.035,"d":"2026-04-24"}},"brand":"Système U","h24":true,"services":["Station de gonflage","Location de véhicule","Piste poids lourds","Lavage automatique","Lavage manuel","Vente de gaz domestique (Butane, Propane)","Automate CB 24/24","DAB (Distributeur automatique de billets)"]},{"id":37100012,"lat":47.425,"lng":0.682,"addr":"35 rue de jemmapes","city":"tours","cp":"37100","fuels":{"Gazole":{"p":2.165,"d":"2026-04-28"},"SP95":{"p":2.007,"d":"2026-04-15"},"SP98":{"p":2.044,"d":"2026-04-15"}},"brand":"Système U","h24":true,"services":["Toilettes publiques","Relais colis","Boutique alimentaire","Location de véhicule","Vente de gaz domestique (Butane, Propane)","Automate CB 24/24","DAB (Distributeur automatique de billets)"]},{"id":37420003,"lat":47.206,"lng":0.185,"addr":"11 PLACE EMILE ZOLA","city":"AVOINE","cp":"37420","fuels":{"Gazole":{"p":2.258,"d":"2026-04-30"},"SP95":{"p":2.09,"d":"2026-04-30"},"SP98":{"p":2.168,"d":"2026-04-30"}},"brand":"Carrefour","h24":true,"services":["Toilettes publiques","Laverie","Relais colis","Boutique alimentaire","Vente de gaz domestique (Butane, Propane)","Automate CB 24/24","DAB (Distributeur automatique de billets)"]},{"id":37320001,"lat":47.291,"lng":0.79,"addr":"ZAE Le Grand Berchenay","city":"Esvres","cp":"37320","fuels":{"Gazole":{"p":2.166,"d":"2026-04-30"},"E10":{"p":1.962,"d":"2026-04-30"},"SP98":{"p":2.058,"d":"2026-04-30"}},"brand":"Auchan","h24":true,"services":["Relais colis","Vente de gaz domestique (Butane, Propane)","Automate CB 24/24","DAB (Distributeur automatique de billets)"]},{"id":37290001,"lat":46.783982903738,"lng":0.8802443228125499,"addr":"Les Chalussons","city":"Yzeures-sur-Creuse","cp":"37290","fuels":{"Gazole":{"p":2.199,"d":"2026-04-30"},"E85":{"p":0.818,"d":"2026-04-17"},"E10":{"p":1.999,"d":"2026-04-30"},"SP98":{"p":2.099,"d":"2026-04-30"}},"brand":"Groupement des Mousquetaires","services":["Lavage manuel","Vente de gaz domestique (Butane, Propane)","DAB (Distributeur automatique de billets)"]},{"id":37500001,"lat":47.15,"lng":0.237,"addr":"2 Rue René Cassin","city":"Chinon","cp":"37500","fuels":{"Gazole":{"p":2.149,"d":"2026-04-28"},"SP95":{"p":2.059,"d":"2026-04-28"},"E10":{"p":2.019,"d":"2026-04-28"},"SP98":{"p":2.069,"d":"2026-04-28"}},"brand":"Station U","h24":true,"services":["Laverie","Station de gonflage","Aire de camping-cars","Piste poids lourds","Lavage automatique","Lavage manuel","Vente de gaz domestique (Butane, Propane)","Automate CB 24/24","DAB (Distributeur automatique de billets)"]},{"id":37150004,"lat":47.333,"lng":1.061,"addr":"77 RUE DE CHENONCEAUX","city":"CIVRAY DE TOURAINE","cp":"37150","fuels":{"Gazole":{"p":2.09,"d":"2026-05-01"},"E10":{"p":1.99,"d":"2026-05-01"}},"brand":"TotalEnergies","services":["Relais colis","Boutique alimentaire","Boutique non alimentaire","Vente de fioul domestique","Station de gonflage","Carburant additivé","Piste poids lourds","Services réparation / entretien","Vente de gaz domestique (Butane, Propane)","Vente d'additifs carburants"]},{"id":37003001,"lat":47.425,"lng":0.674,"addr":"RUE DES BORDIERS","city":"TOURS","cp":"37100","fuels":{"SP95":{"p":2.035,"d":"2026-04-30"},"E85":{"p":0.775,"d":"2026-04-28"},"E10":{"p":1.999,"d":"2026-04-30"},"SP98":{"p":2.069,"d":"2026-04-30"}},"brand":"Leclerc","h24":true,"services":["Boutique alimentaire","Boutique non alimentaire","Restauration sur place","Bar","Location de véhicule","Vente de gaz domestique (Butane, Propane)","Bornes électriques","Automate CB 24/24","DAB (Distributeur automatique de billets)"]},{"id":37600001,"lat":47.13,"lng":0.984,"addr":"ROUTE DE VAUZELLES","city":"LOCHES","cp":"37600","fuels":{"Gazole":{"p":2.138,"d":"2026-04-30"},"SP95":{"p":2.022,"d":"2026-04-30"},"E85":{"p":0.687,"d":"2026-04-30"},"GPLc":{"p":0.999,"d":"2026-04-29"},"E10":{"p":1.987,"d":"2026-04-30"},"SP98":{"p":2.06,"d":"2026-04-30"}},"brand":"Système U","h24":true,"services":["Toilettes publiques","Relais colis","Boutique alimentaire","Boutique non alimentaire","Restauration à emporter","Restauration sur place","Station de gonflage","Location de véhicule","Piste poids lourds","Lavage automatique","Lavage manuel","Vente de gaz domestique (Butane, Propane)","Automate CB 24/24","DAB (Distributeur automatique de billets)"]},{"id":37230003,"lat":47.4033668855,"lng":0.605448665855,"addr":"4 AVENUE JAURES","city":"FONDETTES","cp":"37230","fuels":{"Gazole":{"p":2.15,"d":"2026-04-30"},"E10":{"p":1.995,"d":"2026-04-30"},"SP98":{"p":2.065,"d":"2026-04-30"}},"brand":"Leclerc","services":["Boutique alimentaire","Boutique non alimentaire","Vente de gaz domestique (Butane, Propane)"]},{"id":37400006,"lat":47.393,"lng":0.982,"addr":"1786 Boulevard saint denis hors","city":"Amboise","cp":"37400","fuels":{"Gazole":{"p":2.25,"d":"2026-04-30"},"E10":{"p":1.99,"d":"2026-04-30"}},"brand":"TotalEnergies","h24":true,"services":["Toilettes publiques","Boutique alimentaire","Boutique non alimentaire","Carburant additivé","Location de véhicule","Piste poids lourds","Vente de gaz domestique (Butane, Propane)","Automate CB 24/24"]},{"id":37120001,"lat":47.02058,"lng":0.33397,"addr":"28 route de Tours","city":"Chaveignes","cp":"37120","fuels":{"Gazole":{"p":2.149,"d":"2026-04-28"},"SP95":{"p":1.999,"d":"2026-04-24"},"GPLc":{"p":0.989,"d":"2026-01-13"},"SP98":{"p":2.059,"d":"2026-04-28"}},"brand":"Intermarché","services":["Vente de fioul domestique","Lavage manuel","Vente de gaz domestique (Butane, Propane)","DAB (Distributeur automatique de billets)"]},{"id":37360001,"lat":47.54666,"lng":0.55172,"addr":"C C DE L HIPPODROME","city":"Neuillé-Pont-Pierre","cp":"37360","fuels":{"Gazole":{"p":2.149,"d":"2026-04-22"},"SP95":{"p":2.029,"d":"2026-04-29"},"E85":{"p":0.779,"d":"2026-04-29"},"SP98":{"p":2.059,"d":"2026-04-17"}},"brand":"Système U","services":["Toilettes publiques","Restauration sur place","Bar","Vente de fioul domestique","Vente de pétrole lampant","Station de gonflage","Carburant additivé","Aire de camping-cars","Location de véhicule","Piste poids lourds","Lavage automatique","Lavage manuel","Espace bébé","Vente de gaz domestique (Butane, Propane)","DAB (Distributeur automatique de billets)"]},{"id":37400004,"lat":47.409,"lng":0.971,"addr":"21 Avenue de Tours","city":"Amboise","cp":"37400","fuels":{"Gazole":{"p":2.111,"d":"2026-04-25"}},"brand":"Netto","services":["Relais colis","Boutique alimentaire","Vente de gaz domestique (Butane, Propane)"]},{"id":37200004,"lat":47.365,"lng":0.711,"addr":"32 ROUTE DE ST AVERTIN","city":"TOURS","cp":"37200","fuels":{"Gazole":{"p":2.09,"d":"2026-05-01"},"E85":{"p":0.829,"d":"2026-05-01"},"E10":{"p":1.99,"d":"2026-05-01"}},"h24":true,"services":["Boutique alimentaire","Boutique non alimentaire","Restauration à emporter","Restauration sur place","Station de gonflage","Carburant additivé","Piste poids lourds","Lavage automatique","Lavage manuel","Vente de gaz domestique (Butane, Propane)","Vente d'additifs carburants","Wifi","Automate CB 24/24"]},{"id":37460001,"lat":47.135,"lng":1.298,"addr":"15 rue Victor Hugo","city":"Nouans-les-Fontaines","cp":"37460","fuels":{"Gazole":{"p":2.25,"d":"2026-04-09"},"SP95":{"p":1.99,"d":"2026-04-09"}},"h24":true,"services":["Automate CB 24/24"]},{"id":37230004,"lat":47.392,"lng":0.539,"addr":"ZONE INDUSTRIELLE DU CHAPELET","city":"Luynes","cp":"37230","fuels":{"Gazole":{"p":2.179,"d":"2026-04-30"},"E10":{"p":2.049,"d":"2026-04-30"},"SP98":{"p":2.099,"d":"2026-04-30"}},"brand":"Système U","h24":true,"services":["Toilettes publiques","Laverie","Relais colis","Boutique alimentaire","Bar","Location de véhicule","Automate CB 24/24","DAB (Distributeur automatique de billets)"]},{"id":37000011,"lat":47.375,"lng":0.709,"addr":"89 Boulevard Richard Wagner","city":"TOURS","cp":"37000","fuels":{"E10":{"p":2.049,"d":"2026-04-30"},"SP98":{"p":2.199,"d":"2026-04-30"}},"brand":"Esso","h24":true,"services":["Relais colis","Station de gonflage","Carburant additivé","Piste poids lourds","Automate CB 24/24"]},{"id":37100010,"lat":47.40385,"lng":0.72656,"addr":"45, QUAI DE MARMOUTIER","city":"TOURS","cp":"37100","fuels":{"Gazole":{"p":2.09,"d":"2026-05-01"}},"brand":"TotalEnergies","services":["Toilettes publiques","Boutique alimentaire","Station de gonflage","Carburant additivé","Vente de gaz domestique (Butane, Propane)"]},{"id":37270006,"lat":47.302184249999996,"lng":0.8906768700000001,"addr":"Aire de Athée-sur-Cher Autoroute A 85","city":"Athée-sur-Cher","cp":"37270","fuels":{"Gazole":{"p":2.549,"d":"2026-04-30"},"GPLc":{"p":1.149,"d":"2026-04-30"},"E10":{"p":2.299,"d":"2026-04-30"},"SP98":{"p":2.399,"d":"2026-04-30"}},"brand":"Eni","services":["Toilettes publiques","Douches","Boutique alimentaire","Boutique non alimentaire","Restauration à emporter","Restauration sur place","Bar","Station de gonflage","Carburant additivé","Aire de camping-cars","Piste poids lourds","Espace bébé"]},{"id":37500003,"lat":47.174,"lng":0.251,"addr":"Route de Tours","city":"Chinon","cp":"37500","fuels":{"Gazole":{"p":2.109,"d":"2026-04-30"},"E85":{"p":0.749,"d":"2026-04-30"},"GPLc":{"p":0.999,"d":"2026-04-30"},"E10":{"p":1.959,"d":"2026-04-30"},"SP98":{"p":2.035,"d":"2026-04-30"}},"brand":"Leclerc","services":["Boutique alimentaire","Boutique non alimentaire","Restauration sur place","Station de gonflage","Piste poids lourds","Lavage automatique","Vente de gaz domestique (Butane, Propane)"]},{"id":37160003,"lat":46.981,"lng":0.69,"addr":"Rue Jean Monnet","city":"Descartes","cp":"37160","fuels":{"Gazole":{"p":2.214,"d":"2026-05-01"},"E85":{"p":0.818,"d":"2026-05-01"},"E10":{"p":1.982,"d":"2026-05-01"},"SP98":{"p":2.06,"d":"2026-05-01"}},"brand":"Intermarché","services":["Toilettes publiques","Relais colis","Station de gonflage","Location de véhicule","Lavage manuel","Vente de gaz domestique (Butane, Propane)","DAB (Distributeur automatique de billets)"]},{"id":37340002,"lat":47.451,"lng":0.455,"addr":"Place des Petits Pavés","city":"Ambillou","cp":"37340","fuels":{"Gazole":{"p":2.279,"d":"2026-04-13"},"SP95":{"p":2.079,"d":"2026-03-20"},"SP98":{"p":2.09,"d":"2026-03-20"}},"brand":"Système U","services":["Laverie","Station de gonflage","Piste poids lourds","DAB (Distributeur automatique de billets)"]},{"id":37110002,"lat":47.598,"lng":0.914,"addr":"rue gambetta","city":"CHâTEAU-RENAULT","cp":"37110","fuels":{"Gazole":{"p":2.218,"d":"2026-04-30"},"SP95":{"p":2.091,"d":"2026-04-30"},"SP98":{"p":2.099,"d":"2026-04-30"}},"brand":"Carrefour","h24":true,"services":["Vente de gaz domestique (Butane, Propane)","Automate CB 24/24","DAB (Distributeur automatique de billets)"]},{"id":37260001,"lat":47.27673,"lng":0.64244,"addr":"RUE DE LA VASSELIERE","city":"Monts","cp":"37260","fuels":{"Gazole":{"p":2.199,"d":"2026-04-30"},"SP95":{"p":2.079,"d":"2026-04-30"},"E10":{"p":2.049,"d":"2026-04-30"},"SP98":{"p":2.119,"d":"2026-04-30"}},"brand":"Système U","services":["Toilettes publiques","Laverie","Relais colis","Location de véhicule","Lavage automatique","Lavage manuel"]},{"id":37110003,"lat":47.591,"lng":0.899,"addr":"Rue du Petit Versailles","city":"Château-Renault","cp":"37110","fuels":{"Gazole":{"p":2.229,"d":"2026-04-30"},"E85":{"p":0.819,"d":"2026-04-17"},"E10":{"p":1.999,"d":"2026-04-30"},"SP98":{"p":2.099,"d":"2026-04-28"}},"brand":"Intermarché","services":["Piste poids lourds","Lavage automatique","Lavage manuel","Vente de gaz domestique (Butane, Propane)","DAB (Distributeur automatique de billets)"]},{"id":37380003,"lat":47.476,"lng":0.779,"addr":"AUTOROUTE A10 AIRE DE LA BRUNELLERIE","city":"Monnaie","cp":"37380","fuels":{"Gazole":{"p":2.449,"d":"2026-05-01"},"GPLc":{"p":1.339,"d":"2026-05-01"},"E10":{"p":2.299,"d":"2026-05-01"},"SP98":{"p":2.479,"d":"2026-05-01"}},"brand":"Esso","h24":true,"services":["Toilettes publiques","Douches","Boutique alimentaire","Boutique non alimentaire","Restauration à emporter","Station de gonflage","Carburant additivé","Aire de camping-cars","Piste poids lourds","Espace bébé","Bornes électriques","Wifi","Automate CB 24/24","DAB (Distributeur automatique de billets)"]},{"id":37270002,"lat":47.346,"lng":0.84,"addr":"BOURG NEUF","city":"Azay-sur-Cher","cp":"37270","fuels":{"Gazole":{"p":2.09,"d":"2026-05-01"},"SP95":{"p":1.99,"d":"2026-05-01"}},"brand":"TotalEnergies","h24":true,"services":["Relais colis","Boutique alimentaire","Boutique non alimentaire","Station de gonflage","Carburant additivé","Piste poids lourds","Services réparation / entretien","Vente de gaz domestique (Butane, Propane)","Automate CB 24/24","DAB (Distributeur automatique de billets)"]},{"id":37260005,"lat":47.270578774835,"lng":0.59254978394482,"addr":"RUE DES GRANDS CLOS","city":"ARTANNES SUR INDRE","cp":"37260","fuels":{"Gazole":{"p":2.399,"d":"2026-03-24"},"SP95":{"p":2.099,"d":"2026-03-24"},"SP98":{"p":2.162,"d":"2026-03-24"}},"brand":"G20","h24":true,"services":["Laverie","Relais colis","Boutique alimentaire","Vente de gaz domestique (Butane, Propane)","Automate CB 24/24","DAB (Distributeur automatique de billets)"]},{"id":37000014,"lat":47.381,"lng":0.668,"addr":"63 BLD DU TONNELLE","city":"TOURS","cp":"37000","fuels":{"Gazole":{"p":2.09,"d":"2026-05-01"},"E85":{"p":0.849,"d":"2026-05-01"}},"brand":"TotalEnergies","services":["Toilettes publiques","Relais colis","Boutique alimentaire","Boutique non alimentaire","Station de gonflage","Carburant additivé","Lavage automatique","Vente de gaz domestique (Butane, Propane)","Wifi"]},{"id":37800004,"lat":47.109,"lng":0.584,"addr":"75 ROUTE DE CHINON","city":"Noyant-de-Touraine","cp":"37800","fuels":{"Gazole":{"p":2.09,"d":"2026-05-01"}},"brand":"TotalEnergies","h24":true,"services":["Boutique alimentaire","Boutique non alimentaire","Station de gonflage","Carburant additivé","Piste poids lourds","Lavage manuel","Services réparation / entretien","Vente de gaz domestique (Butane, Propane)","Automate CB 24/24","DAB (Distributeur automatique de billets)"]},{"id":37100011,"lat":47.426444732494,"lng":0.71075649892812,"addr":"RUE ABEL GANCE - ZAC DE L'AEROGA","city":"TOURS","cp":"37100","fuels":{"Gazole":{"p":2.09,"d":"2026-05-01"},"E85":{"p":0.859,"d":"2026-05-01"},"E10":{"p":1.99,"d":"2026-05-01"},"SP98":{"p":1.99,"d":"2026-05-01"}},"brand":"TotalEnergies"},{"id":37190002,"lat":47.264154177900004,"lng":0.47375205481099997,"addr":"LA LOGE CITE BELLEVUE","city":"AZAY-LE-RIDEAU","cp":"37190","fuels":{"Gazole":{"p":2.199,"d":"2026-04-29"},"SP95":{"p":2.05,"d":"2026-04-29"},"SP98":{"p":2.15,"d":"2026-04-29"}},"brand":"Carrefour","services":["Vente de gaz domestique (Butane, Propane)","DAB (Distributeur automatique de billets)"]},{"id":37110004,"lat":47.5836102961,"lng":0.897356013533,"addr":"RN 10","city":"VILLEDOMER","cp":"37110","fuels":{"Gazole":{"p":2.09,"d":"2026-05-01"},"E10":{"p":1.99,"d":"2026-05-01"},"SP98":{"p":1.99,"d":"2026-05-01"}},"brand":"TotalEnergies","services":["Douches","Station de gonflage","Carburant additivé","Piste poids lourds","Lavage manuel","Vente de gaz domestique (Butane, Propane)"]},{"id":37000015,"lat":47.391,"lng":0.697,"addr":"65 BOULEVARD HEURTELOUP","city":"TOURS","cp":"37000","fuels":{"Gazole":{"p":2.09,"d":"2026-05-01"},"E10":{"p":1.99,"d":"2026-05-01"}},"brand":"TotalEnergies","services":["Relais colis","Boutique alimentaire","Boutique non alimentaire","Station de gonflage","Carburant additivé","Lavage automatique","Vente de gaz domestique (Butane, Propane)"]},{"id":37172001,"lat":47.337,"lng":0.698,"addr":"Rue de Joué","city":"CHAMBRAY-LèS-TOURS","cp":"37170","fuels":{"Gazole":{"p":2.159,"d":"2026-04-29"},"E10":{"p":1.979,"d":"2026-04-30"},"SP98":{"p":2.058,"d":"2026-04-30"}},"brand":"Auchan","h24":true,"services":["Toilettes publiques","Laverie","Relais colis","Boutique alimentaire","Boutique non alimentaire","Restauration sur place","Bar","Station de gonflage","Carburant additivé","Vente de gaz domestique (Butane, Propane)","Bornes électriques","Wifi","Automate CB 24/24","DAB (Distributeur automatique de billets)"]},{"id":37300009,"lat":47.321847755774,"lng":0.6631695557563201,"addr":"2 rue de la LIODIERE","city":"Joué-lès-Tours","cp":"37300","fuels":{"Gazole":{"p":2.155,"d":"2026-04-29"},"SP95":{"p":2.015,"d":"2026-04-30"},"GPLc":{"p":0.981,"d":"2026-04-10"},"E10":{"p":1.979,"d":"2026-04-30"},"SP98":{"p":2.045,"d":"2026-04-30"}},"brand":"Leclerc","h24":true,"services":["Station de gonflage","Piste poids lourds","Lavage automatique","Vente de gaz domestique (Butane, Propane)","Vente d'additifs carburants","Automate CB 24/24","DAB (Distributeur automatique de billets)"]},{"id":37540001,"lat":47.4258570023,"lng":0.6561790748409999,"addr":"247 Boulevard Charles de Gaulle","city":"SAINT-CYR-SUR-LOIRE","cp":"37540","fuels":{"Gazole":{"p":2.092,"d":"2026-04-28"},"E85":{"p":0.775,"d":"2026-04-28"},"GPLc":{"p":0.999,"d":"2026-04-22"},"E10":{"p":1.999,"d":"2026-04-30"},"SP98":{"p":2.069,"d":"2026-04-30"}},"brand":"Auchan","services":["Toilettes publiques","Boutique alimentaire","Boutique non alimentaire","Restauration à emporter","Restauration sur place","Bar","Vente de fioul domestique","Station de gonflage","Carburant additivé","Lavage automatique","Espace bébé","Vente de gaz domestique (Butane, Propane)","DAB (Distributeur automatique de billets)"]},{"id":37530002,"lat":47.423,"lng":0.976,"addr":"Boulevard du Sevrage","city":"Pocé-sur-Cisse","cp":"37530","fuels":{"Gazole":{"p":2.179,"d":"2026-04-29"},"E85":{"p":0.819,"d":"2026-04-29"},"E10":{"p":1.999,"d":"2026-04-29"},"SP98":{"p":2.089,"d":"2026-04-29"}},"brand":"Intermarché","h24":true,"services":["Laverie","Relais colis","Restauration à emporter","Restauration sur place","Station de gonflage","Aire de camping-cars","Location de véhicule","Piste poids lourds","Lavage automatique","Lavage manuel","Vente de gaz domestique (Butane, Propane)","Bornes électriques","Automate CB 24/24","DAB (Distributeur automatique de billets)"]},{"id":37130001,"lat":47.328,"lng":0.406,"addr":"Rue Carnot","city":"LANGEAIS","cp":"37130","fuels":{"Gazole":{"p":2.195,"d":"2026-04-30"},"SP95":{"p":2.049,"d":"2026-04-30"},"SP98":{"p":2.099,"d":"2026-04-30"}},"brand":"Carrefour","services":["Toilettes publiques","Piste poids lourds","Vente de gaz domestique (Butane, Propane)","DAB (Distributeur automatique de billets)"]},{"id":37520002,"lat":47.386,"lng":0.658,"addr":"42 Rue des Hautes Marches","city":"LA RICHE","cp":"37520","fuels":{"Gazole":{"p":2.199,"d":"2026-04-30"},"SP95":{"p":2.079,"d":"2026-04-30"},"SP98":{"p":2.099,"d":"2026-04-30"}},"brand":"Système U","h24":true,"services":["Vente de gaz domestique (Butane, Propane)","Automate CB 24/24","DAB (Distributeur automatique de billets)"]},{"id":37100002,"lat":47.412,"lng":0.702,"addr":"Rue Frédéric Chopin","city":"TOURS","cp":"37100","fuels":{"Gazole":{"p":2.201,"d":"2026-04-30"},"E10":{"p":1.99,"d":"2026-04-30"},"SP98":{"p":2.065,"d":"2026-04-30"}},"brand":"Auchan","h24":true,"services":["Laverie","Relais colis","Boutique alimentaire","Vente de gaz domestique (Butane, Propane)","Automate CB 24/24","DAB (Distributeur automatique de billets)"]},{"id":37306001,"lat":47.356571449226,"lng":0.69812877979161,"addr":"Rue de la Bondonnière","city":"Joué-lès-Tours","cp":"37300","fuels":{"Gazole":{"p":2.155,"d":"2026-04-30"},"SP95":{"p":2.015,"d":"2026-04-30"},"SP98":{"p":2.045,"d":"2026-04-30"}},"brand":"Leclerc","services":["Toilettes publiques","Laverie","Boutique alimentaire","Boutique non alimentaire","Vente de gaz domestique (Butane, Propane)","DAB (Distributeur automatique de billets)"]},{"id":37550001,"lat":47.353,"lng":0.733,"addr":"355 ROUTE DE CORMERY","city":"SAINT-AVERTIN","cp":"37550","fuels":{"Gazole":{"p":2.201,"d":"2026-04-30"},"E10":{"p":1.99,"d":"2026-04-30"},"SP98":{"p":2.058,"d":"2026-04-30"}},"brand":"Auchan","h24":true,"services":["Station de gonflage","Lavage automatique","Vente de gaz domestique (Butane, Propane)","Automate CB 24/24"]},{"id":37320010,"lat":47.257,"lng":0.842,"addr":"ZA Du Bois Joly RD 82-9000","city":"CORMERY","cp":"37320","fuels":{"Gazole":{"p":2.199,"d":"2026-04-17"},"E10":{"p":1.999,"d":"2026-04-27"},"SP98":{"p":2.129,"d":"2026-04-27"}},"brand":"Carrefour","services":["Laverie","Relais colis","Boutique alimentaire","Station de gonflage","Lavage automatique","Vente de gaz domestique (Butane, Propane)"]},{"id":37140001,"lat":47.274,"lng":0.167,"addr":"27 avenue du general de gaulle","city":"bourgueil","cp":"37140","fuels":{"Gazole":{"p":2.129,"d":"2026-04-30"},"SP95":{"p":1.989,"d":"2026-04-22"},"E85":{"p":0.739,"d":"2026-04-30"},"GPLc":{"p":0.999,"d":"2026-02-11"},"E10":{"p":1.985,"d":"2026-04-30"},"SP98":{"p":2.035,"d":"2026-04-28"}},"brand":"Système U","services":["Vente de fioul domestique","Vente de pétrole lampant","Station de gonflage","Carburant additivé","Location de véhicule","Lavage manuel","Vente de gaz domestique (Butane, Propane)","DAB (Distributeur automatique de billets)"]},{"id":37300004,"lat":47.338,"lng":0.657,"addr":"42 rue de la Gitonnière","city":"Joué-lès-Tours","cp":"37300","fuels":{"Gazole":{"p":2.169,"d":"2026-04-30"},"E85":{"p":0.818,"d":"2026-04-29"},"E10":{"p":1.999,"d":"2026-04-30"},"SP98":{"p":2.079,"d":"2026-04-30"}},"brand":"Intermarché","services":["Toilettes publiques","Laverie","Boutique alimentaire","Boutique non alimentaire","Bar","Vente de fioul domestique","Vente de pétrole lampant","Lavage automatique","Lavage manuel","Vente de gaz domestique (Butane, Propane)","Bornes électriques","DAB (Distributeur automatique de billets)"]},{"id":37700004,"lat":47.396,"lng":0.788,"addr":"ZAC Les Fougerolles LA VILLE AUX DAMES","city":"La Ville-aux-Dames","cp":"37700","fuels":{"Gazole":{"p":2.123,"d":"2026-04-30"},"E85":{"p":0.745,"d":"2026-04-30"},"GPLc":{"p":1.004,"d":"2026-04-30"},"E10":{"p":1.995,"d":"2026-04-30"},"SP98":{"p":2.053,"d":"2026-04-30"}},"brand":"Leclerc","h24":true,"services":["Boutique alimentaire","Boutique non alimentaire","Piste poids lourds","Lavage automatique","Lavage manuel","Vente de gaz domestique (Butane, Propane)","Automate CB 24/24","DAB (Distributeur automatique de billets)"]},{"id":37340001,"lat":47.44,"lng":0.332,"addr":"CHEMIN DU PONT DE LA FORGE,","city":"SAVIGNé-SUR-LATHAN","cp":"37340","fuels":{"Gazole":{"p":2.139,"d":"2026-04-23"},"E10":{"p":1.999,"d":"2026-04-30"},"SP98":{"p":2.065,"d":"2026-04-30"}},"brand":"Station U","h24":true,"services":["Laverie","Lavage automatique","Lavage manuel","Vente de gaz domestique (Butane, Propane)","Automate CB 24/24","DAB (Distributeur automatique de billets)"]},{"id":37300007,"lat":47.358,"lng":0.646,"addr":"6 Rue du Franc Palais","city":"Joué-lès-Tours","cp":"37300","fuels":{"Gazole":{"p":2.149,"d":"2026-04-25"},"SP95":{"p":2.049,"d":"2026-04-25"},"SP98":{"p":2.079,"d":"2026-04-25"}},"h24":true,"services":["Boutique alimentaire","Automate CB 24/24","DAB (Distributeur automatique de billets)"]},{"id":37240001,"lat":47.041046596600005,"lng":0.8177814413319999,"addr":"Avenue des Martyrs","city":"LIGUEIL","cp":"37240","fuels":{"Gazole":{"p":2.188,"d":"2026-04-30"},"E10":{"p":2.015,"d":"2026-04-30"},"SP98":{"p":2.124,"d":"2026-04-30"}},"brand":"Auchan","services":["Boutique alimentaire","Boutique non alimentaire","Lavage automatique","Vente de gaz domestique (Butane, Propane)","DAB (Distributeur automatique de billets)"]},{"id":37170006,"lat":47.317,"lng":0.711,"addr":"340 avenue du grand sud RD910","city":"CHAMBRAY-LÈS-TOURS","cp":"37170","fuels":{"Gazole":{"p":2.09,"d":"2026-05-01"},"E85":{"p":0.829,"d":"2026-05-01"},"E10":{"p":1.99,"d":"2026-05-01"}},"brand":"TotalEnergies","h24":true,"services":["Boutique alimentaire","Boutique non alimentaire","Station de gonflage","Piste poids lourds","Lavage automatique","Vente de gaz domestique (Butane, Propane)","Wifi","Automate CB 24/24"]},{"id":37220001,"lat":47.122,"lng":0.431,"addr":"CENTRE CIAL LA ROCADE","city":"L'Île-Bouchard","cp":"37220","fuels":{"Gazole":{"p":2.149,"d":"2026-04-28"},"E85":{"p":0.749,"d":"2026-04-24"},"SP98":{"p":2.069,"d":"2026-04-28"}},"brand":"Système U","h24":true,"services":["Toilettes publiques","Laverie","Station de gonflage","Carburant additivé","Aire de camping-cars","Location de véhicule","Piste poids lourds","Lavage automatique","Lavage manuel","Vente de gaz domestique (Butane, Propane)","Bornes électriques","Automate CB 24/24","DAB (Distributeur automatique de billets)"]},{"id":37210002,"lat":47.414,"lng":0.85,"addr":"25 Rue du Professeur Robert Debré","city":"Vernou-sur-Brenne","cp":"37210","fuels":{"Gazole":{"p":2.143,"d":"2026-04-30"},"SP95":{"p":2.044,"d":"2026-04-30"},"SP98":{"p":2.077,"d":"2026-04-30"}},"brand":"Système U","h24":true,"services":["Relais colis","Station de gonflage","Location de véhicule","Lavage automatique","Lavage manuel","Vente de gaz domestique (Butane, Propane)","Wifi","Automate CB 24/24","DAB (Distributeur automatique de billets)"]},{"id":37150002,"lat":47.328,"lng":0.987,"addr":"25 Rue de Tours","city":"Bléré","cp":"37150","fuels":{"Gazole":{"p":2.169,"d":"2026-04-29"},"E10":{"p":1.958,"d":"2026-04-29"},"SP98":{"p":2.065,"d":"2026-04-29"}},"brand":"Carrefour","services":["Toilettes publiques","Laverie","Relais colis","Boutique alimentaire","Boutique non alimentaire","Restauration à emporter","Vente de pétrole lampant","Vente de gaz domestique (Butane, Propane)","Wifi","DAB (Distributeur automatique de billets)"]},{"id":37270001,"lat":47.384,"lng":0.843,"addr":"Avenue Victor Laloux","city":"MONTLOUIS-SUR-LOIRE","cp":"37270","fuels":{"Gazole":{"p":2.124,"d":"2026-04-29"},"E85":{"p":0.746,"d":"2026-04-29"},"E10":{"p":1.996,"d":"2026-04-29"},"SP98":{"p":2.054,"d":"2026-04-29"}},"brand":"Système U","h24":true,"services":["Toilettes publiques","Laverie","Relais colis","Boutique alimentaire","Boutique non alimentaire","Vente de fioul domestique","Vente de pétrole lampant","Station de gonflage","Aire de camping-cars","Location de véhicule","Piste poids lourds","Lavage automatique","Lavage manuel","Vente de gaz domestique (Butane, Propane)","Vente d'additifs carburants","Automate CB 24/24","DAB (Distributeur automatique de billets)"]},{"id":37400002,"lat":47.404,"lng":1.018,"addr":"Avenue Léonard de Vinci","city":"Amboise","cp":"37400","fuels":{"Gazole":{"p":2.169,"d":"2026-04-30"},"SP95":{"p":2.049,"d":"2026-04-30"},"E85":{"p":0.772,"d":"2026-04-30"},"E10":{"p":1.999,"d":"2026-04-30"},"SP98":{"p":2.085,"d":"2026-04-30"}},"brand":"Leclerc","h24":true,"services":["Laverie","Relais colis","Boutique alimentaire","Boutique non alimentaire","Restauration à emporter","Restauration sur place","Bar","Station de gonflage","Location de véhicule","Piste poids lourds","Lavage automatique","Services réparation / entretien","Vente de gaz domestique (Butane, Propane)","Bornes électriques","Vente d'additifs carburants","Wifi","Automate CB 24/24","DAB (Distributeur automatique de billets)"]},{"id":37000016,"lat":47.39377902,"lng":0.66974657,"addr":"13 à 17 rue du 501e régiment","city":"Tours","cp":"37000","fuels":{"Gazole":{"p":2.184,"d":"2026-04-29"},"SP95":{"p":2.058,"d":"2026-04-29"},"SP98":{"p":2.105,"d":"2026-04-19"}},"brand":"Carrefour","h24":true,"services":["Vente de gaz domestique (Butane, Propane)","Automate CB 24/24"]},{"id":37300008,"lat":47.349,"lng":0.661,"addr":"119-123 BD JEAN JAURES","city":"Joué-lès-Tours","cp":"37300","fuels":{"Gazole":{"p":2.09,"d":"2026-05-01"}},"brand":"TotalEnergies","services":["Relais colis","Boutique alimentaire","Boutique non alimentaire","Station de gonflage","Carburant additivé","Piste poids lourds","Vente de gaz domestique (Butane, Propane)","Vente d'additifs carburants","Wifi"]},{"id":37000007,"lat":47.38,"lng":0.669,"addr":"300 Rue du Général Renault","city":"Tours","cp":"37000","fuels":{"Gazole":{"p":2.38,"d":"2026-04-10"}},"brand":"Carrefour","h24":true,"services":["Laverie","Relais colis","Station de gonflage","Carburant additivé","Vente de gaz domestique (Butane, Propane)","Automate CB 24/24","DAB (Distributeur automatique de billets)"]},{"id":37390002,"lat":47.439,"lng":0.699,"addr":"1 rue rené Cassin","city":"NOTRE-DAME-D'Oé","cp":"37390","fuels":{"Gazole":{"p":2.167,"d":"2026-04-29"},"SP95":{"p":2.035,"d":"2026-04-30"},"E85":{"p":0.818,"d":"2026-04-25"},"SP98":{"p":2.069,"d":"2026-04-30"}},"brand":"Intermarché","h24":true,"services":["Laverie","Location de véhicule","Piste poids lourds","Lavage manuel","Vente de gaz domestique (Butane, Propane)","Automate CB 24/24","DAB (Distributeur automatique de billets)"]},{"id":37250002,"lat":47.293,"lng":0.719,"addr":"2 Rue de Tivoli","city":"VEIGNé","cp":"37250","fuels":{"Gazole":{"p":2.166,"d":"2026-04-30"},"E10":{"p":1.962,"d":"2026-04-30"},"SP98":{"p":2.051,"d":"2026-04-30"}},"brand":"Intermarché","h24":true,"services":["Laverie","Station de gonflage","Location de véhicule","Lavage automatique","Lavage manuel","Vente de gaz domestique (Butane, Propane)","Bornes électriques","Automate CB 24/24","DAB (Distributeur automatique de billets)"]},{"id":37150003,"lat":47.325,"lng":1.004,"addr":"5 Avenue du 11 Novembre 1918","city":"BLéRé","cp":"37150","fuels":{"Gazole":{"p":2.169,"d":"2026-04-29"},"E85":{"p":0.818,"d":"2026-04-29"},"E10":{"p":1.949,"d":"2026-04-29"},"SP98":{"p":2.049,"d":"2026-04-29"}},"brand":"Groupement des Mousquetaires","h24":true,"services":["Laverie","Boutique alimentaire","Station de gonflage","Location de véhicule","Piste poids lourds","Lavage automatique","Lavage manuel","Vente de gaz domestique (Butane, Propane)","Vente d'additifs carburants","Automate CB 24/24","DAB (Distributeur automatique de billets)"]},{"id":37800005,"lat":47.104,"lng":0.615,"addr":"ZAC Les Marchaux - Les Rotes","city":"SAINTE-MAURE DE TOURAINE","cp":"37800","fuels":{"Gazole":{"p":2.149,"d":"2026-04-28"},"E85":{"p":0.759,"d":"2026-03-17"},"E10":{"p":1.979,"d":"2026-04-30"},"SP98":{"p":2.089,"d":"2026-04-30"}},"brand":"Intermarché","h24":true,"services":["Toilettes publiques","Laverie","Boutique alimentaire","Restauration à emporter","Bar","Vente de fioul domestique","Station de gonflage","Location de véhicule","Piste poids lourds","Lavage automatique","Lavage manuel","Espace bébé","Vente de gaz domestique (Butane, Propane)","Vente d'additifs carburants","Automate CB 24/24","DAB (Distributeur automatique de billets)"]},{"id":37800008,"lat":47.166,"lng":0.632,"addr":"Autoroute A10 Aire de Fontaine Colette","city":"Saint-Épain","cp":"37800","fuels":{"Gazole":{"p":2.489,"d":"2026-04-30"},"GPLc":{"p":1.257,"d":"2026-04-30"},"E10":{"p":2.259,"d":"2026-04-30"},"SP98":{"p":2.409,"d":"2026-04-30"}},"brand":"Esso","h24":true,"services":["Toilettes publiques","Douches","Boutique alimentaire","Boutique non alimentaire","Restauration à emporter","Restauration sur place","Station de gonflage","Carburant additivé","Piste poids lourds","Espace bébé","Bornes électriques","Wifi","Automate CB 24/24"]},{"id":37300001,"lat":47.346,"lng":0.643,"addr":"Boulevard des Bretonnières","city":"JOUé-LèS-TOURS","cp":"37300","fuels":{"Gazole":{"p":2.159,"d":"2026-04-30"},"SP95":{"p":2.029,"d":"2026-04-29"},"SP98":{"p":2.079,"d":"2026-04-29"}},"brand":"U","h24":true,"services":["Toilettes publiques","Laverie","Relais colis","Boutique alimentaire","Boutique non alimentaire","Restauration à emporter","Restauration sur place","Bar","Station de gonflage","Location de véhicule","Piste poids lourds","Lavage automatique","Lavage manuel","Espace bébé","Services réparation / entretien","Vente de gaz domestique (Butane, Propane)","Vente d'additifs carburants","Wifi","Automate CB 24/24","DAB (Distributeur automatique de billets)"]},{"id":37170007,"lat":47.342,"lng":0.704,"addr":"77 GRAND SUD AVENUE","city":"Chambray-lès-Tours","cp":"37170","fuels":{"Gazole":{"p":2.09,"d":"2026-05-01"}},"brand":"TotalEnergies","h24":true,"services":["Toilettes publiques","Relais colis","Boutique alimentaire","Boutique non alimentaire","Station de gonflage","Carburant additivé","Piste poids lourds","Lavage automatique","Lavage manuel","Espace bébé","Vente de gaz domestique (Butane, Propane)","Bornes électriques","Vente d'additifs carburants","Wifi","Automate CB 24/24"]},{"id":37700011,"lat":47.381,"lng":0.73,"addr":"AVENUE JACQUES DUCLOS","city":"Saint-Pierre-des-Corps","cp":"37700","fuels":{"Gazole":{"p":2.09,"d":"2026-05-01"},"E85":{"p":0.825,"d":"2026-05-01"},"GPLc":{"p":0.989,"d":"2026-05-01"},"E10":{"p":1.99,"d":"2026-05-01"},"SP98":{"p":1.99,"d":"2026-05-01"}},"brand":"TotalEnergies","services":["Toilettes publiques","Boutique alimentaire","Boutique non alimentaire","Restauration à emporter","Station de gonflage","Carburant additivé","Piste poids lourds","Lavage automatique","Vente de gaz domestique (Butane, Propane)","Vente d'additifs carburants","Wifi"]},{"id":37600004,"lat":47.111,"lng":1.005,"addr":"La Cloutiere    PERRUSSON","city":"LOCHES","cp":"37600","fuels":{"Gazole":{"p":2.169,"d":"2026-04-30"},"SP95":{"p":2.049,"d":"2026-04-30"},"E10":{"p":1.999,"d":"2026-04-30"},"SP98":{"p":2.089,"d":"2026-04-30"}},"brand":"Leclerc","h24":true,"services":["Toilettes publiques","Boutique alimentaire","Boutique non alimentaire","Restauration sur place","Vente de fioul domestique","Vente de pétrole lampant","Location de véhicule","Piste poids lourds","Lavage automatique","Lavage manuel","Services réparation / entretien","Vente de gaz domestique (Butane, Propane)","Automate CB 24/24","DAB (Distributeur automatique de billets)"]},{"id":37190001,"lat":47.268,"lng":0.476,"addr":"Lieu-dit La Loge","city":"Azay-le-Rideau","cp":"37190","fuels":{"Gazole":{"p":2.25,"d":"2026-04-27"},"SP95":{"p":1.99,"d":"2026-04-27"},"SP98":{"p":1.99,"d":"2026-04-27"}},"brand":"TotalEnergies","h24":true,"services":["Automate CB 24/24"]},{"id":37540005,"lat":47.418695091768996,"lng":0.66465516532672,"addr":"181 Boulevard Charles De Gaulle","city":"Saint-Cyr-sur-Loire","cp":"37540","fuels":{"Gazole":{"p":2.25,"d":"2026-04-30"},"E85":{"p":0.909,"d":"2026-04-30"},"E10":{"p":1.99,"d":"2026-04-30"},"SP98":{"p":1.99,"d":"2026-04-30"}},"brand":"TotalEnergies","h24":true,"services":["Boutique alimentaire","Boutique non alimentaire","Station de gonflage","Piste poids lourds","Lavage automatique","Lavage manuel","Vente de gaz domestique (Butane, Propane)","Vente d'additifs carburants","Automate CB 24/24"]},{"id":37210005,"lat":47.411707,"lng":0.8034330000000001,"addr":"27-29 rue des Ecoles","city":"Vouvray","cp":"37210","fuels":{"Gazole":{"p":2.215,"d":"2026-04-16"},"SP95":{"p":2.039,"d":"2026-04-16"},"SP98":{"p":2.087,"d":"2026-04-16"}},"brand":"Auchan","h24":true,"services":["Laverie","Relais colis","Restauration à emporter","Station de gonflage","Lavage automatique","Lavage manuel","Wifi","Automate CB 24/24"]},{"id":37700001,"lat":47.38,"lng":0.715,"addr":"Avenue Jacques DUCLOS","city":"SAINT-PIERRE-DES-CORPS","cp":"37700","fuels":{"Gazole":{"p":2.177,"d":"2026-04-29"},"SP95":{"p":2.038,"d":"2026-04-29"},"E10":{"p":2.016,"d":"2026-04-29"},"SP98":{"p":2.13,"d":"2026-04-29"}},"brand":"Carrefour"},{"id":37330001,"lat":47.542,"lng":0.337,"addr":"75 Avenue du Général de Gaulle","city":"Château-la-Vallière","cp":"37330","fuels":{"Gazole":{"p":2.199,"d":"2026-04-30"},"SP95":{"p":1.999,"d":"2026-04-20"},"GPLc":{"p":1.119,"d":"2026-04-30"},"E10":{"p":1.965,"d":"2026-04-20"},"SP98":{"p":2.035,"d":"2026-04-20"}},"brand":"Super U;Station U","h24":true,"services":["Laverie","Relais colis","Vente de fioul domestique","Station de gonflage","Aire de camping-cars","Location de véhicule","Piste poids lourds","Lavage automatique","Lavage manuel","Vente de gaz domestique (Butane, Propane)","Automate CB 24/24","DAB (Distributeur automatique de billets)"]},{"id":37420002,"lat":47.214,"lng":0.169,"addr":"ZA LES BUTTES","city":"AVOINE","cp":"37420","fuels":{"Gazole":{"p":2.25,"d":"2026-04-24"},"E85":{"p":0.879,"d":"2026-04-22"},"E10":{"p":1.99,"d":"2026-04-22"},"SP98":{"p":1.99,"d":"2026-04-22"}},"brand":"TotalEnergies","h24":true,"services":["Toilettes publiques","Station de gonflage","Carburant additivé","Location de véhicule","Piste poids lourds","Lavage automatique","Lavage manuel","Services réparation / entretien","Automate CB 24/24"]}]