[{"id":41400006,"lat":47.342,"lng":1.178,"addr":"60 Route de Tours","city":"MONTRICHARD","cp":"41400","fuels":{"Gazole":{"p":2.229,"d":"2026-05-01"},"E10":{"p":2.069,"d":"2026-05-01"},"SP98":{"p":2.189,"d":"2026-05-01"}},"brand":"Esso","h24":true,"services":["Relais colis","Station de gonflage","Carburant additivé","Automate CB 24/24"]},{"id":41100006,"lat":47.797,"lng":1.059,"addr":"35, AVENUE GERARD YVON","city":"VENDOME","cp":"41100","fuels":{"Gazole":{"p":2.09,"d":"2026-05-01"},"E10":{"p":1.99,"d":"2026-05-01"}},"brand":"TotalEnergies","services":["Boutique alimentaire","Boutique non alimentaire","Station de gonflage","Carburant additivé","Location de véhicule","Lavage automatique","Lavage manuel","DAB (Distributeur automatique de billets)"]},{"id":41240003,"lat":47.904,"lng":1.466,"addr":"15 Rue du 8 Mai 1945","city":"Binas","cp":"41240","fuels":{"Gazole":{"p":2.09,"d":"2026-05-01"},"SP98":{"p":1.99,"d":"2026-05-01"}},"brand":"Total Contact","h24":true,"services":["Boutique non alimentaire","Piste poids lourds","Services réparation / entretien","Vente de gaz domestique (Butane, Propane)","Vente d'additifs carburants","Automate CB 24/24"]},{"id":41350003,"lat":47.584,"lng":1.375,"addr":"RUE PAUL VALERY","city":"Vineuil","cp":"41350","fuels":{"Gazole":{"p":2.169,"d":"2026-04-29"},"SP95":{"p":2.026,"d":"2026-04-29"},"SP98":{"p":2.062,"d":"2026-04-27"}},"brand":"Intermarché","h24":true,"services":["Toilettes publiques","Laverie","Relais colis","Boutique alimentaire","Boutique non alimentaire","Piste poids lourds","Vente de gaz domestique (Butane, Propane)","Vente d'additifs carburants","Automate CB 24/24"]},{"id":41600007,"lat":47.665,"lng":1.925,"addr":"AIRE DE COEUR DE SOLOGNE, Autoroute A71","city":"CHAUMONT-SUR-THARONNE","cp":"41600","fuels":{"Gazole":{"p":2.214,"d":"2026-05-01"},"E85":{"p":0.936,"d":"2026-05-01"},"GPLc":{"p":1.099,"d":"2026-05-01"},"E10":{"p":2.029,"d":"2026-05-01"},"SP98":{"p":2.099,"d":"2026-05-01"}},"brand":"Eni","services":["Toilettes publiques","Douches","Laverie","Boutique alimentaire","Boutique non alimentaire","Restauration à emporter","Restauration sur place","Bar","Station de gonflage","Carburant additivé","Aire de camping-cars","Piste poids lourds","Espace bébé","Bornes électriques","Wifi"]},{"id":41140004,"lat":47.283,"lng":1.371,"addr":"12 Rue André Boulle. ZA LES PLANTES","city":"NOYERS-SUR-CHER","cp":"41140","fuels":{"Gazole":{"p":2.139,"d":"2026-04-28"},"E85":{"p":0.819,"d":"2026-04-18"},"GPLc":{"p":1.034,"d":"2026-04-14"},"E10":{"p":1.999,"d":"2026-04-28"},"SP98":{"p":2.079,"d":"2026-04-21"}},"brand":"Groupement des Mousquetaires","h24":true,"services":["Laverie","Relais colis","Station de gonflage","Location de véhicule","Piste poids lourds","Lavage automatique","Lavage manuel","Vente de gaz domestique (Butane, Propane)","Bornes électriques","Automate CB 24/24","DAB (Distributeur automatique de billets)"]},{"id":41190002,"lat":47.605,"lng":1.14,"addr":"Zone Commerciale de la Valstière","city":"Herbault","cp":"41190","fuels":{"Gazole":{"p":2.167,"d":"2026-04-25"},"E10":{"p":1.992,"d":"2026-04-27"},"SP98":{"p":2.149,"d":"2026-04-27"}},"brand":"Intermarché","h24":true,"services":["Toilettes publiques","Location de véhicule","Vente de gaz domestique (Butane, Propane)","Automate CB 24/24","DAB (Distributeur automatique de billets)"]},{"id":41100003,"lat":47.805,"lng":1.071,"addr":"ROUTE NATIONAL 10","city":"Vendôme","cp":"41100","fuels":{"Gazole":{"p":2.167,"d":"2026-04-30"},"E85":{"p":0.845,"d":"2026-04-30"},"E10":{"p":1.956,"d":"2026-04-30"},"SP98":{"p":2.085,"d":"2026-04-30"}},"brand":"Carrefour","h24":true,"services":["Relais colis","Location de véhicule","Vente de gaz domestique (Butane, Propane)","Automate CB 24/24","DAB (Distributeur automatique de billets)"]},{"id":41400007,"lat":47.387,"lng":1.251,"addr":"63 route de montrichard","city":"Pontlevoy","cp":"41400","fuels":{"Gazole":{"p":2.259,"d":"2026-04-24"},"E10":{"p":1.999,"d":"2026-04-24"},"SP98":{"p":2.099,"d":"2026-04-24"}},"brand":"Carrefour","h24":true,"services":["Relais colis","Boutique alimentaire","Boutique non alimentaire","Vente de gaz domestique (Butane, Propane)","Automate CB 24/24"]},{"id":41100005,"lat":47.782,"lng":1.071,"addr":"Route de Blois La Pierre Levée","city":"Vendôme","cp":"41100","fuels":{"Gazole":{"p":2.167,"d":"2026-04-30"},"GPLc":{"p":1.034,"d":"2026-04-29"},"E10":{"p":1.956,"d":"2026-04-30"},"SP98":{"p":2.085,"d":"2026-04-30"}},"brand":"Intermarché","h24":true,"services":["Toilettes publiques","Laverie","Boutique alimentaire","Boutique non alimentaire","Station de gonflage","Piste poids lourds","Lavage automatique","Lavage manuel","Vente de gaz domestique (Butane, Propane)","Automate CB 24/24","DAB (Distributeur automatique de billets)"]},{"id":41370001,"lat":47.7829694401,"lng":1.51275676194,"addr":"ROUTE DE MER","city":"JOSNES","cp":"41370","fuels":{"Gazole":{"p":2.25,"d":"2026-04-21"},"SP98":{"p":1.99,"d":"2026-04-21"}},"services":["Toilettes publiques","Boutique non alimentaire","Station de gonflage","Location de véhicule","Piste poids lourds","Lavage automatique","Lavage manuel","Vente de gaz domestique (Butane, Propane)"]},{"id":41000021,"lat":47.663,"lng":1.387,"addr":"A10 Aire de Blois Ménars","city":"Villerbon","cp":"41000","fuels":{"Gazole":{"p":2.341,"d":"2026-05-01"},"E85":{"p":0.999,"d":"2026-05-01"},"GPLc":{"p":1.139,"d":"2026-05-01"},"E10":{"p":2.131,"d":"2026-05-01"},"SP98":{"p":2.231,"d":"2026-05-01"}},"brand":"Esso","h24":true,"services":["Toilettes publiques","Douches","Boutique alimentaire","Boutique non alimentaire","Restauration à emporter","Restauration sur place","Station de gonflage","Carburant additivé","Aire de camping-cars","Piste poids lourds","Espace bébé","Bornes électriques","Wifi","Automate CB 24/24"]},{"id":41260005,"lat":47.605,"lng":1.351,"addr":"Bd des Déportés - Angle rue des Merisiers / av Déportés","city":"LA CHAUSSEE-SAINT-VICTOR","cp":"41260","fuels":{"Gazole":{"p":2.229,"d":"2026-05-01"},"E10":{"p":2.079,"d":"2026-05-01"},"SP98":{"p":2.229,"d":"2026-05-01"}},"brand":"Esso","h24":true,"services":["Station de gonflage","Carburant additivé","Piste poids lourds","Automate CB 24/24"]},{"id":41210000,"lat":47.525,"lng":1.812,"addr":"Lieu-dit La Croûte","city":"Neung-sur-Beuvron","cp":"41210","fuels":{"Gazole":{"p":2.179,"d":"2026-04-24"},"SP95":{"p":2.049,"d":"2026-04-24"},"SP98":{"p":2.099,"d":"2026-04-24"}},"brand":"Carrefour","services":["Laverie","Relais colis","Boutique alimentaire","Boutique non alimentaire","Vente de pétrole lampant","Piste poids lourds","Lavage automatique","Lavage manuel","Vente de gaz domestique (Butane, Propane)","Vente d'additifs carburants","DAB (Distributeur automatique de billets)"]},{"id":41360005,"lat":47.881,"lng":0.808,"addr":"5 bis avenue de la Braye","city":"Savigny-sur-Braye","cp":"41360","fuels":{"Gazole":{"p":2.499,"d":"2026-04-07"},"SP95":{"p":2.109,"d":"2026-04-07"},"SP98":{"p":2.169,"d":"2026-04-07"}},"h24":true,"services":["Laverie","Boutique alimentaire","Piste poids lourds","Lavage manuel","Vente de gaz domestique (Butane, Propane)","Automate CB 24/24"]},{"id":41300007,"lat":47.348,"lng":2.05,"addr":"A71 - Aire de salbris la loge","city":"Theillay","cp":"41300","fuels":{"Gazole":{"p":2.399,"d":"2026-04-24"},"E85":{"p":0.979,"d":"2026-03-24"},"GPLc":{"p":1.064,"d":"2026-03-21"},"E10":{"p":2.149,"d":"2026-04-24"},"SP98":{"p":2.249,"d":"2026-04-24"}},"brand":"Avia","h24":true,"services":["Toilettes publiques","Douches","Boutique alimentaire","Boutique non alimentaire","Restauration à emporter","Restauration sur place","Station de gonflage","Carburant additivé","Aire de camping-cars","Piste poids lourds","Espace bébé","Bornes électriques","Vente d'additifs carburants","Wifi","Automate CB 24/24","DAB (Distributeur automatique de billets)"]},{"id":41370004,"lat":47.82078655,"lng":1.3926011900000002,"addr":"Route de Blois","city":"MARCHENOIR","cp":"41370","fuels":{"Gazole":{"p":2.18,"d":"2026-04-23"},"SP95":{"p":2.028,"d":"2026-04-23"},"SP98":{"p":2.065,"d":"2026-04-23"}},"services":["Piste poids lourds","DAB (Distributeur automatique de billets)"]},{"id":41600001,"lat":47.601,"lng":2.027,"addr":"20 RUE GAUGIRAN","city":"LAMOTTE-BEUVRON","cp":"41600","fuels":{"Gazole":{"p":2.229,"d":"2026-04-25"},"E10":{"p":2.049,"d":"2026-04-28"},"SP98":{"p":2.149,"d":"2026-04-28"}},"brand":"Carrefour","h24":true,"services":["Toilettes publiques","Laverie","Relais colis","Location de véhicule","Vente de gaz domestique (Butane, Propane)","Wifi","Automate CB 24/24","DAB (Distributeur automatique de billets)"]},{"id":41300008,"lat":47.314,"lng":2.042,"addr":"Autoroute A71, Sens Paris-Vierzon","city":"Theillay","cp":"41300","fuels":{"Gazole":{"p":2.369,"d":"2026-04-24"},"E85":{"p":0.979,"d":"2026-03-24"},"GPLc":{"p":1.064,"d":"2026-04-23"},"E10":{"p":2.129,"d":"2026-04-24"},"SP98":{"p":2.229,"d":"2026-04-24"}},"brand":"Avia","h24":true,"services":["Douches","Boutique alimentaire","Restauration à emporter","Station de gonflage","Aire de camping-cars","Piste poids lourds","Espace bébé","Bornes électriques","Vente d'additifs carburants","Wifi","Automate CB 24/24","DAB (Distributeur automatique de billets)"]},{"id":41200001,"lat":47.36,"lng":1.761,"addr":"ZAC DE PLAISANCE","city":"ROMORANTIN-LANTHENAY","cp":"41200","fuels":{"Gazole":{"p":2.195,"d":"2026-04-30"},"SP95":{"p":2.064,"d":"2026-04-30"},"E85":{"p":0.841,"d":"2026-04-30"},"E10":{"p":2.017,"d":"2026-04-30"},"SP98":{"p":2.151,"d":"2026-04-30"}},"brand":"Carrefour","h24":true,"services":["Station de gonflage","Piste poids lourds","Vente de gaz domestique (Butane, Propane)","Automate CB 24/24","DAB (Distributeur automatique de billets)"]},{"id":41800003,"lat":47.757,"lng":0.861,"addr":"14 Boulevard Mermoz","city":"Montoire sur le loir","cp":"41800","fuels":{"Gazole":{"p":2.249,"d":"2026-04-30"},"E10":{"p":2.099,"d":"2026-04-30"},"SP98":{"p":2.199,"d":"2026-04-30"}},"brand":"U express","h24":true,"services":["Toilettes publiques","Laverie","Boutique alimentaire","Station de gonflage","Location de véhicule","Lavage automatique","Wifi","Automate CB 24/24"]},{"id":41100002,"lat":47.81671,"lng":1.0759,"addr":"RN10 71 Route de Paris","city":"Saint-Ouen","cp":"41100","fuels":{"Gazole":{"p":2.25,"d":"2026-04-29"},"E85":{"p":0.879,"d":"2026-04-29"},"E10":{"p":1.99,"d":"2026-04-29"},"SP98":{"p":1.99,"d":"2026-04-29"}},"brand":"TotalEnergies","services":["Toilettes publiques","Boutique alimentaire","Boutique non alimentaire","Station de gonflage","Carburant additivé","Piste poids lourds","Lavage automatique","Lavage manuel","Services réparation / entretien","Vente de gaz domestique (Butane, Propane)","DAB (Distributeur automatique de billets)"]},{"id":41600006,"lat":47.599444952,"lng":2.02315857653,"addr":"5 AV. DE L'HOTEL DE VILLE","city":"Lamotte-Beuvron","cp":"41600","fuels":{"Gazole":{"p":2.09,"d":"2026-05-01"},"E10":{"p":1.99,"d":"2026-05-01"}},"brand":"TotalEnergies","services":["Boutique alimentaire","Boutique non alimentaire","Station de gonflage","Carburant additivé","Lavage manuel","Vente de gaz domestique (Butane, Propane)"]},{"id":41400002,"lat":47.3298125,"lng":1.1500625,"addr":"RN 76","city":"SAINT-GEORGES-SUR-CHER","cp":"41400","fuels":{"Gazole":{"p":2.09,"d":"2026-05-01"},"E10":{"p":1.99,"d":"2026-04-20"},"SP98":{"p":1.99,"d":"2026-04-30"}},"brand":"TotalEnergies","services":["Toilettes publiques","Boutique alimentaire","Boutique non alimentaire","Restauration à emporter","Restauration sur place","Station de gonflage","Carburant additivé","Location de véhicule","Piste poids lourds","Lavage manuel","Services réparation / entretien","Vente de gaz domestique (Butane, Propane)","DAB (Distributeur automatique de billets)"]},{"id":41120002,"lat":47.52356,"lng":1.30304,"addr":"RUE DE LA LIBERATION","city":"CHAILLES","cp":"41120","fuels":{"Gazole":{"p":2.159,"d":"2026-04-27"},"E10":{"p":1.969,"d":"2026-04-18"},"SP98":{"p":2.089,"d":"2026-04-18"}},"brand":"Intermarché"},{"id":41320002,"lat":47.267591521387,"lng":1.8833118791535,"addr":"88 rue Nationale","city":"châtres sur cher","cp":"41320","fuels":{"Gazole":{"p":2.218,"d":"2026-04-17"},"SP95":{"p":2.061,"d":"2026-04-17"},"SP98":{"p":2.098,"d":"2026-04-17"}},"brand":"Système U"},{"id":41700006,"lat":47.425,"lng":1.428,"addr":"16 Avenue du Général De Gaulle","city":"Contres","cp":"41700","fuels":{"Gazole":{"p":2.09,"d":"2026-05-01"},"E10":{"p":1.99,"d":"2026-04-29"},"SP98":{"p":1.99,"d":"2026-04-29"}},"brand":"TotalEnergies","h24":true,"services":["Toilettes publiques","Boutique alimentaire","Boutique non alimentaire","Station de gonflage","Carburant additivé","Location de véhicule","Piste poids lourds","Lavage automatique","Espace bébé","Services réparation / entretien","Vente de gaz domestique (Butane, Propane)","Vente d'additifs carburants","Wifi","Automate CB 24/24"]},{"id":41000005,"lat":47.666,"lng":1.388,"addr":"A10 - Aire de Blois-Villerbon","city":"Villerbon","cp":"41000","fuels":{"Gazole":{"p":2.62,"d":"2026-05-01"},"E10":{"p":2.51,"d":"2026-05-01"},"SP98":{"p":2.66,"d":"2026-05-01"}},"brand":"Shell","h24":true,"services":["Toilettes publiques","Douches","Boutique alimentaire","Boutique non alimentaire","Restauration à emporter","Station de gonflage","Carburant additivé","Piste poids lourds","Espace bébé","Bornes électriques","Wifi","Automate CB 24/24","DAB (Distributeur automatique de billets)"]},{"id":41240002,"lat":47.907,"lng":1.521,"addr":"2 Bis Voie Romaine","city":"BEAUCE LA ROMAINE","cp":"41240","fuels":{"Gazole":{"p":2.159,"d":"2026-04-28"},"E10":{"p":1.979,"d":"2026-04-28"},"SP98":{"p":2.089,"d":"2026-04-28"}},"brand":"Intermarché","h24":true,"services":["Laverie","Station de gonflage","Lavage automatique","Vente de gaz domestique (Butane, Propane)","Automate CB 24/24"]},{"id":41400004,"lat":47.318,"lng":1.186,"addr":"CENTRE COMMERCIAL MONTPARNASSE","city":"FAVEROLLES-SUR-CHER","cp":"41400","fuels":{"Gazole":{"p":2.138,"d":"2026-04-29"},"E85":{"p":0.83,"d":"2026-03-24"},"E10":{"p":1.999,"d":"2026-04-29"},"SP98":{"p":2.078,"d":"2026-04-25"}},"brand":"Carrefour","services":["Toilettes publiques","Relais colis","Boutique alimentaire","Boutique non alimentaire","Vente de pétrole lampant","Vente de gaz domestique (Butane, Propane)","DAB (Distributeur automatique de billets)"]},{"id":41360003,"lat":47.9018904008,"lng":0.9175049294909999,"addr":"ROUTE DU MANS","city":"EPUISAY","cp":"41360","fuels":{"Gazole":{"p":2.25,"d":"2026-04-10"},"SP95":{"p":1.99,"d":"2026-04-10"},"SP98":{"p":1.99,"d":"2026-04-10"}},"brand":"TotalEnergies","services":["Toilettes publiques","Boutique alimentaire","Boutique non alimentaire","Restauration à emporter","Vente de fioul domestique","Station de gonflage","Carburant additivé","Piste poids lourds","DAB (Distributeur automatique de billets)"]},{"id":41200009,"lat":47.338097659342,"lng":1.6660467695594,"addr":"AUTOROUTE A85 - AIRE DE ROMORANTIN","city":"Pruniers-en-Sologne","cp":"41200","fuels":{"Gazole":{"p":2.09,"d":"2026-05-01"},"E85":{"p":0.979,"d":"2026-05-01"},"GPLc":{"p":1.099,"d":"2026-05-01"},"E10":{"p":1.99,"d":"2026-05-01"},"SP98":{"p":1.99,"d":"2026-05-01"}},"brand":"TotalEnergies","h24":true,"services":["Toilettes publiques","Douches","Boutique alimentaire","Boutique non alimentaire","Restauration à emporter","Station de gonflage","Carburant additivé","Piste poids lourds","Espace bébé","Vente d'additifs carburants","Wifi","Automate CB 24/24","DAB (Distributeur automatique de billets)"]},{"id":41300001,"lat":47.424,"lng":2.053,"addr":"74 BD REPUBLIQUE","city":"SALBRIS","cp":"41300","fuels":{"Gazole":{"p":2.2,"d":"2026-04-29"},"SP95":{"p":1.999,"d":"2026-04-25"},"SP98":{"p":2.095,"d":"2026-04-25"}},"brand":"Carrefour","h24":true,"services":["Laverie","Relais colis","Boutique alimentaire","Boutique non alimentaire","Location de véhicule","Vente de gaz domestique (Butane, Propane)","Bornes électriques","Vente d'additifs carburants","Automate CB 24/24"]},{"id":41200006,"lat":47.346,"lng":1.728,"addr":"La Brigaudière","city":"Pruniers-en-Sologne / Romorantin","cp":"41200","fuels":{"Gazole":{"p":2.14,"d":"2026-04-30"},"SP95":{"p":2.04,"d":"2026-04-30"},"E10":{"p":2,"d":"2026-04-30"},"SP98":{"p":2.09,"d":"2026-04-30"}},"brand":"Système U","h24":true,"services":["Laverie","Relais colis","Station de gonflage","Location de véhicule","Piste poids lourds","Lavage automatique","Lavage manuel","Vente de gaz domestique (Butane, Propane)","Bornes électriques","Automate CB 24/24","DAB (Distributeur automatique de billets)"]},{"id":41110001,"lat":47.26053,"lng":1.36226,"addr":"Impasse des Terres Rouges","city":"SAINT-AIGNAN","cp":"41110","fuels":{"Gazole":{"p":2.139,"d":"2026-04-28"},"SP95":{"p":2.039,"d":"2026-04-28"},"E85":{"p":0.799,"d":"2026-04-28"},"E10":{"p":1.999,"d":"2026-04-28"},"SP98":{"p":2.079,"d":"2026-04-28"}},"brand":"Système U","services":["Station de gonflage","Location de véhicule","Vente de gaz domestique (Butane, Propane)"]},{"id":41200010,"lat":47.371,"lng":1.713,"addr":"1 RUE DES CHARDONNES","city":"Romorantin-Lanthenay","cp":"41200","fuels":{"Gazole":{"p":2.13,"d":"2026-04-30"},"SP95":{"p":2.03,"d":"2026-04-30"},"E85":{"p":0.81,"d":"2026-04-15"},"GPLc":{"p":0.999,"d":"2026-04-22"},"E10":{"p":1.995,"d":"2026-04-30"}},"brand":"Leclerc","h24":true,"services":["Toilettes publiques","Laverie","Boutique alimentaire","Boutique non alimentaire","Restauration sur place","Station de gonflage","Carburant additivé","Location de véhicule","Lavage automatique","Lavage manuel","Espace bébé","Services réparation / entretien","Vente de gaz domestique (Butane, Propane)","Bornes électriques","Automate CB 24/24","DAB (Distributeur automatique de billets)"]},{"id":41800002,"lat":47.759,"lng":0.876,"addr":"avenue de la Paix","city":"Montoire-sur-le-Loir","cp":"41800","fuels":{"Gazole":{"p":2.189,"d":"2026-04-28"},"SP95":{"p":2.039,"d":"2026-04-28"},"E85":{"p":0.818,"d":"2026-04-23"},"E10":{"p":1.989,"d":"2026-04-28"},"SP98":{"p":2.099,"d":"2026-04-28"}},"brand":"Intermarché","services":["Lavage manuel","Vente de gaz domestique (Butane, Propane)","DAB (Distributeur automatique de billets)"]},{"id":41000022,"lat":47.58142578404,"lng":1.2993805014435,"addr":"1 rue de la Quinière","city":"Blois","cp":"41000","fuels":{"Gazole":{"p":2.199,"d":"2026-04-30"},"SP95":{"p":2.045,"d":"2026-04-30"},"E85":{"p":0.9,"d":"2026-04-20"},"E10":{"p":2.01,"d":"2026-04-30"}},"brand":"Carrefour","h24":true,"services":["Relais colis","Restauration à emporter","Vente de pétrole lampant","Location de véhicule","Vente d'additifs carburants","Automate CB 24/24","DAB (Distributeur automatique de billets)"]},{"id":41350001,"lat":47.569,"lng":1.371,"addr":"ZI Les Gâts de Coeur","city":"VINEUIL","cp":"41350","fuels":{"Gazole":{"p":2.165,"d":"2026-04-29"},"E85":{"p":0.889,"d":"2026-04-28"},"GPLc":{"p":0.981,"d":"2026-04-18"},"E10":{"p":1.99,"d":"2026-04-30"},"SP98":{"p":2.063,"d":"2026-04-30"}},"brand":"Auchan","h24":true,"services":["Toilettes publiques","Laverie","Relais colis","Restauration à emporter","Restauration sur place","Station de gonflage","Carburant additivé","Espace bébé","Vente de gaz domestique (Butane, Propane)","Bornes électriques","Automate CB 24/24","DAB (Distributeur automatique de billets)"]},{"id":41230001,"lat":47.413,"lng":1.605,"addr":"341, route de Blois","city":"MUR-DE-SOLOGNE","cp":"41230","fuels":{"Gazole":{"p":2.25,"d":"2026-04-17"},"SP95":{"p":1.99,"d":"2026-04-17"}},"brand":"Elan","services":["Toilettes publiques","Boutique non alimentaire","Carburant additivé","Location de véhicule","Lavage manuel","Services réparation / entretien","Vente de gaz domestique (Butane, Propane)","Vente d'additifs carburants"]},{"id":41000007,"lat":47.61,"lng":1.327,"addr":"15 rue du bout des haies","city":"Blois","cp":"41000","fuels":{"Gazole":{"p":2.165,"d":"2026-04-30"},"SP95":{"p":2.045,"d":"2026-04-30"},"E85":{"p":0.9,"d":"2026-04-30"},"GPLc":{"p":0.955,"d":"2026-04-30"},"E10":{"p":2.01,"d":"2026-04-30"}},"brand":"Leclerc","services":["Toilettes publiques","Laverie","Relais colis","Boutique alimentaire","Boutique non alimentaire","Restauration à emporter","Restauration sur place","Bar","Vente de fioul domestique","Vente de pétrole lampant","Station de gonflage","Location de véhicule","Piste poids lourds","Lavage automatique","Lavage manuel","Espace bébé","Vente de gaz domestique (Butane, Propane)","Bornes électriques","Vente d'additifs carburants","Wifi","DAB (Distributeur automatique de billets)"]},{"id":41000020,"lat":47.59557563159,"lng":1.3010717505701,"addr":"1 rue Duguay Trouin","city":"Blois","cp":"41000","fuels":{"Gazole":{"p":2.155,"d":"2026-04-28"},"SP95":{"p":2.046,"d":"2026-04-27"},"SP98":{"p":2.119,"d":"2026-04-27"}},"brand":"Carrefour","services":["Vente de gaz domestique (Butane, Propane)"]},{"id":41000019,"lat":47.604,"lng":1.315,"addr":"107, AVENUE DE VENDOME","city":"BLOIS","cp":"41000","fuels":{"Gazole":{"p":2.09,"d":"2026-05-01"},"E10":{"p":1.99,"d":"2026-05-01"}},"brand":"TotalEnergies","services":["Boutique alimentaire","Station de gonflage","Carburant additivé","Piste poids lourds","Vente de gaz domestique (Butane, Propane)"]},{"id":41500001,"lat":47.697,"lng":1.501,"addr":"RTE DE BLOIS","city":"MER","cp":"41500","fuels":{"Gazole":{"p":2.155,"d":"2026-04-30"},"E85":{"p":0.799,"d":"2026-04-30"},"GPLc":{"p":1.059,"d":"2026-04-30"},"E10":{"p":1.989,"d":"2026-04-30"},"SP98":{"p":2.045,"d":"2026-04-30"}},"brand":"Station U","h24":true,"services":["Toilettes publiques","Laverie","Relais colis","Boutique alimentaire","Boutique non alimentaire","Restauration à emporter","Restauration sur place","Bar","Vente de pétrole lampant","Station de gonflage","Carburant additivé","Aire de camping-cars","Location de véhicule","Piste poids lourds","Lavage automatique","Lavage manuel","Services réparation / entretien","Vente de gaz domestique (Butane, Propane)","Vente d'additifs carburants","Wifi","Automate CB 24/24","DAB (Distributeur automatique de billets)"]},{"id":41600005,"lat":47.585,"lng":2.026,"addr":"93 Avenue de Vierzon","city":"LAMOTTE-BEUVRON","cp":"41600","fuels":{"Gazole":{"p":2.229,"d":"2026-04-24"},"E85":{"p":0.819,"d":"2026-04-15"},"E10":{"p":2.049,"d":"2026-04-28"},"SP98":{"p":2.149,"d":"2026-04-28"}},"brand":"Intermarché","services":["Toilettes publiques","Laverie","Relais colis","Vente de pétrole lampant","Station de gonflage","Location de véhicule","Lavage automatique","Vente de gaz domestique (Butane, Propane)","Vente d'additifs carburants","DAB (Distributeur automatique de billets)"]},{"id":41350007,"lat":47.570234469999995,"lng":1.37039328,"addr":"D 174","city":"VINEUIL","cp":"41350","fuels":{"Gazole":{"p":2.09,"d":"2026-05-01"},"E85":{"p":0.889,"d":"2026-05-01"},"E10":{"p":1.99,"d":"2026-05-01"}},"brand":"TotalEnergies","services":["Toilettes publiques","Boutique alimentaire","Boutique non alimentaire","Station de gonflage","Piste poids lourds","Lavage automatique","Vente de gaz domestique (Butane, Propane)","DAB (Distributeur automatique de billets)"]},{"id":41600004,"lat":47.663,"lng":1.93,"addr":"AUTOROUTE A 71","city":"CHAUMONT-SUR-THARONNE","cp":"41600","fuels":{"Gazole":{"p":2.351,"d":"2026-05-01"},"GPLc":{"p":1.064,"d":"2026-05-01"},"E10":{"p":2.161,"d":"2026-05-01"},"SP98":{"p":2.261,"d":"2026-05-01"}},"brand":"Esso","services":["Toilettes publiques","Douches","Boutique alimentaire","Boutique non alimentaire","Restauration à emporter","Bar","Station de gonflage","Carburant additivé","Aire de camping-cars","Piste poids lourds","Espace bébé"]},{"id":41170002,"lat":47.983,"lng":0.913,"addr":"Route de Cloyes","city":"Mondoubleau","cp":"41170","fuels":{"Gazole":{"p":2.199,"d":"2026-04-30"},"SP95":{"p":2.109,"d":"2026-04-30"},"E10":{"p":2.059,"d":"2026-04-30"},"SP98":{"p":2.139,"d":"2026-04-30"}},"brand":"Système U","services":["Station de gonflage","Location de véhicule","Piste poids lourds","Lavage automatique","Lavage manuel","Vente de gaz domestique (Butane, Propane)","DAB (Distributeur automatique de billets)"]},{"id":41220001,"lat":47.715,"lng":1.613,"addr":"AVENUE DE SOLOGNE","city":"Saint-Laurent-Nouan","cp":"41220","fuels":{"Gazole":{"p":2.139,"d":"2026-04-28"},"E85":{"p":0.759,"d":"2026-04-20"},"E10":{"p":1.969,"d":"2026-04-23"},"SP98":{"p":2.045,"d":"2026-04-20"}},"brand":"Système U","h24":true,"services":["Toilettes publiques","Laverie","Relais colis","Boutique alimentaire","Station de gonflage","Location de véhicule","Piste poids lourds","Lavage automatique","Lavage manuel","Vente de gaz domestique (Butane, Propane)","Vente d'additifs carburants","Wifi","Automate CB 24/24","DAB (Distributeur automatique de billets)"]},{"id":41200003,"lat":47.378,"lng":1.737,"addr":"81 Avenue de Paris","city":"ROMORANTIN-LANTHENAY","cp":"41200","fuels":{"Gazole":{"p":2.13,"d":"2026-04-30"},"SP95":{"p":2.03,"d":"2026-04-30"},"SP98":{"p":2.072,"d":"2026-04-27"}},"brand":"Leclerc","h24":true,"services":["Toilettes publiques","Laverie","Boutique non alimentaire","Restauration à emporter","Vente de fioul domestique","Carburant additivé","Piste poids lourds","Automate CB 24/24","DAB (Distributeur automatique de billets)"]},{"id":41300002,"lat":47.429,"lng":2.06,"addr":"AVENUE DE LA RESISTANCE","city":"Salbris","cp":"41300","fuels":{"Gazole":{"p":2.199,"d":"2026-04-30"},"E10":{"p":2.029,"d":"2026-04-28"},"SP98":{"p":2.09,"d":"2026-04-30"}},"brand":"Système U","h24":true,"services":["Toilettes publiques","Station de gonflage","Location de véhicule","Lavage automatique","Automate CB 24/24","DAB (Distributeur automatique de billets)"]},{"id":41200002,"lat":47.353,"lng":1.744,"addr":"4 Avenue de Villefranche","city":"ROMORANTIN-LANTHENAY","cp":"41200","fuels":{"Gazole":{"p":2.25,"d":"2026-04-30"},"SP95":{"p":1.99,"d":"2026-04-30"}},"brand":"TotalEnergies","h24":true,"services":["Relais colis","Boutique alimentaire","Station de gonflage","Carburant additivé","Location de véhicule","Lavage automatique","Vente de gaz domestique (Butane, Propane)","Vente d'additifs carburants","Wifi","Automate CB 24/24","DAB (Distributeur automatique de billets)"]},{"id":41150005,"lat":47.497446,"lng":1.178283,"addr":"35 rue Gustave Marc","city":"Veuzain sur Loire","cp":"41150","fuels":{"Gazole":{"p":2.159,"d":"2026-04-27"},"E85":{"p":0.818,"d":"2026-04-18"},"E10":{"p":1.969,"d":"2026-04-18"},"SP98":{"p":2.089,"d":"2026-04-18"}},"brand":"Intermarché"},{"id":41100004,"lat":47.803,"lng":1.044,"addr":"74 Rue de Courtiras","city":"VENDôME","cp":"41100","fuels":{"Gazole":{"p":2.167,"d":"2026-04-30"},"SP95":{"p":1.982,"d":"2026-04-30"},"E10":{"p":1.956,"d":"2026-04-30"},"SP98":{"p":2.002,"d":"2026-04-30"}},"brand":"Leclerc","h24":true,"services":["Toilettes publiques","Laverie","Boutique alimentaire","Boutique non alimentaire","Restauration à emporter","Restauration sur place","Bar","Station de gonflage","Location de véhicule","Piste poids lourds","Espace bébé","Vente de gaz domestique (Butane, Propane)","Wifi","Automate CB 24/24","DAB (Distributeur automatique de billets)"]},{"id":41250001,"lat":47.562,"lng":1.45,"addr":"45, rue des Morines","city":"MONT-PRèS-CHAMBORD","cp":"41250","fuels":{"Gazole":{"p":2.165,"d":"2026-04-29"},"E85":{"p":0.819,"d":"2026-04-22"},"E10":{"p":1.99,"d":"2026-04-30"},"SP98":{"p":2.063,"d":"2026-04-30"}},"brand":"Intermarché","h24":true,"services":["Toilettes publiques","Relais colis","Boutique alimentaire","Boutique non alimentaire","Restauration à emporter","Station de gonflage","Location de véhicule","Lavage automatique","Lavage manuel","Vente de gaz domestique (Butane, Propane)","Bornes électriques","Automate CB 24/24","DAB (Distributeur automatique de billets)"]},{"id":41260001,"lat":47.611,"lng":1.359,"addr":"1 route Nationale 152","city":"LA CHAUSSéE-SAINT-VICTOR","cp":"41260","fuels":{"Gazole":{"p":2.179,"d":"2026-04-25"},"E85":{"p":0.9,"d":"2026-04-23"},"E10":{"p":1.999,"d":"2026-04-25"},"SP98":{"p":2.099,"d":"2026-04-25"}},"brand":"Carrefour","h24":true,"services":["Relais colis","Location de véhicule","Wifi","Automate CB 24/24","DAB (Distributeur automatique de billets)"]},{"id":41700004,"lat":47.43,"lng":1.434,"addr":"69 Route de Cheverny","city":"CONTRES","cp":"41700","fuels":{"Gazole":{"p":2.189,"d":"2026-04-30"},"E85":{"p":0.799,"d":"2026-04-14"},"GPLc":{"p":1.034,"d":"2026-04-10"},"E10":{"p":2.027,"d":"2026-04-30"},"SP98":{"p":2.11,"d":"2026-04-30"}},"brand":"Système U","services":["Vente de pétrole lampant","Station de gonflage","Location de véhicule","Lavage manuel","Vente de gaz domestique (Butane, Propane)","Bornes électriques","DAB (Distributeur automatique de billets)"]},{"id":41400001,"lat":47.342,"lng":1.163,"addr":"rue de Chenonceaux","city":"Chissay-en-Touraine","cp":"41400","fuels":{"Gazole":{"p":2.138,"d":"2026-04-29"},"SP95":{"p":2.038,"d":"2026-04-29"},"E10":{"p":1.999,"d":"2026-04-29"},"SP98":{"p":2.069,"d":"2026-04-29"}},"brand":"Système U","h24":true,"services":["Boutique non alimentaire","Station de gonflage","Location de véhicule","Piste poids lourds","Lavage automatique","Lavage manuel","Vente de gaz domestique (Butane, Propane)","Vente d'additifs carburants","Automate CB 24/24"]},{"id":41000023,"lat":47.588530046923005,"lng":1.3128341028968,"addr":"Rue Edouard Branly, zup nord","city":"BLOIS","cp":"41000","fuels":{"Gazole":{"p":2.259,"d":"2026-04-29"},"E85":{"p":0.845,"d":"2026-04-29"},"E10":{"p":2.059,"d":"2026-04-29"},"SP98":{"p":2.159,"d":"2026-04-29"}},"brand":"Avia","h24":true,"services":["Carburant additivé","Automate CB 24/24"]},{"id":41130003,"lat":47.285,"lng":1.538,"addr":"Avenue Cher Sologne","city":"SELLES-SUR-CHER","cp":"41130","fuels":{"Gazole":{"p":2.139,"d":"2026-04-30"},"SP95":{"p":2.039,"d":"2026-04-30"},"E10":{"p":2,"d":"2026-04-30"},"SP98":{"p":2.089,"d":"2026-04-30"}},"brand":"Système U","h24":true,"services":["Station de gonflage","Location de véhicule","Piste poids lourds","Lavage automatique","Lavage manuel","Vente de gaz domestique (Butane, Propane)","Automate CB 24/24","DAB (Distributeur automatique de billets)"]},{"id":41000001,"lat":47.624,"lng":1.297,"addr":"ROUTE DE VENDOME","city":"VILLEBAROU","cp":"41000","fuels":{"Gazole":{"p":2.166,"d":"2026-04-29"},"E85":{"p":0.9,"d":"2026-04-29"},"GPLc":{"p":0.985,"d":"2026-04-29"},"E10":{"p":2.011,"d":"2026-04-30"},"SP98":{"p":2.119,"d":"2026-04-29"}},"brand":"Cora","h24":true,"services":["Laverie","Station de gonflage","Carburant additivé","Aire de camping-cars","Piste poids lourds","Lavage automatique","Vente de gaz domestique (Butane, Propane)","Bornes électriques","Vente d'additifs carburants","Automate CB 24/24","DAB (Distributeur automatique de billets)"]}]