[{"id":63360003,"lat":45.82,"lng":3.15,"addr":"Rue des Martyrs","city":"GERZAT","cp":"63360","fuels":{"Gazole":{"p":2.189,"d":"2026-04-27"},"E10":{"p":2.046,"d":"2026-04-28"},"SP98":{"p":2.166,"d":"2026-04-28"}},"brand":"Intermarché","h24":true,"services":["Laverie","Relais colis","Boutique alimentaire","Station de gonflage","Piste poids lourds","Vente de gaz domestique (Butane, Propane)","Bornes électriques","Wifi","Automate CB 24/24","DAB (Distributeur automatique de billets)"]},{"id":63122001,"lat":45.705,"lng":3.022,"addr":"1 Rue du Château - D2089","city":"SAINT-GENèS-CHAMPANELLE","cp":"63122","fuels":{"Gazole":{"p":2.223,"d":"2026-04-21"},"SP95":{"p":2.089,"d":"2026-04-30"},"SP98":{"p":2.158,"d":"2026-04-30"}},"brand":"Esso","h24":true,"services":["Station de gonflage","Carburant additivé","Lavage manuel","Services réparation / entretien","Vente de gaz domestique (Butane, Propane)","Automate CB 24/24","DAB (Distributeur automatique de billets)"]},{"id":63140001,"lat":45.923,"lng":3.063,"addr":"65 avenue de Belgique","city":"Châtel-guyon","cp":"63140","fuels":{"Gazole":{"p":2.25,"d":"2026-04-22"},"E10":{"p":1.99,"d":"2026-04-21"},"SP98":{"p":1.99,"d":"2026-04-21"}},"brand":"TotalEnergies","h24":true,"services":["Boutique alimentaire","Boutique non alimentaire","Station de gonflage","Carburant additivé","Piste poids lourds","Lavage automatique","Lavage manuel","Services réparation / entretien","Vente de gaz domestique (Butane, Propane)","Vente d'additifs carburants","Automate CB 24/24"]},{"id":63430004,"lat":45.801,"lng":3.243,"addr":"Avenue Roger Prat","city":"PONT-DU-CHâTEAU","cp":"63430","fuels":{"Gazole":{"p":2.169,"d":"2026-04-28"},"SP95":{"p":2.049,"d":"2026-04-28"},"E10":{"p":1.999,"d":"2026-04-29"}},"brand":"Intermarché","h24":true,"services":["Laverie","Boutique alimentaire","Boutique non alimentaire","Restauration à emporter","Restauration sur place","Station de gonflage","Piste poids lourds","Vente de gaz domestique (Butane, Propane)","Automate CB 24/24","DAB (Distributeur automatique de billets)"]},{"id":63550001,"lat":45.889,"lng":3.596,"addr":"10 ROUTE DU LAC","city":"Saint-Rémy-sur-Durolle","cp":"63550","fuels":{"Gazole":{"p":2.259,"d":"2026-04-30"},"E10":{"p":2.099,"d":"2026-04-30"},"SP98":{"p":2.199,"d":"2026-04-30"}},"h24":true,"services":["Automate CB 24/24"]},{"id":63500006,"lat":45.536,"lng":3.252,"addr":"6 ROUTE DE ST GERMAIN","city":"ISSOIRE","cp":"63500","fuels":{"Gazole":{"p":2.09,"d":"2026-05-01"},"E85":{"p":0.869,"d":"2026-05-01"}},"brand":"TotalEnergies","h24":true,"services":["Toilettes publiques","Boutique alimentaire","Boutique non alimentaire","Restauration à emporter","Station de gonflage","Carburant additivé","Piste poids lourds","Lavage automatique","Vente de gaz domestique (Butane, Propane)","Automate CB 24/24"]},{"id":63450002,"lat":45.669,"lng":3.109,"addr":"CD 213","city":"TALLENDE","cp":"63450","fuels":{"Gazole":{"p":2.199,"d":"2026-04-22"},"E10":{"p":1.989,"d":"2026-04-22"},"SP98":{"p":2.139,"d":"2026-03-24"}},"brand":"Intermarché","services":["Wifi"]},{"id":63170007,"lat":45.75,"lng":3.133,"addr":"38 Avenue du Roussillon","city":"AUBIERE","cp":"63170","fuels":{"Gazole":{"p":2.249,"d":"2026-04-30"},"E10":{"p":2.099,"d":"2026-04-30"},"SP98":{"p":2.199,"d":"2026-04-30"}},"brand":"Eni","h24":true,"services":["Station de gonflage","Carburant additivé","Automate CB 24/24"]},{"id":63114003,"lat":45.642,"lng":3.184,"addr":"AIRE D'AUTHEZAT - A75","city":"Authezat","cp":"63114","fuels":{"Gazole":{"p":2.274,"d":"2026-04-28"},"E85":{"p":0.942,"d":"2026-04-28"},"GPLc":{"p":1.13,"d":"2026-04-28"},"E10":{"p":2.085,"d":"2026-04-28"},"SP98":{"p":2.16,"d":"2026-04-28"}},"brand":"Avia","services":["Toilettes publiques","Douches","Laverie","Boutique alimentaire","Boutique non alimentaire","Restauration à emporter","Restauration sur place","Bar","Station de gonflage","Piste poids lourds","Espace bébé","Bornes électriques","Vente d'additifs carburants","Wifi"]},{"id":63490002,"lat":45.550330010776,"lng":3.3669437459243,"addr":"2 route d'Issoire","city":"Sauxillanges","cp":"63490","fuels":{"Gazole":{"p":2.254,"d":"2026-04-28"},"SP95":{"p":2.119,"d":"2026-04-28"},"SP98":{"p":2.199,"d":"2026-04-28"}},"brand":"Carrefour","h24":true,"services":["Automate CB 24/24"]},{"id":63201001,"lat":45.888,"lng":3.069,"addr":"Route de Volvic","city":"ENVAL","cp":"63530","fuels":{"Gazole":{"p":2.159,"d":"2026-04-30"},"SP95":{"p":2.069,"d":"2026-04-30"},"E10":{"p":2.032,"d":"2026-04-30"},"SP98":{"p":2.161,"d":"2026-04-30"}},"brand":"Leclerc","h24":true,"services":["Toilettes publiques","Relais colis","Boutique alimentaire","Boutique non alimentaire","Restauration sur place","Bar","Location de véhicule","Vente de gaz domestique (Butane, Propane)","Automate CB 24/24","DAB (Distributeur automatique de billets)"]},{"id":63320002,"lat":45.592,"lng":3.139,"addr":"ROUTE DE CLERMONT D 978","city":"CHAMPEIX","cp":"63320","fuels":{"Gazole":{"p":2.269,"d":"2026-04-29"},"SP95":{"p":2.109,"d":"2026-04-29"},"GPLc":{"p":1.02,"d":"2026-04-29"},"SP98":{"p":2.219,"d":"2026-04-29"}},"h24":true,"services":["Toilettes publiques","Boutique non alimentaire","Vente de fioul domestique","Station de gonflage","Carburant additivé","Piste poids lourds","Services réparation / entretien","Vente de gaz domestique (Butane, Propane)","Vente d'additifs carburants","Automate CB 24/24"]},{"id":63190001,"lat":45.82699,"lng":3.37353,"addr":"RUE GEORGES CLEMENCEAU","city":"LEZOUX","cp":"63190","fuels":{"Gazole":{"p":2.194,"d":"2026-04-30"},"E10":{"p":2.038,"d":"2026-04-30"},"SP98":{"p":2.178,"d":"2026-04-30"}},"brand":"Carrefour","services":["Station de gonflage","Vente de gaz domestique (Butane, Propane)","DAB (Distributeur automatique de billets)"]},{"id":63680001,"lat":45.531088809463995,"lng":2.697685652596,"addr":"PARCELLE SECTION A, Lieu dit les Ventadoux","city":"LA TOUR D'AUVERGNE","cp":"63680","fuels":{"Gazole":{"p":2.279,"d":"2026-04-30"},"E85":{"p":0.879,"d":"2026-04-02"},"E10":{"p":2.069,"d":"2026-04-20"}},"brand":"Gulf","h24":true,"services":["Automate CB 24/24"]},{"id":63600001,"lat":45.543,"lng":3.729,"addr":"Route du PUY","city":"AMBERT","cp":"63600","fuels":{"Gazole":{"p":2.229,"d":"2026-04-29"},"SP95":{"p":2.049,"d":"2026-04-29"},"SP98":{"p":2.109,"d":"2026-04-29"}},"brand":"Carrefour","h24":true,"services":["Toilettes publiques","Laverie","Relais colis","Station de gonflage","Location de véhicule","Vente de gaz domestique (Butane, Propane)","Bornes électriques","Wifi","Automate CB 24/24"]},{"id":63350001,"lat":45.916703390938,"lng":3.32989534453,"addr":"LE CHAMP D'ORIOUX","city":"Maringues","cp":"63350","fuels":{"Gazole":{"p":2.235,"d":"2026-04-24"},"SP95":{"p":2.088,"d":"2026-04-28"},"E10":{"p":2.044,"d":"2026-04-30"}},"brand":"Auchan","h24":true,"services":["Laverie","Vente de gaz domestique (Butane, Propane)","Automate CB 24/24","DAB (Distributeur automatique de billets)"]},{"id":63790001,"lat":45.576,"lng":2.932,"addr":"Route du chambon","city":"MUROL","cp":"63790","fuels":{"Gazole":{"p":2.3,"d":"2026-04-28"},"SP95":{"p":2.2,"d":"2026-04-28"},"SP98":{"p":2.24,"d":"2026-04-28"}},"h24":true,"services":["Vente de fioul domestique","Station de gonflage","Services réparation / entretien","Vente de gaz domestique (Butane, Propane)","Automate CB 24/24","DAB (Distributeur automatique de billets)"]},{"id":63410001,"lat":45.957,"lng":2.989,"addr":"AIRE DE SERVICE DE MANZAT A89","city":"MANZAT","cp":"63410","fuels":{"Gazole":{"p":2.549,"d":"2026-04-30"},"E10":{"p":2.299,"d":"2026-04-30"},"SP98":{"p":2.399,"d":"2026-04-30"}},"brand":"Agip","services":["Toilettes publiques","Boutique alimentaire","Station de gonflage","Carburant additivé","Espace bébé"]},{"id":63230002,"lat":45.827,"lng":2.851,"addr":"18 Avenue de la Gare","city":"Pontgibaud","cp":"63230","fuels":{"Gazole":{"p":2.239,"d":"2026-04-27"},"E10":{"p":2.065,"d":"2026-04-27"},"SP98":{"p":2.209,"d":"2026-04-27"}},"brand":"Carrefour","h24":true,"services":["Relais colis","Vente de gaz domestique (Butane, Propane)","Automate CB 24/24"]},{"id":63300004,"lat":45.849,"lng":3.537,"addr":"Avenue Léo Lagrange","city":"THIERS","cp":"63300","fuels":{"Gazole":{"p":2.156,"d":"2026-04-30"},"E10":{"p":2.035,"d":"2026-04-30"},"SP98":{"p":2.08,"d":"2026-04-28"}},"brand":"Leclerc","h24":true,"services":["Carburant additivé","Vente de gaz domestique (Butane, Propane)","Automate CB 24/24"]},{"id":63480001,"lat":45.658844737921,"lng":3.6607632200469,"addr":"ZA LA DINASSE","city":"Marat","cp":"63480","fuels":{"Gazole":{"p":2.29,"d":"2026-04-28"},"SP95":{"p":2.03,"d":"2026-04-28"},"E85":{"p":0.826,"d":"2026-02-06"}},"h24":true,"services":["Automate CB 24/24"]},{"id":63430006,"lat":45.792,"lng":3.262,"addr":"24 Avenue de Lyon","city":"Pont-du-Château","cp":"63430","fuels":{"Gazole":{"p":2.189,"d":"2026-04-29"},"E85":{"p":0.902,"d":"2026-04-21"},"E10":{"p":2.049,"d":"2026-04-28"},"SP98":{"p":2.129,"d":"2026-04-28"}},"brand":"U","h24":true,"services":["Laverie","Relais colis","Restauration à emporter","Restauration sur place","Station de gonflage","Carburant additivé","Location de véhicule","Piste poids lourds","Vente de gaz domestique (Butane, Propane)","Bornes électriques","Vente d'additifs carburants","Automate CB 24/24","DAB (Distributeur automatique de billets)"]},{"id":63650001,"lat":45.868327222146,"lng":3.6328076412604,"addr":"RUE DE CHANTELAUZE","city":"La Monnerie-le-Montel","cp":"63650","fuels":{"Gazole":{"p":2.199,"d":"2026-04-30"},"E85":{"p":0.899,"d":"2026-04-27"},"E10":{"p":2.049,"d":"2026-04-30"},"SP98":{"p":2.199,"d":"2026-04-30"}},"brand":"Carrefour","h24":true,"services":["Toilettes publiques","Laverie","Boutique alimentaire","Boutique non alimentaire","Restauration à emporter","Station de gonflage","Lavage automatique","Vente de gaz domestique (Butane, Propane)","Automate CB 24/24"]},{"id":63120002,"lat":45.762,"lng":3.54,"addr":"54 AVENUE DE THIERS","city":"COURPIERE","cp":"63120","fuels":{"Gazole":{"p":2.199,"d":"2026-04-29"},"E85":{"p":0.819,"d":"2026-04-15"},"E10":{"p":1.998,"d":"2026-04-24"},"SP98":{"p":2.129,"d":"2026-04-27"}},"brand":"Intermarché","h24":true,"services":["Laverie","Boutique alimentaire","Boutique non alimentaire","Station de gonflage","Location de véhicule","Piste poids lourds","Vente de gaz domestique (Butane, Propane)","Automate CB 24/24"]},{"id":63670002,"lat":45.705,"lng":3.13,"addr":"LIEUDIT CHATEAUGAY","city":"LA ROCHE-BLANCHE","cp":"63670","fuels":{"Gazole":{"p":2.494,"d":"2026-04-27"},"SP95":{"p":2.09,"d":"2026-04-27"},"SP98":{"p":2.152,"d":"2026-04-27"}},"brand":"Intermarché","services":["Boutique non alimentaire","Station de gonflage","Lavage manuel","Vente de gaz domestique (Butane, Propane)"]},{"id":63160001,"lat":45.725,"lng":3.339,"addr":"Place Joseph Claussat","city":"BILLOM","cp":"63160","fuels":{"Gazole":{"p":2.178,"d":"2026-04-29"},"E10":{"p":1.993,"d":"2026-04-24"},"SP98":{"p":2.106,"d":"2026-04-24"}},"brand":"Auchan","h24":true,"services":["Vente de gaz domestique (Butane, Propane)","Automate CB 24/24","DAB (Distributeur automatique de billets)"]},{"id":63760001,"lat":45.648,"lng":2.56,"addr":"PACHER DE LA BESSE","city":"BOURG-LASTIC","cp":"63760","fuels":{"Gazole":{"p":2.143,"d":"2026-04-30"},"E85":{"p":0.818,"d":"2026-04-30"},"E10":{"p":1.994,"d":"2026-04-30"},"SP98":{"p":2.097,"d":"2026-04-30"}},"brand":"Intermarché","h24":true,"services":["Toilettes publiques","Laverie","Boutique alimentaire","Restauration à emporter","Vente de pétrole lampant","Aire de camping-cars","Piste poids lourds","Lavage automatique","Lavage manuel","Vente de gaz domestique (Butane, Propane)","Automate CB 24/24","DAB (Distributeur automatique de billets)"]},{"id":63720003,"lat":45.895437699432996,"lng":3.2116479040907997,"addr":"ROUTE DE RIOM","city":"Ennezat","cp":"63720","fuels":{"Gazole":{"p":2.159,"d":"2026-04-30"},"E10":{"p":2.032,"d":"2026-04-30"},"SP98":{"p":2.161,"d":"2026-04-30"}},"brand":"Intermarché","services":["Toilettes publiques","Laverie","Boutique alimentaire","Boutique non alimentaire","Restauration à emporter","Restauration sur place","Location de véhicule","Vente de gaz domestique (Butane, Propane)","DAB (Distributeur automatique de billets)"]},{"id":63100011,"lat":45.783551082855,"lng":3.12293899901,"addr":"Rue Nicolas Joseph Cugnot","city":"Clermont-Ferrand","cp":"63100","fuels":{"Gazole":{"p":2.155,"d":"2026-04-30"},"E85":{"p":0.818,"d":"2026-04-29"},"GPLc":{"p":0.979,"d":"2026-04-22"},"E10":{"p":1.989,"d":"2026-04-28"},"SP98":{"p":2.089,"d":"2026-04-28"}},"brand":"Intermarché","h24":true,"services":["Station de gonflage","Lavage automatique","Lavage manuel","Automate CB 24/24"]},{"id":63450004,"lat":45.685,"lng":3.143,"addr":"CD 213- LA PEIGNE","city":"LE CREST","cp":"63450","fuels":{"Gazole":{"p":2.09,"d":"2026-05-01"},"E10":{"p":1.99,"d":"2026-05-01"},"SP98":{"p":1.99,"d":"2026-05-01"}},"brand":"TotalEnergies","services":["Boutique alimentaire","Station de gonflage","Carburant additivé","Lavage automatique","Lavage manuel","Vente de gaz domestique (Butane, Propane)"]},{"id":63800005,"lat":45.72919,"lng":3.22201,"addr":"ROUTE DE COURNON","city":"Pérignat-sur-Allier","cp":"63800","fuels":{"Gazole":{"p":2.169,"d":"2026-04-28"},"E10":{"p":1.999,"d":"2026-04-23"},"SP98":{"p":2.139,"d":"2026-03-24"}},"brand":"Intermarché","services":["Station de gonflage","Lavage manuel","Vente de gaz domestique (Butane, Propane)","DAB (Distributeur automatique de billets)"]},{"id":63700004,"lat":46.16,"lng":2.838,"addr":"Rue Jean Moulin","city":"Saint-Éloy-les-Mines","cp":"63700","fuels":{"Gazole":{"p":2.179,"d":"2026-04-29"},"E10":{"p":1.989,"d":"2026-04-29"},"SP98":{"p":2.149,"d":"2026-04-27"}},"brand":"Carrefour","h24":true,"services":["Toilettes publiques","Relais colis","Restauration à emporter","Location de véhicule","Piste poids lourds","Lavage automatique","Lavage manuel","Automate CB 24/24"]},{"id":63800004,"lat":45.745,"lng":3.177,"addr":"Route de Clermont","city":"COURNON-D'AUVERGNE","cp":"63800","fuels":{"Gazole":{"p":2.09,"d":"2026-05-01"},"E10":{"p":1.99,"d":"2026-04-29"}},"brand":"TotalEnergies","h24":true,"services":["Toilettes publiques","Boutique alimentaire","Boutique non alimentaire","Vente de fioul domestique","Station de gonflage","Carburant additivé","Piste poids lourds","Lavage automatique","Vente de gaz domestique (Butane, Propane)","Bornes électriques","Vente d'additifs carburants","Automate CB 24/24"]},{"id":63120004,"lat":45.749,"lng":3.545,"addr":"6 ROUTE D'AMBERT","city":"COURPIERE","cp":"63120","fuels":{"Gazole":{"p":2.209,"d":"2026-04-23"},"SP95":{"p":1.989,"d":"2026-04-13"},"SP98":{"p":2.029,"d":"2026-04-13"}},"brand":"Pireyre Fuel","h24":true,"services":["Toilettes publiques","Relais colis","Piste poids lourds","Vente de gaz domestique (Butane, Propane)","Vente d'additifs carburants","Automate CB 24/24","DAB (Distributeur automatique de billets)"]},{"id":63960005,"lat":45.671,"lng":3.172,"addr":"16 CHEMIN DU CHARDONNET","city":"Veyre-Monton","cp":"63960","fuels":{"Gazole":{"p":2.199,"d":"2026-04-23"},"E85":{"p":0.839,"d":"2026-04-29"},"E10":{"p":1.999,"d":"2026-04-29"}},"brand":"Carrefour","h24":true,"services":["Relais colis","Boutique alimentaire","Station de gonflage","Lavage manuel","Vente de gaz domestique (Butane, Propane)","Automate CB 24/24"]},{"id":63160002,"lat":45.72408,"lng":3.33296,"addr":"Avenue de la République","city":"BILLOM","cp":"63160","fuels":{"Gazole":{"p":2.178,"d":"2026-04-24"},"E10":{"p":1.993,"d":"2026-04-24"},"SP98":{"p":2.106,"d":"2026-04-24"}},"brand":"Intermarché","services":["DAB (Distributeur automatique de billets)"]},{"id":63300002,"lat":45.855,"lng":3.508,"addr":"Z.i. le Felet","city":"THIERS","cp":"63300","fuels":{"Gazole":{"p":2.25,"d":"2026-04-22"},"E10":{"p":1.99,"d":"2026-04-22"}},"brand":"TotalEnergies","services":["Piste poids lourds"]},{"id":63360002,"lat":45.818,"lng":3.154,"addr":"FONTCHENILLE","city":"GERZAT","cp":"63360","fuels":{"Gazole":{"p":2.25,"d":"2026-04-27"},"E85":{"p":0.909,"d":"2026-04-27"},"E10":{"p":1.99,"d":"2026-04-28"}},"brand":"TotalEnergies","h24":true,"services":["Toilettes publiques","Boutique alimentaire","Boutique non alimentaire","Station de gonflage","Carburant additivé","Location de véhicule","Piste poids lourds","Lavage automatique","Lavage manuel","Services réparation / entretien","Vente d'additifs carburants","Automate CB 24/24"]},{"id":63350003,"lat":45.912,"lng":3.334,"addr":"Rond Point Sud-Route de Clermont Ferrand","city":"MARINGUES","cp":"63350","fuels":{"Gazole":{"p":2.218,"d":"2026-04-27"},"SP95":{"p":2.088,"d":"2026-04-27"},"E85":{"p":0.899,"d":"2026-04-27"},"E10":{"p":2.044,"d":"2026-04-28"},"SP98":{"p":2.148,"d":"2026-04-27"}},"brand":"Independent","h24":true,"services":["Boutique non alimentaire","Restauration à emporter","Vente de fioul domestique","Piste poids lourds","Lavage manuel","Services réparation / entretien","Vente de gaz domestique (Butane, Propane)","Bornes électriques","Vente d'additifs carburants","Automate CB 24/24"]},{"id":63300003,"lat":45.848,"lng":3.53,"addr":"52 Avenue Léo Lagrange","city":"THIERS","cp":"63300","fuels":{"Gazole":{"p":2.25,"d":"2026-04-15"}},"brand":"Elan","h24":true,"services":["Bornes électriques","Automate CB 24/24","DAB (Distributeur automatique de billets)"]},{"id":63730001,"lat":45.685,"lng":3.195,"addr":"Avenue du Commandant Berrier","city":"Les Martres-de-Veyre","cp":"63730","fuels":{"Gazole":{"p":2.168,"d":"2026-04-28"},"E85":{"p":0.819,"d":"2026-04-22"},"E10":{"p":1.989,"d":"2026-04-30"},"SP98":{"p":2.089,"d":"2026-04-30"}},"brand":"Auchan","h24":true,"services":["Vente de gaz domestique (Butane, Propane)","Automate CB 24/24","DAB (Distributeur automatique de billets)"]},{"id":63100007,"lat":45.78,"lng":3.136,"addr":"2 Rue Georges Besse","city":"CLERMONT-FERRAND","cp":"63100","fuels":{"Gazole":{"p":2.154,"d":"2026-04-30"},"SP95":{"p":2.082,"d":"2026-04-27"},"E85":{"p":0.818,"d":"2026-04-24"},"E10":{"p":2.046,"d":"2026-04-27"},"SP98":{"p":2.128,"d":"2026-04-28"}},"brand":"Leclerc","h24":true,"services":["Boutique alimentaire","Boutique non alimentaire","Restauration à emporter","Bar","Vente de pétrole lampant","Carburant additivé","Piste poids lourds","Vente de gaz domestique (Butane, Propane)","Automate CB 24/24","DAB (Distributeur automatique de billets)"]},{"id":63200001,"lat":45.878,"lng":3.117,"addr":"AVENUE DE CLERMONT","city":"MENETROL","cp":"63200","fuels":{"Gazole":{"p":2.156,"d":"2026-04-30"},"SP95":{"p":2.07,"d":"2026-04-30"},"E85":{"p":0.926,"d":"2026-04-30"},"GPLc":{"p":0.999,"d":"2026-04-28"},"E10":{"p":2.016,"d":"2026-04-30"},"SP98":{"p":2.161,"d":"2026-04-30"}},"brand":"Carrefour","h24":true,"services":["Piste poids lourds","Vente de gaz domestique (Butane, Propane)","Automate CB 24/24","DAB (Distributeur automatique de billets)"]},{"id":63200006,"lat":45.888,"lng":3.123,"addr":"RUE DU CREUX","city":"Riom","cp":"63200","fuels":{"Gazole":{"p":2.229,"d":"2026-04-30"},"E10":{"p":2.06,"d":"2026-04-30"},"SP98":{"p":2.2,"d":"2026-04-30"}},"brand":"Carrefour","h24":true,"services":["Laverie","Station de gonflage","Automate CB 24/24"]},{"id":63600003,"lat":45.55219,"lng":3.73976,"addr":"Avenue Georges Clemenceau","city":"AMBERT","cp":"63600","fuels":{"Gazole":{"p":2.09,"d":"2026-04-30"},"E10":{"p":1.99,"d":"2026-04-30"}},"brand":"Total Contact","services":["Toilettes publiques","Relais colis","Boutique alimentaire","Boutique non alimentaire","Vente de fioul domestique","Station de gonflage","Carburant additivé","Vente de gaz domestique (Butane, Propane)"]},{"id":63300005,"lat":45.843,"lng":3.517,"addr":"22 Avenue du Général de Gaulle","city":"Thiers","cp":"63300","fuels":{"Gazole":{"p":2.168,"d":"2026-04-24"},"E10":{"p":2.013,"d":"2026-04-30"},"SP98":{"p":2.134,"d":"2026-04-04"}},"brand":"Intermarché","h24":true,"services":["Toilettes publiques","Relais colis","Restauration à emporter","Station de gonflage","Location de véhicule","Piste poids lourds","Vente de gaz domestique (Butane, Propane)","Automate CB 24/24"]},{"id":63100003,"lat":45.813,"lng":3.109,"addr":"Boulevard Etienne Clementel","city":"CLERMONT-FERRAND","cp":"63100","fuels":{"GPLc":{"p":0.95,"d":"2025-03-20"}},"brand":"Auchan","h24":true,"services":["Toilettes publiques","Relais colis","Boutique alimentaire","Boutique non alimentaire","Restauration à emporter","Restauration sur place","Station de gonflage","Carburant additivé","Piste poids lourds","Bornes électriques","Automate CB 24/24","DAB (Distributeur automatique de billets)"]},{"id":63350002,"lat":45.919,"lng":3.33,"addr":"Route de Clermont-Ferrand","city":"MARINGUES","cp":"63350","fuels":{"E10":{"p":1.99,"d":"2026-04-30"},"SP98":{"p":1.99,"d":"2026-04-30"}},"brand":"TotalEnergies","h24":true,"services":["Boutique alimentaire","Boutique non alimentaire","Station de gonflage","Carburant additivé","Piste poids lourds","Lavage automatique","Lavage manuel","Automate CB 24/24"]},{"id":63110002,"lat":45.745,"lng":3.09,"addr":"rue des Frères Lumière","city":"BEAUMONT","cp":"63110","fuels":{"Gazole":{"p":2.179,"d":"2026-04-30"},"E10":{"p":1.99,"d":"2026-04-30"},"SP98":{"p":2.095,"d":"2026-04-30"}},"h24":true,"services":["Toilettes publiques","Boutique alimentaire","Automate CB 24/24","DAB (Distributeur automatique de billets)"]},{"id":63600002,"lat":45.531,"lng":3.728,"addr":"Route du Puy","city":"AMBERT","cp":"63600","fuels":{"Gazole":{"p":2.179,"d":"2026-04-24"},"E85":{"p":0.819,"d":"2026-04-15"},"E10":{"p":1.999,"d":"2026-04-27"},"SP98":{"p":2.109,"d":"2026-04-22"}},"brand":"Intermarché","h24":true,"services":["Toilettes publiques","Boutique alimentaire","Vente de pétrole lampant","Station de gonflage","Carburant additivé","Location de véhicule","Piste poids lourds","Vente de gaz domestique (Butane, Propane)","Bornes électriques","Vente d'additifs carburants","Wifi","Automate CB 24/24"]},{"id":63340001,"lat":45.459,"lng":3.254,"addr":"ZAC Des Coustilles","city":"Saint-Germain-Lembron","cp":"63340","fuels":{"Gazole":{"p":2.189,"d":"2026-04-30"},"E85":{"p":0.829,"d":"2026-04-17"},"E10":{"p":2.029,"d":"2026-04-30"},"SP98":{"p":2.129,"d":"2026-04-27"}},"brand":"Système U","services":["Laverie","Station de gonflage","Carburant additivé","Location de véhicule","Piste poids lourds","Lavage automatique","Lavage manuel","Vente de gaz domestique (Butane, Propane)"]},{"id":63000026,"lat":45.76,"lng":3.094,"addr":"8 BOULEVARD WINSTON CHURCHILL","city":"Clermont-Ferrand","cp":"63000","fuels":{"Gazole":{"p":2.09,"d":"2026-05-01"},"E85":{"p":0.854,"d":"2026-05-01"}},"brand":"TotalEnergies","services":["Relais colis","Boutique alimentaire","Station de gonflage","Lavage automatique","Vente de gaz domestique (Butane, Propane)"]},{"id":63170001,"lat":45.754,"lng":3.13,"addr":"Route d'Issoire","city":"AUBIèRE","cp":"63170","fuels":{"Gazole":{"p":2.159,"d":"2026-04-30"},"SP95":{"p":2.082,"d":"2026-04-27"},"GPLc":{"p":0.981,"d":"2026-04-24"},"E10":{"p":2.049,"d":"2026-04-27"},"SP98":{"p":2.129,"d":"2026-04-28"}},"brand":"Auchan","h24":true,"services":["Station de gonflage","Carburant additivé","Vente de gaz domestique (Butane, Propane)","Automate CB 24/24","DAB (Distributeur automatique de billets)"]},{"id":63000009,"lat":45.764,"lng":3.127,"addr":"153 BD GUSTAVE FLAUBERT","city":"Clermont-Ferrand","cp":"63000","fuels":{"Gazole":{"p":2.163,"d":"2026-04-30"},"E10":{"p":2.055,"d":"2026-04-30"},"SP98":{"p":2.137,"d":"2026-04-30"}},"brand":"Esso"},{"id":63000007,"lat":45.766,"lng":3.105,"addr":"21 BOULEVARD POCHET LAGAYE","city":"Clermont-Ferrand","cp":"63000","fuels":{"Gazole":{"p":2.163,"d":"2026-04-30"},"E10":{"p":2.055,"d":"2026-04-30"},"SP98":{"p":2.137,"d":"2026-04-30"}},"brand":"Esso"},{"id":63000008,"lat":45.788,"lng":3.058,"addr":"AV DU PUY DE DOME","city":"Clermont-Ferrand","cp":"63100","fuels":{"Gazole":{"p":2.208,"d":"2026-05-01"},"E85":{"p":1.019,"d":"2026-05-01"},"E10":{"p":2.028,"d":"2026-05-01"},"SP98":{"p":2.154,"d":"2026-05-01"}},"brand":"Esso"},{"id":63000019,"lat":45.771719000000004,"lng":3.0809979999999997,"addr":"2 Avenue Marx Dormoy","city":"CLERMONT-FERRAND","cp":"63000","fuels":{"Gazole":{"p":2.32,"d":"2026-04-30"},"E10":{"p":2.14,"d":"2026-04-30"},"SP98":{"p":2.24,"d":"2026-04-30"}},"brand":"Agip","h24":true,"services":["Laverie","Relais colis","Boutique alimentaire","Boutique non alimentaire","Restauration à emporter","Station de gonflage","Carburant additivé","Lavage manuel","Vente de gaz domestique (Butane, Propane)","Bornes électriques","Vente d'additifs carburants","Automate CB 24/24","DAB (Distributeur automatique de billets)"]},{"id":63200004,"lat":45.9,"lng":3.117,"addr":"31 Avenue de Paris","city":"Riom","cp":"63200","fuels":{"Gazole":{"p":2.168,"d":"2026-04-30"},"E10":{"p":2.041,"d":"2026-04-30"},"SP98":{"p":2.17,"d":"2026-04-30"}},"brand":"Esso"},{"id":63000025,"lat":45.782946042176,"lng":3.0738818241095003,"addr":"140 BLD LAVOISIER","city":"Clermont-Ferrand","cp":"63000","fuels":{"Gazole":{"p":2.09,"d":"2026-05-01"},"E10":{"p":1.99,"d":"2026-05-01"}},"brand":"TotalEnergies","services":["Boutique alimentaire","Station de gonflage","Carburant additivé","Lavage automatique","DAB (Distributeur automatique de billets)"]},{"id":63220001,"lat":45.414,"lng":3.725,"addr":"route de beurriéres","city":"ARLANC","cp":"63220","fuels":{"Gazole":{"p":2.229,"d":"2026-04-30"},"SP95":{"p":2.059,"d":"2026-04-30"},"E85":{"p":0.819,"d":"2026-04-30"},"SP98":{"p":2.119,"d":"2026-04-30"}},"brand":"Système U","h24":true,"services":["Toilettes publiques","Laverie","Boutique alimentaire","Boutique non alimentaire","Restauration à emporter","Restauration sur place","Vente de pétrole lampant","Station de gonflage","Location de véhicule","Piste poids lourds","Lavage automatique","Lavage manuel","Vente de gaz domestique (Butane, Propane)","Automate CB 24/24"]},{"id":63190009,"lat":45.826,"lng":3.368,"addr":"ROUTE DE CLERMONT FERRAND,LA CROIX CHADEYRAS","city":"LEZOUX","cp":"63190","fuels":{"Gazole":{"p":2.199,"d":"2026-04-30"},"SP95":{"p":2.099,"d":"2026-04-27"},"E85":{"p":0.899,"d":"2026-04-27"},"E10":{"p":2.043,"d":"2026-04-28"},"SP98":{"p":2.148,"d":"2026-04-27"}},"brand":"Sas Larzat et Meyronne Lezoux","h24":true,"services":["Piste poids lourds","Automate CB 24/24"]},{"id":63122002,"lat":45.746,"lng":3.059,"addr":"Avenue de Royat","city":"CEYRAT","cp":"63122","fuels":{"Gazole":{"p":2.179,"d":"2026-04-29"},"E85":{"p":0.818,"d":"2026-04-29"},"E10":{"p":1.99,"d":"2026-04-29"},"SP98":{"p":2.095,"d":"2026-04-29"}},"brand":"Intermarché","services":["Toilettes publiques","Relais colis","Boutique alimentaire","Boutique non alimentaire","Restauration à emporter","Restauration sur place","Bar","Location de véhicule","Vente de gaz domestique (Butane, Propane)","DAB (Distributeur automatique de billets)"]},{"id":63960002,"lat":45.661,"lng":3.153,"addr":"A75","city":"Veyre-Monton","cp":"63960","fuels":{"Gazole":{"p":2.339,"d":"2026-04-25"},"E85":{"p":1.055,"d":"2026-04-25"},"GPLc":{"p":1.13,"d":"2026-04-25"},"E10":{"p":2.119,"d":"2026-04-25"},"SP98":{"p":2.199,"d":"2026-04-25"}},"brand":"Avia","services":["Toilettes publiques","Douches","Boutique alimentaire","Boutique non alimentaire","Restauration à emporter","Restauration sur place","Bar","Station de gonflage","Carburant additivé","Piste poids lourds","Espace bébé"]},{"id":63500008,"lat":45.543752035413,"lng":3.2324909729359996,"addr":"488 route de Perrier","city":"Issoire","cp":"63500","fuels":{"Gazole":{"p":2.179,"d":"2026-04-30"},"SP95":{"p":2.099,"d":"2026-04-03"},"E10":{"p":1.989,"d":"2026-04-27"},"SP98":{"p":2.129,"d":"2026-04-27"}},"brand":"Intermarché","services":["Station de gonflage","Carburant additivé","Aire de camping-cars","Location de véhicule","Piste poids lourds","DAB (Distributeur automatique de billets)"]},{"id":63370001,"lat":45.777,"lng":3.197,"addr":"26 Avenue de l Europe","city":"LEMPDES","cp":"63370","fuels":{"Gazole":{"p":2.155,"d":"2026-04-30"},"SP95":{"p":2.083,"d":"2026-04-27"},"E85":{"p":0.818,"d":"2026-04-28"},"GPLc":{"p":1.082,"d":"2026-04-24"},"E10":{"p":2.047,"d":"2026-04-27"}},"brand":"Cora","h24":true,"services":["Restauration à emporter","Restauration sur place","Toilettes publiques","Bar","Boutique alimentaire","Station de gonflage","Espace bébé","Boutique non alimentaire","Services réparation / entretien","Laverie","Vente de gaz domestique (Butane, Propane)","Location de véhicule","Relais colis","DAB (Distributeur automatique de billets)","Lavage automatique","Wifi","Automate CB 24/24"]},{"id":63800002,"lat":45.731430070887,"lng":3.19576411256,"addr":"AVENUE DES DOMES","city":"Cournon-d'Auvergne","cp":"63800","fuels":{"Gazole":{"p":2.179,"d":"2026-04-30"},"E10":{"p":1.999,"d":"2026-04-30"}},"brand":"Auchan","h24":true,"services":["Boutique alimentaire","Carburant additivé","Vente de gaz domestique (Butane, Propane)","Automate CB 24/24","DAB (Distributeur automatique de billets)"]},{"id":63300007,"lat":45.842,"lng":3.515,"addr":"38 avenue du Général de Gaulle","city":"THIERS","cp":"63300","fuels":{"Gazole":{"p":2.209,"d":"2026-04-23"},"SP95":{"p":1.989,"d":"2026-04-13"},"GPLc":{"p":1.179,"d":"2026-04-08"},"SP98":{"p":2.029,"d":"2026-04-13"}},"h24":true,"services":["Relais colis","Vente de fioul domestique","Carburant additivé","Piste poids lourds","Vente de gaz domestique (Butane, Propane)","Vente d'additifs carburants","Automate CB 24/24"]},{"id":63440003,"lat":46.058707223,"lng":3.11405330762,"addr":"AUTOROUTE A71 - AIRE DES VOLCANS D'AUVERGNE","city":"CHAMPS","cp":"63440","fuels":{"Gazole":{"p":2.09,"d":"2026-05-01"},"E85":{"p":0.999,"d":"2026-05-01"},"GPLc":{"p":1.119,"d":"2026-05-01"},"E10":{"p":1.99,"d":"2026-05-01"}},"brand":"TotalEnergies","services":["Toilettes publiques","Boutique alimentaire","Boutique non alimentaire","Station de gonflage","Carburant additivé","Piste poids lourds"]},{"id":63570003,"lat":45.414,"lng":3.32,"addr":"2 Rue des saraillères","city":"Brassac-les-Mines","cp":"63570","fuels":{"Gazole":{"p":2.179,"d":"2026-04-30"},"E10":{"p":1.999,"d":"2026-04-27"},"SP98":{"p":2.109,"d":"2026-04-27"}},"brand":"Intermarché","services":["Vente de fioul domestique","Piste poids lourds","Vente de gaz domestique (Butane, Propane)","DAB (Distributeur automatique de billets)"]},{"id":63112001,"lat":45.825,"lng":3.073,"addr":"ZA la Fontaine","city":"BLANZAT","cp":"63112","fuels":{"Gazole":{"p":2.169,"d":"2026-04-30"},"E85":{"p":0.819,"d":"2026-04-17"},"E10":{"p":2.019,"d":"2026-04-27"},"SP98":{"p":2.129,"d":"2026-04-27"}},"brand":"Intermarché","h24":true,"services":["Boutique alimentaire","Boutique non alimentaire","Vente de gaz domestique (Butane, Propane)","Automate CB 24/24"]},{"id":63150002,"lat":45.594,"lng":2.762,"addr":"230 AV DU MARECHAL LECLERC","city":"MURAT-LE-QUAIRE","cp":"63150","fuels":{"Gazole":{"p":2.199,"d":"2026-04-29"},"E85":{"p":0.819,"d":"2026-04-29"},"E10":{"p":2.029,"d":"2026-04-29"},"SP98":{"p":2.129,"d":"2026-04-29"}},"brand":"Intermarché","h24":true,"services":["Laverie","Boutique alimentaire","Vente de pétrole lampant","Aire de camping-cars","Location de véhicule","Lavage manuel","Vente de gaz domestique (Butane, Propane)","Wifi","Automate CB 24/24"]},{"id":63000023,"lat":45.80662,"lng":3.10943,"addr":"108 BLD ETIENNE CLEMENTEL","city":"Clermont-Ferrand","cp":"63000","fuels":{"Gazole":{"p":2.09,"d":"2026-05-01"},"E10":{"p":1.99,"d":"2026-05-01"}},"brand":"TotalEnergies","services":["Boutique alimentaire","Boutique non alimentaire","Station de gonflage","Carburant additivé","Lavage automatique","Vente de gaz domestique (Butane, Propane)"]},{"id":63140002,"lat":45.91853,"lng":3.073,"addr":"3 Route de Riom","city":"Châtel-Guyon","cp":"63140","fuels":{"Gazole":{"p":2.209,"d":"2026-04-23"},"SP95":{"p":2.039,"d":"2026-04-23"},"E85":{"p":0.824,"d":"2026-04-23"}},"brand":"Carrefour","services":["Boutique alimentaire","Boutique non alimentaire","Vente de gaz domestique (Butane, Propane)"]},{"id":63850001,"lat":45.408,"lng":2.827,"addr":"ROUTE DE BESSE","city":"Égliseneuve-d'Entraigues","cp":"63850","fuels":{"Gazole":{"p":2.239,"d":"2026-04-24"},"SP95":{"p":2.099,"d":"2026-04-20"}},"services":["Piste poids lourds","DAB (Distributeur automatique de billets)"]},{"id":63610001,"lat":45.509795444645,"lng":2.93548599036,"addr":"Route de Compains","city":"Besse-et-Saint-Anastaise","cp":"63610","fuels":{"Gazole":{"p":2.21,"d":"2026-04-25"},"E85":{"p":0.829,"d":"2026-04-20"},"E10":{"p":2.02,"d":"2026-04-25"},"SP98":{"p":2.139,"d":"2026-04-25"}},"brand":"Auchan","h24":true,"services":["Vente de gaz domestique (Butane, Propane)","Automate CB 24/24","DAB (Distributeur automatique de billets)"]},{"id":63260003,"lat":46.01,"lng":3.197,"addr":"ZAC De Juilhat","city":"Aigueperse","cp":"63260","fuels":{"Gazole":{"p":2.199,"d":"2026-04-27"},"E10":{"p":2.045,"d":"2026-04-27"},"SP98":{"p":2.185,"d":"2026-04-27"}},"brand":"Carrefour","h24":true,"services":["Relais colis","Station de gonflage","Piste poids lourds","Vente de gaz domestique (Butane, Propane)","Automate CB 24/24"]},{"id":63170008,"lat":45.755,"lng":3.13,"addr":"10 AV. DU ROUSSILLON","city":"AUBIERE","cp":"63170","fuels":{"Gazole":{"p":2.09,"d":"2026-05-01"},"E85":{"p":0.864,"d":"2026-05-01"}},"brand":"TotalEnergies","services":["Boutique alimentaire","Boutique non alimentaire","Station de gonflage","Carburant additivé","Piste poids lourds","Lavage automatique","Vente de gaz domestique (Butane, Propane)","Bornes électriques"]},{"id":63300001,"lat":45.839,"lng":3.51,"addr":"rue François Truffaut","city":"Thiers","cp":"63300","fuels":{"Gazole":{"p":2.157,"d":"2026-04-29"},"SP95":{"p":2.112,"d":"2026-04-29"},"E10":{"p":2.013,"d":"2026-04-29"},"SP98":{"p":2.17,"d":"2026-04-29"}},"brand":"Carrefour","h24":true,"services":["Station de gonflage","Piste poids lourds","Vente de gaz domestique (Butane, Propane)","Wifi","Automate CB 24/24","DAB (Distributeur automatique de billets)"]},{"id":63320001,"lat":45.59,"lng":3.121,"addr":"ROUTE DE MONTAIGUT LE BLANC","city":"CHAMPEIX","cp":"63320","fuels":{"Gazole":{"p":2.2,"d":"2026-04-25"},"E10":{"p":2.01,"d":"2026-04-25"},"SP98":{"p":2.129,"d":"2026-04-25"}},"brand":"Intermarché","h24":true,"services":["Boutique alimentaire","Boutique non alimentaire","Piste poids lourds","Vente de gaz domestique (Butane, Propane)","Automate CB 24/24"]},{"id":63780001,"lat":45.94,"lng":2.837,"addr":"D19 CHAMPS GRELIERE","city":"Saint-Georges-de-Mons","cp":"63780","fuels":{"Gazole":{"p":2.189,"d":"2026-04-30"},"E85":{"p":0.818,"d":"2026-04-30"},"E10":{"p":2.029,"d":"2026-04-30"},"SP98":{"p":2.159,"d":"2026-04-30"}},"h24":true,"services":["Toilettes publiques","Laverie","Relais colis","Boutique alimentaire","Vente de pétrole lampant","Station de gonflage","Carburant additivé","Piste poids lourds","Lavage manuel","Vente de gaz domestique (Butane, Propane)","Bornes électriques","Vente d'additifs carburants","Wifi","Automate CB 24/24"]},{"id":63360001,"lat":45.81675,"lng":3.15286,"addr":"ALLEE DE FONCHENILLE","city":"Gerzat","cp":"63360","fuels":{"Gazole":{"p":2.168,"d":"2026-04-27"},"SP95":{"p":2.082,"d":"2026-04-27"},"E10":{"p":2.046,"d":"2026-04-27"},"SP98":{"p":2.166,"d":"2026-04-27"}},"brand":"Carrefour","services":["Vente de gaz domestique (Butane, Propane)","DAB (Distributeur automatique de billets)"]},{"id":63500002,"lat":45.552,"lng":3.268,"addr":"RUE JEAN BIGOT","city":"ISSOIRE","cp":"63500","fuels":{"Gazole":{"p":2.199,"d":"2026-04-30"},"E85":{"p":0.829,"d":"2026-04-18"},"E10":{"p":2.029,"d":"2026-04-30"},"SP98":{"p":2.129,"d":"2026-04-29"}},"brand":"Carrefour","h24":true,"services":["Toilettes publiques","Laverie","Relais colis","Location de véhicule","Lavage automatique","Lavage manuel","Espace bébé","Vente de gaz domestique (Butane, Propane)","Wifi","Automate CB 24/24","DAB (Distributeur automatique de billets)"]},{"id":63660001,"lat":45.523,"lng":3.911,"addr":"Route d'Ambert","city":"Saint-Anthème","cp":"63660","fuels":{"Gazole":{"p":2.287,"d":"2026-04-29"},"SP95":{"p":2.137,"d":"2026-04-29"},"E85":{"p":0.953,"d":"2026-04-17"}},"h24":true,"services":["Lavage manuel","Automate CB 24/24"]},{"id":63290001,"lat":45.955,"lng":3.478,"addr":"31 avenue E. Vaillant","city":"PUY-GUILLAUME","cp":"63290","fuels":{"Gazole":{"p":2.25,"d":"2026-04-22"},"E10":{"p":1.99,"d":"2026-04-18"},"SP98":{"p":1.99,"d":"2026-04-18"}},"brand":"TotalEnergies","h24":true,"services":["Toilettes publiques","Boutique non alimentaire","Station de gonflage","Carburant additivé","Piste poids lourds","Lavage manuel","Vente de gaz domestique (Butane, Propane)","Vente d'additifs carburants","Automate CB 24/24"]},{"id":63700006,"lat":46.184,"lng":2.802,"addr":"1 AVENUE DU BOURBONNAIS","city":"MONTAIGUT EN COMBRAILLES","cp":"63700","fuels":{"Gazole":{"p":2.09,"d":"2026-05-01"},"E10":{"p":1.99,"d":"2026-05-01"}},"brand":"TotalEnergies","h24":true,"services":["Douches","Relais colis","Boutique alimentaire","Boutique non alimentaire","Bar","Carburant additivé","Piste poids lourds","Vente de gaz domestique (Butane, Propane)","Vente d'additifs carburants","Automate CB 24/24"]},{"id":63250001,"lat":45.8790132,"lng":3.6923149,"addr":"24 ROUTE DE CLERMONT","city":"Chabreloche","cp":"63250","fuels":{"Gazole":{"p":2.529,"d":"2026-04-08"},"E10":{"p":2.078,"d":"2026-04-08"}}},{"id":63460003,"lat":45.984,"lng":3.087,"addr":"131 Avenue Étienne Clémentel","city":"COMBRONDE","cp":"63460","fuels":{"Gazole":{"p":2.156,"d":"2026-04-30"},"E85":{"p":0.818,"d":"2026-04-23"},"E10":{"p":2.016,"d":"2026-04-30"},"SP98":{"p":2.161,"d":"2026-04-30"}},"brand":"Intermarché","h24":true,"services":["Laverie","Station de gonflage","Location de véhicule","Lavage automatique","Lavage manuel","Vente de gaz domestique (Butane, Propane)","Bornes électriques","Wifi","Automate CB 24/24"]},{"id":63150001,"lat":45.591,"lng":2.758,"addr":"BOULEVARD DES VERNIERES","city":"LA BOURBOULE","cp":"63150","fuels":{"Gazole":{"p":2.209,"d":"2026-04-29"},"E85":{"p":0.819,"d":"2026-04-29"},"E10":{"p":2.039,"d":"2026-04-29"},"SP98":{"p":2.139,"d":"2026-04-29"}},"brand":"Auchan","services":["Vente de gaz domestique (Butane, Propane)","DAB (Distributeur automatique de billets)"]},{"id":63120003,"lat":45.759,"lng":3.542,"addr":"22 AVENUE JEAN JAURES","city":"COURPIERE","cp":"63120","fuels":{"Gazole":{"p":2.209,"d":"2026-04-24"},"SP95":{"p":2.039,"d":"2026-04-24"},"E85":{"p":0.819,"d":"2026-04-24"},"SP98":{"p":2.079,"d":"2026-04-24"}},"h24":true,"services":["Toilettes publiques","Relais colis","Boutique alimentaire","Boutique non alimentaire","Restauration à emporter","Vente de fioul domestique","Station de gonflage","Piste poids lourds","Vente de gaz domestique (Butane, Propane)","Vente d'additifs carburants","Automate CB 24/24"]},{"id":63210003,"lat":45.685,"lng":2.796,"addr":"Route d'Herment","city":"Rochefort-Montagne","cp":"63210","fuels":{"Gazole":{"p":2.25,"d":"2026-04-25"},"E85":{"p":0.849,"d":"2026-04-25"},"E10":{"p":1.99,"d":"2026-04-25"}},"brand":"Carrefour","h24":true,"services":["Laverie","Relais colis","Boutique alimentaire","Location de véhicule","Vente de gaz domestique (Butane, Propane)","Automate CB 24/24"]},{"id":63000015,"lat":45.76198599999999,"lng":3.12696,"addr":"Boulevard Gustave Flaubert","city":"CLERMONT-FERRAND","cp":"63000","fuels":{"Gazole":{"p":2.154,"d":"2026-04-30"},"SP95":{"p":2.082,"d":"2026-04-27"},"E85":{"p":0.818,"d":"2026-04-24"},"GPLc":{"p":0.979,"d":"2026-04-22"},"E10":{"p":2.046,"d":"2026-04-27"},"SP98":{"p":2.128,"d":"2026-04-28"}},"brand":"Leclerc","services":["Vente de fioul domestique","Station de gonflage","Carburant additivé","Vente de gaz domestique (Butane, Propane)","DAB (Distributeur automatique de billets)"]},{"id":63430002,"lat":45.788,"lng":3.268,"addr":"64 AVENUE DE LYON","city":"Pont-du-Château","cp":"63430","fuels":{"Gazole":{"p":2.25,"d":"2026-04-30"},"E85":{"p":0.919,"d":"2026-04-30"},"E10":{"p":1.99,"d":"2026-04-30"}},"brand":"TotalEnergies","services":["Boutique non alimentaire","Station de gonflage","Location de véhicule","Lavage automatique","Lavage manuel","Services réparation / entretien"]},{"id":63390001,"lat":46.0307872738,"lng":2.82101927933,"addr":"RUE DE L`EGALITE","city":"SAINT-GERVAIS-D'AUVERGNE","cp":"63390","fuels":{"Gazole":{"p":2.189,"d":"2026-04-24"},"SP95":{"p":2.089,"d":"2026-04-24"},"SP98":{"p":2.179,"d":"2026-04-24"}},"brand":"Carrefour","services":["Toilettes publiques","Douches","Laverie","Relais colis","Boutique alimentaire","Boutique non alimentaire","Restauration à emporter","Restauration sur place","Aire de camping-cars","Piste poids lourds","Lavage manuel","Vente de gaz domestique (Butane, Propane)","DAB (Distributeur automatique de billets)"]},{"id":63700007,"lat":46.161214900000004,"lng":2.8351164,"addr":"2 route de Clermont Ferrand","city":"St Eloy les Mines","cp":"63700","fuels":{"Gazole":{"p":2.25,"d":"2026-04-23"}},"brand":"TotalEnergies","h24":true,"services":["Toilettes publiques","Boutique alimentaire","Boutique non alimentaire","Carburant additivé","Automate CB 24/24"]},{"id":63620001,"lat":45.80467,"lng":2.47016,"addr":"ROUTE DE SAINT AVIT","city":"Giat","cp":"63620","fuels":{"Gazole":{"p":2.269,"d":"2026-04-29"},"E10":{"p":2.129,"d":"2026-04-29"},"SP98":{"p":2.229,"d":"2026-04-29"}},"brand":"8 à Huit","services":["DAB (Distributeur automatique de billets)"]},{"id":63000024,"lat":45.788,"lng":3.057,"addr":"AVENUE DU PUY DE DOME","city":"Clermont-Ferrand","cp":"63000","fuels":{"Gazole":{"p":2.09,"d":"2026-05-01"}},"brand":"TotalEnergies","h24":true,"services":["Relais colis","Boutique alimentaire","Station de gonflage","Carburant additivé","Lavage automatique","Vente de gaz domestique (Butane, Propane)","Vente d'additifs carburants","Wifi","Automate CB 24/24"]},{"id":63540002,"lat":45.737,"lng":3.099,"addr":"32 AVENUE JEAN JAURES / Route De Beaumont","city":"Romagnat","cp":"63540","fuels":{"Gazole":{"p":2.09,"d":"2026-04-30"},"E10":{"p":1.99,"d":"2026-04-30"}},"brand":"Total Excellium","h24":true,"services":["Piste poids lourds","Lavage automatique","Vente d'additifs carburants","Automate CB 24/24"]},{"id":63200002,"lat":45.884,"lng":3.115,"addr":"37, avenue de Clermont Ferrand","city":"RIOM","cp":"63200","fuels":{"Gazole":{"p":2.25,"d":"2026-04-28"}},"brand":"TotalEnergies","h24":true,"services":["Boutique alimentaire","Boutique non alimentaire","Carburant additivé","Vente de gaz domestique (Butane, Propane)","Automate CB 24/24"]},{"id":63118001,"lat":45.836,"lng":3.095,"addr":"Route de Châteaugay","city":"CéBAZAT","cp":"63118","fuels":{"Gazole":{"p":2.179,"d":"2026-04-29"},"E10":{"p":2.019,"d":"2026-04-29"},"SP98":{"p":2.129,"d":"2026-04-29"}},"brand":"Auchan","services":["Vente de gaz domestique (Butane, Propane)"]},{"id":63330002,"lat":46.111,"lng":2.698,"addr":"Route Lafayette","city":"Pionsat","cp":"63330","fuels":{"Gazole":{"p":2.189,"d":"2026-04-28"},"E10":{"p":2.019,"d":"2026-04-28"},"SP98":{"p":2.129,"d":"2026-04-28"}},"brand":"Intermarché","h24":true,"services":["Toilettes publiques","Laverie","Relais colis","Boutique alimentaire","Station de gonflage","Location de véhicule","Lavage manuel","Vente de gaz domestique (Butane, Propane)","Bornes électriques","Wifi","Automate CB 24/24"]},{"id":63400001,"lat":45.775,"lng":3.064,"addr":"77 AV DE ROYAT","city":"Chamalières","cp":"63400","fuels":{"Gazole":{"p":2.208,"d":"2026-04-28"},"E10":{"p":2.028,"d":"2026-04-28"},"SP98":{"p":2.154,"d":"2026-04-28"}},"brand":"Esso"},{"id":63940001,"lat":45.48106,"lng":3.72648,"addr":"19 Avenue du Livradois","city":"Marsac-en-Livradois","cp":"63940","fuels":{"Gazole":{"p":2.09,"d":"2026-04-30"},"E10":{"p":1.99,"d":"2026-04-30"},"SP98":{"p":1.99,"d":"2026-04-30"}},"brand":"Total Contact","services":["Toilettes publiques","Boutique non alimentaire","Vente de fioul domestique","Station de gonflage","Carburant additivé","Location de véhicule","Piste poids lourds","Lavage manuel","Vente de gaz domestique (Butane, Propane)"]},{"id":63310002,"lat":46.017,"lng":3.349,"addr":"Place des Charmes","city":"RANDAN","cp":"63310","fuels":{"Gazole":{"p":2.188,"d":"2026-04-30"},"E85":{"p":0.818,"d":"2026-04-20"},"E10":{"p":2.044,"d":"2026-04-30"},"SP98":{"p":2.148,"d":"2026-04-30"}},"brand":"Intermarché","h24":true,"services":["Toilettes publiques","Laverie","Relais colis","Restauration à emporter","Vente de pétrole lampant","Station de gonflage","Piste poids lourds","Lavage automatique","Lavage manuel","Vente de gaz domestique (Butane, Propane)","Bornes électriques","Wifi","Automate CB 24/24","DAB (Distributeur automatique de billets)"]},{"id":63190011,"lat":45.851,"lng":3.405,"addr":"AUTOROUTE A89 - AIRE LIMAGNE SUD","city":"ORLEAT","cp":"63190","fuels":{"Gazole":{"p":2.09,"d":"2026-05-01"},"E85":{"p":0.999,"d":"2026-05-01"},"E10":{"p":1.99,"d":"2026-05-01"},"SP98":{"p":1.99,"d":"2026-05-01"}},"brand":"TotalEnergies"},{"id":63230001,"lat":45.841,"lng":2.759,"addr":"6 AVENUE DES VOLCANS - D941","city":"LA GOUTELLE","cp":"63230","fuels":{"Gazole":{"p":2.09,"d":"2026-05-01"},"E10":{"p":1.99,"d":"2026-04-29"},"SP98":{"p":1.99,"d":"2026-04-29"}},"brand":"TotalEnergies","h24":true,"services":["Toilettes publiques","Boutique alimentaire","Restauration à emporter","Restauration sur place","Bar","Station de gonflage","Carburant additivé","Vente de gaz domestique (Butane, Propane)","Automate CB 24/24"]},{"id":63210002,"lat":45.687,"lng":2.805,"addr":"RTE N 89","city":"Rochefort-Montagne","cp":"63210","fuels":{"Gazole":{"p":2.285,"d":"2026-04-28"},"SP95":{"p":2.215,"d":"2026-04-28"},"SP98":{"p":2.235,"d":"2026-04-28"}},"brand":"Avia","h24":true,"services":["Toilettes publiques","Relais colis","Boutique alimentaire","Station de gonflage","Carburant additivé","Lavage manuel","Services réparation / entretien","Vente de gaz domestique (Butane, Propane)","Vente d'additifs carburants","Automate CB 24/24"]},{"id":63240001,"lat":45.576,"lng":2.804,"addr":"5 Boulevard Mirabeau","city":"MONT-DORE","cp":"63240","fuels":{"Gazole":{"p":2.25,"d":"2026-04-29"},"E10":{"p":1.99,"d":"2026-04-29"},"SP98":{"p":1.99,"d":"2026-04-29"}},"brand":"TotalEnergies","h24":true,"services":["Boutique non alimentaire","Station de gonflage","Carburant additivé","Location de véhicule","Piste poids lourds","Lavage automatique","Lavage manuel","Services réparation / entretien","Vente de gaz domestique (Butane, Propane)","Automate CB 24/24"]},{"id":63000001,"lat":45.773,"lng":3.096,"addr":"60 Boulevard Lafayette","city":"CLERMONT-FERRAND","cp":"63000","fuels":{"Gazole":{"p":2.09,"d":"2026-05-01"},"E85":{"p":0.949,"d":"2026-05-01"},"E10":{"p":1.99,"d":"2026-05-01"},"SP98":{"p":1.99,"d":"2026-05-01"}},"brand":"TotalEnergies","h24":true,"services":["Boutique alimentaire","Boutique non alimentaire","Station de gonflage","Carburant additivé","Lavage automatique","Services réparation / entretien","Vente de gaz domestique (Butane, Propane)","Bornes électriques","Automate CB 24/24"]},{"id":63000022,"lat":45.789,"lng":3.118,"addr":"24 BOULEVARD AMBROISE BRUGIERE","city":"CLERMONT FERRAND","cp":"63000","fuels":{"Gazole":{"p":2.09,"d":"2026-05-01"},"E10":{"p":1.99,"d":"2026-05-01"}},"brand":"TotalEnergies","services":["Boutique alimentaire","Boutique non alimentaire","Station de gonflage","Carburant additivé","Piste poids lourds","Lavage automatique","Vente de gaz domestique (Butane, Propane)","Wifi"]},{"id":63410004,"lat":45.9629287,"lng":2.9490673,"addr":"ROUTE DE RIOM","city":"MANZAT","cp":"63410","fuels":{"SP95":{"p":1.99,"d":"2026-05-01"},"E10":{"p":1.99,"d":"2026-05-01"}},"brand":"TotalEnergies","h24":true,"services":["Boutique non alimentaire","Station de gonflage","Carburant additivé","Services réparation / entretien","Vente de gaz domestique (Butane, Propane)","Vente d'additifs carburants","Automate CB 24/24"]},{"id":63670001,"lat":45.726,"lng":3.188,"addr":"Rue Jean Mermoz","city":"LE CENDRE","cp":"63670","fuels":{"Gazole":{"p":2.149,"d":"2026-04-30"},"E85":{"p":0.819,"d":"2026-04-16"},"E10":{"p":1.989,"d":"2026-04-17"},"SP98":{"p":2.099,"d":"2026-04-30"}},"brand":"Intermarché","h24":true,"services":["Laverie","Station de gonflage","Piste poids lourds","Lavage automatique","Vente de gaz domestique (Butane, Propane)","Automate CB 24/24"]},{"id":63270002,"lat":45.646215999999995,"lng":3.226488,"addr":"ZAC des Meules 2","city":"Vic-le-Comte","cp":"63270","fuels":{"Gazole":{"p":2.179,"d":"2026-04-29"},"E85":{"p":0.789,"d":"2026-04-10"},"E10":{"p":2.009,"d":"2026-04-27"}},"brand":"Système U","h24":true,"services":["Toilettes publiques","Laverie","Relais colis","Boutique alimentaire","Boutique non alimentaire","Station de gonflage","Location de véhicule","Piste poids lourds","Lavage automatique","Lavage manuel","Vente de gaz domestique (Butane, Propane)","Automate CB 24/24"]},{"id":63000014,"lat":45.781,"lng":3.077,"addr":"98 rue Fontgiève","city":"CLERMONT-FERRAND","cp":"63000","fuels":{"Gazole":{"p":2.199,"d":"2026-04-28"},"E10":{"p":2.019,"d":"2026-04-28"},"SP98":{"p":2.145,"d":"2026-04-28"}},"brand":"Intermarché","services":["Lavage automatique","Vente de gaz domestique (Butane, Propane)","DAB (Distributeur automatique de billets)"]},{"id":63210001,"lat":45.72613,"lng":2.89526,"addr":"LES QUATRE ROUTES","city":"Nébouzat","cp":"63210","fuels":{"Gazole":{"p":2.25,"d":"2026-04-23"},"E10":{"p":1.99,"d":"2026-04-21"}},"brand":"TotalEnergies","services":["Toilettes publiques","Boutique alimentaire","Boutique non alimentaire","Vente de fioul domestique","Station de gonflage","Piste poids lourds","Vente de gaz domestique (Butane, Propane)"]},{"id":63160004,"lat":45.728562503968,"lng":3.3395019953926,"addr":"5 ROUTE DE CLERMONT","city":"BILLOM","cp":"63160","fuels":{"Gazole":{"p":2.25,"d":"2026-04-22"},"E10":{"p":1.99,"d":"2026-04-29"},"SP98":{"p":1.99,"d":"2026-04-29"}},"h24":true,"services":["Station de gonflage","Services réparation / entretien","Vente de gaz domestique (Butane, Propane)","Automate CB 24/24"]},{"id":63380003,"lat":45.87,"lng":2.673,"addr":"2 rue paroueix","city":"Pontaumur","cp":"63380","fuels":{"Gazole":{"p":2.189,"d":"2026-04-21"},"E10":{"p":2.009,"d":"2026-04-27"}},"brand":"Auchan","h24":true,"services":["Laverie","Relais colis","Vente de gaz domestique (Butane, Propane)","Automate CB 24/24"]}]