[{"id":83590001,"lat":43.316,"lng":6.275,"addr":"Le Murier, RD 97","city":"Gonfaron","cp":"83590","fuels":{"Gazole":{"p":2.189,"d":"2026-04-29"},"E85":{"p":0.819,"d":"2026-04-17"},"E10":{"p":1.989,"d":"2026-04-29"},"SP98":{"p":2.099,"d":"2026-04-29"}},"brand":"Intermarché","h24":true,"services":["Laverie","Station de gonflage","Lavage automatique","Vente de gaz domestique (Butane, Propane)","Bornes électriques","Vente d'additifs carburants","Automate CB 24/24","DAB (Distributeur automatique de billets)"]},{"id":83790001,"lat":43.302,"lng":6.236,"addr":"Lieu dit le Fege- RN97","city":"Pignans","cp":"83790","fuels":{"Gazole":{"p":2.189,"d":"2026-04-28"},"SP95":{"p":2.028,"d":"2026-04-28"},"E10":{"p":1.975,"d":"2026-04-28"}},"brand":"Carrefour","h24":true,"services":["Laverie","Boutique alimentaire","Restauration à emporter","Vente de pétrole lampant","Location de véhicule","Vente de gaz domestique (Butane, Propane)","Bornes électriques","Wifi","Automate CB 24/24"]},{"id":83136012,"lat":43.339,"lng":6.084,"addr":"43 avenue de La Liberation","city":"Forcalqueiret","cp":"83136","fuels":{"Gazole":{"p":2.25,"d":"2026-04-30"},"SP95":{"p":1.99,"d":"2026-04-30"},"SP98":{"p":1.99,"d":"2026-04-30"}},"brand":"TotalEnergies","h24":true,"services":["Boutique alimentaire","Vente de fioul domestique","Station de gonflage","Vente de gaz domestique (Butane, Propane)","Vente d'additifs carburants","Automate CB 24/24"]},{"id":83600026,"lat":43.431000975238994,"lng":6.7552803524051,"addr":"959 avenue du Maréchal de Lattre de Tassigny","city":"Fréjus","cp":"83600","fuels":{"Gazole":{"p":2.219,"d":"2026-04-24"},"E85":{"p":0.859,"d":"2026-03-16"},"E10":{"p":2.059,"d":"2026-04-30"},"SP98":{"p":2.159,"d":"2026-04-30"}},"brand":"Eni","h24":true,"services":["Station de gonflage","Carburant additivé","Automate CB 24/24"]},{"id":83600020,"lat":43.43808989,"lng":6.7190878000000005,"addr":"100 RDN 7 AV.DE VERDUN","city":"FREJUS","cp":"83600","fuels":{"Gazole":{"p":2.09,"d":"2026-05-01"},"E85":{"p":0.879,"d":"2026-05-01"},"GPLc":{"p":1.099,"d":"2026-05-01"},"E10":{"p":1.99,"d":"2026-05-01"},"SP98":{"p":1.99,"d":"2026-05-01"}},"brand":"TotalEnergies","services":["Boutique alimentaire","Boutique non alimentaire","Station de gonflage","Carburant additivé","Piste poids lourds","Lavage automatique","Vente de gaz domestique (Butane, Propane)","DAB (Distributeur automatique de billets)"]},{"id":83500007,"lat":43.08509,"lng":5.88123,"addr":"Avenue Salvador Allende","city":"La Seyne-sur-Mer","cp":"83500","fuels":{"Gazole":{"p":2.168,"d":"2026-04-30"},"E85":{"p":0.818,"d":"2026-04-30"},"E10":{"p":2.01,"d":"2026-04-30"},"SP98":{"p":2.1,"d":"2026-04-30"}},"brand":"Intermarché","services":["DAB (Distributeur automatique de billets)"]},{"id":83600030,"lat":43.431083557022,"lng":6.755014805449901,"addr":"26 RUE DU DOCTEUR DONNADIEU","city":"Fréjus","cp":"83600","fuels":{"Gazole":{"p":2.187,"d":"2026-04-27"},"E10":{"p":2.025,"d":"2026-04-29"},"SP98":{"p":2.129,"d":"2026-04-27"}},"h24":true,"services":["Station de gonflage","Lavage automatique","Vente de gaz domestique (Butane, Propane)","Automate CB 24/24"]},{"id":83520001,"lat":43.4393291651,"lng":6.654951635940001,"addr":"QUARTIER LA GARONNE","city":"ROQUEBRUNE-SUR-ARGENS","cp":"83520","fuels":{"Gazole":{"p":2.25,"d":"2026-04-24"},"E10":{"p":1.99,"d":"2026-04-24"}},"brand":"TotalEnergies","services":["Boutique alimentaire","Boutique non alimentaire","Station de gonflage","Carburant additivé","Piste poids lourds","Lavage automatique","Lavage manuel","Services réparation / entretien","Vente de gaz domestique (Butane, Propane)"]},{"id":83600024,"lat":43.43,"lng":6.758,"addr":"1239 AV DE LATTRE DE TASSIGNY","city":"Fréjus","cp":"83600","fuels":{"Gazole":{"p":2.199,"d":"2026-05-01"},"E10":{"p":2.059,"d":"2026-05-01"},"SP98":{"p":2.149,"d":"2026-05-01"}},"brand":"BP","h24":true,"services":["Station de gonflage","Carburant additivé","Lavage automatique","Automate CB 24/24"]},{"id":83150001,"lat":43.153966638366,"lng":5.7443576756247,"addr":"1103 Avenue Dei Reganeu","city":"Bandol","cp":"83150","fuels":{"Gazole":{"p":2.179,"d":"2026-04-27"},"E10":{"p":1.979,"d":"2026-04-27"},"SP98":{"p":2.089,"d":"2026-04-27"}},"brand":"Carrefour","h24":true,"services":["Laverie","Relais colis","Station de gonflage","Location de véhicule","Piste poids lourds","Vente de gaz domestique (Butane, Propane)","Automate CB 24/24","DAB (Distributeur automatique de billets)"]},{"id":83630002,"lat":43.617,"lng":6.22,"addr":"Route de Sillans","city":"AUPS","cp":"83630","fuels":{"Gazole":{"p":2.259,"d":"2026-04-27"},"SP95":{"p":2.089,"d":"2026-04-27"},"E85":{"p":0.819,"d":"2026-04-17"},"SP98":{"p":2.149,"d":"2026-04-27"}},"brand":"Intermarché","services":["Boutique alimentaire","Vente de pétrole lampant","Station de gonflage","Aire de camping-cars","Location de véhicule","Piste poids lourds","Lavage automatique","Lavage manuel","Vente de gaz domestique (Butane, Propane)","DAB (Distributeur automatique de billets)"]},{"id":83340010,"lat":43.393,"lng":6.321,"addr":"RN7 - LE LUC LES LIEBAUDS","city":"LE LUC","cp":"83340","fuels":{"Gazole":{"p":2.09,"d":"2026-05-01"},"E85":{"p":0.829,"d":"2026-05-01"},"E10":{"p":1.99,"d":"2026-05-01"}},"brand":"TotalEnergies","h24":true,"services":["Boutique alimentaire","Boutique non alimentaire","Restauration à emporter","Station de gonflage","Carburant additivé","Piste poids lourds","Vente de gaz domestique (Butane, Propane)","Automate CB 24/24"]},{"id":83440004,"lat":43.606947931307,"lng":6.7635896541292,"addr":"Chemin Vincent","city":"MONTAUROUX","cp":"83440","fuels":{"Gazole":{"p":2.199,"d":"2026-04-21"},"SP95":{"p":2.019,"d":"2026-04-16"},"E10":{"p":1.979,"d":"2026-04-15"},"SP98":{"p":2.049,"d":"2026-04-16"}},"brand":"Leclerc","services":["Boutique alimentaire","Boutique non alimentaire","Vente de pétrole lampant","Location de véhicule","Lavage automatique","Lavage manuel","Vente de gaz domestique (Butane, Propane)"]},{"id":83720001,"lat":43.508477194755,"lng":6.4792427374907,"addr":"RN 555","city":"TRANS-EN-PROVENCE","cp":"83720","fuels":{"Gazole":{"p":2.162,"d":"2026-04-29"},"SP95":{"p":2.039,"d":"2026-04-29"},"E85":{"p":0.879,"d":"2026-04-29"},"E10":{"p":1.989,"d":"2026-04-29"},"SP98":{"p":2.146,"d":"2026-04-29"}},"brand":"Carrefour","services":["Toilettes publiques","Boutique alimentaire","Boutique non alimentaire","Restauration à emporter","Restauration sur place","Bar","Vente de pétrole lampant","Carburant additivé","Vente de gaz domestique (Butane, Propane)","DAB (Distributeur automatique de billets)"]},{"id":83340005,"lat":43.394,"lng":6.331,"addr":"centre commercial Intermarché route Nationale 7","city":"Le Cannet-des-Maures","cp":"83340","fuels":{"Gazole":{"p":2.173,"d":"2026-04-28"},"E85":{"p":0.819,"d":"2026-04-27"},"E10":{"p":1.979,"d":"2026-04-28"}},"brand":"Intermarché","services":["Vente de gaz domestique (Butane, Propane)","DAB (Distributeur automatique de billets)"]},{"id":83260005,"lat":43.135,"lng":6.048,"addr":"570 Chemin de Saint-Augustin","city":"La Crau","cp":"83260","fuels":{"Gazole":{"p":2.409,"d":"2026-05-01"},"GPLc":{"p":1.259,"d":"2026-05-01"},"E10":{"p":2.199,"d":"2026-05-01"},"SP98":{"p":2.309,"d":"2026-05-01"}},"brand":"BP","services":["Toilettes publiques","Douches","Boutique alimentaire","Boutique non alimentaire","Station de gonflage","Carburant additivé","Piste poids lourds","Espace bébé","GNV","Wifi"]},{"id":83670001,"lat":43.56,"lng":6.004,"addr":"6 PLACE MARTIN FERDINAND","city":"BARJOLS","cp":"83670","fuels":{"Gazole":{"p":2.304,"d":"2026-04-17"},"E85":{"p":0.997,"d":"2026-03-12"},"E10":{"p":2.124,"d":"2026-04-23"},"SP98":{"p":2.237,"d":"2026-04-07"}},"brand":"BP","h24":true,"services":["Relais colis","Boutique alimentaire","Boutique non alimentaire","Vente de pétrole lampant","Station de gonflage","Carburant additivé","Piste poids lourds","Services réparation / entretien","Vente de gaz domestique (Butane, Propane)","Vente d'additifs carburants","Automate CB 24/24"]},{"id":83980001,"lat":43.136,"lng":6.359,"addr":"Avenue du Maréchal Juin","city":"LE LAVANDOU","cp":"83980","fuels":{"Gazole":{"p":2.157,"d":"2026-04-28"},"E10":{"p":1.984,"d":"2026-04-30"},"SP98":{"p":2.095,"d":"2026-04-28"}},"brand":"Carrefour","h24":true,"services":["Station de gonflage","Location de véhicule","Automate CB 24/24","DAB (Distributeur automatique de billets)"]},{"id":83580004,"lat":43.262,"lng":6.578,"addr":"3869 RD 98A120 ROND POINT DE LA FOUX","city":"GASSIN","cp":"83580","fuels":{"Gazole":{"p":2.157,"d":"2026-04-29"},"GPLc":{"p":1.049,"d":"2026-04-29"},"E10":{"p":2.029,"d":"2026-04-29"},"SP98":{"p":2.099,"d":"2026-04-30"}},"brand":"Auchan","h24":true,"services":["Station de gonflage","Carburant additivé","Lavage automatique","Lavage manuel","Vente de gaz domestique (Butane, Propane)","Wifi","Automate CB 24/24"]},{"id":83400015,"lat":43.107,"lng":6.129,"addr":"ANGLE BD GEOFFROY ST HILAIRE","city":"HYERES","cp":"83400","fuels":{"Gazole":{"p":2.162,"d":"2026-04-28"},"E10":{"p":1.985,"d":"2026-04-28"},"SP98":{"p":2.098,"d":"2026-04-28"}},"brand":"Auchan","services":["Station de gonflage","Vente de gaz domestique (Butane, Propane)"]},{"id":83400003,"lat":43.12133,"lng":6.13816,"addr":"2 Avenue du Quinzième Corps","city":"HYERES","cp":"83400","fuels":{"Gazole":{"p":2.299,"d":"2026-05-01"},"E10":{"p":2.099,"d":"2026-05-01"},"SP98":{"p":2.199,"d":"2026-05-01"}},"brand":"Eni","services":["Toilettes publiques","Boutique alimentaire","Station de gonflage","Carburant additivé","Location de véhicule","Lavage automatique","Lavage manuel","Services réparation / entretien","Vente de gaz domestique (Butane, Propane)"]},{"id":83550004,"lat":43.428,"lng":6.442,"addr":"Boulevard des Vallons","city":"VIDAUBAN","cp":"83550","fuels":{"Gazole":{"p":2.219,"d":"2026-04-29"},"E10":{"p":1.999,"d":"2026-04-29"},"SP98":{"p":2.169,"d":"2026-04-29"}},"brand":"Intermarché","h24":true,"services":["Laverie","Relais colis","Boutique alimentaire","Restauration à emporter","Station de gonflage","Vente de gaz domestique (Butane, Propane)","Bornes électriques","Wifi","Automate CB 24/24","DAB (Distributeur automatique de billets)"]},{"id":83600021,"lat":43.427,"lng":6.745,"addr":"AVENUE DE PROVENCE","city":"FREJUS","cp":"83600","fuels":{"Gazole":{"p":2.09,"d":"2026-05-01"},"E85":{"p":0.865,"d":"2026-05-01"},"E10":{"p":1.99,"d":"2026-05-01"}},"brand":"TotalEnergies","h24":true,"services":["Boutique alimentaire","Boutique non alimentaire","Station de gonflage","Carburant additivé","Lavage automatique","Automate CB 24/24"]},{"id":83500004,"lat":43.11,"lng":5.86,"addr":"Quartier Lery","city":"LA SEYNE-SUR-MER","cp":"83500","fuels":{"Gazole":{"p":2.137,"d":"2026-04-30"},"E10":{"p":1.999,"d":"2026-04-30"},"SP98":{"p":2.09,"d":"2026-04-30"}},"brand":"Leclerc","h24":true,"services":["Toilettes publiques","Boutique alimentaire","Boutique non alimentaire","Restauration à emporter","Restauration sur place","Station de gonflage","Carburant additivé","Location de véhicule","Piste poids lourds","Lavage automatique","Lavage manuel","Espace bébé","Vente de gaz domestique (Butane, Propane)","Bornes électriques","Vente d'additifs carburants","Automate CB 24/24","DAB (Distributeur automatique de billets)"]},{"id":83980002,"lat":43.137,"lng":6.365,"addr":"7 AVENUE DES COMMANDOS D'AFRIQUE","city":"LE LAVANDOU","cp":"83980","fuels":{"Gazole":{"p":2.302,"d":"2026-04-01"},"SP95":{"p":2.09,"d":"2026-04-01"}},"brand":"Garage Saint-Christophe","services":["Location de véhicule"]},{"id":83600010,"lat":43.429,"lng":6.761,"addr":"1535 Avenue Mal. de Lattre de Tassigny","city":"Fréjus","cp":"83600","fuels":{"Gazole":{"p":2.249,"d":"2026-04-21"},"E10":{"p":2.089,"d":"2026-04-28"},"SP98":{"p":2.168,"d":"2026-04-28"}},"brand":"Avia","services":["Toilettes publiques","Boutique non alimentaire","Station de gonflage","Carburant additivé","Lavage manuel","Vente de gaz domestique (Butane, Propane)"]},{"id":83170009,"lat":43.409,"lng":5.922,"addr":"Quartier Le LAOU","city":"TOURVES","cp":"83170","fuels":{"Gazole":{"p":2.299,"d":"2026-04-15"},"SP95":{"p":2.09,"d":"2026-04-15"},"E85":{"p":0.91,"d":"2026-04-24"},"SP98":{"p":2.159,"d":"2026-04-27"}},"brand":"Dyneff","h24":true,"services":["Toilettes publiques","Boutique non alimentaire","Restauration à emporter","Restauration sur place","Vente d'additifs carburants","Automate CB 24/24","DAB (Distributeur automatique de billets)"]},{"id":83780002,"lat":43.531,"lng":6.414,"addr":"QUART.LE FLAYOSQUET 2218 AV. S. ALLENDE","city":"DRAGUIGNAN","cp":"83300","fuels":{"Gazole":{"p":2.28,"d":"2026-04-16"},"SP95":{"p":2.09,"d":"2026-04-16"},"SP98":{"p":2.18,"d":"2026-04-16"}},"brand":"Avia","h24":true,"services":["Vente de fioul domestique","Station de gonflage","Piste poids lourds","Vente de gaz domestique (Butane, Propane)","Automate CB 24/24"]},{"id":83600029,"lat":43.436748,"lng":6.757294,"addr":"AVENUE ANDRE LEOTARD","city":"Fréjus","cp":"83600","fuels":{"Gazole":{"p":2.199,"d":"2026-04-24"},"E10":{"p":2.009,"d":"2026-04-24"},"SP98":{"p":2.129,"d":"2026-04-24"}},"brand":"Intermarché","services":["Automate CB 24/24"]},{"id":83250011,"lat":43.131,"lng":6.219,"addr":"ROUTE NATIONALE 98","city":"LA-LONDE-LES-MAURES","cp":"83250","fuels":{"Gazole":{"p":2.199,"d":"2026-05-01"},"E85":{"p":1.069,"d":"2026-05-01"},"E10":{"p":2.069,"d":"2026-05-01"},"SP98":{"p":2.159,"d":"2026-05-01"}},"brand":"BP","h24":true,"services":["Boutique alimentaire","Boutique non alimentaire","Station de gonflage","Carburant additivé","Lavage automatique","Vente de gaz domestique (Butane, Propane)","Automate CB 24/24"]},{"id":83150003,"lat":43.134082122879995,"lng":5.7570684172271,"addr":"CAPITAINERIE DU PORT","city":"BANDOL","cp":"83150","fuels":{"Gazole":{"p":1.98,"d":"2026-03-25"},"SP95":{"p":2.1,"d":"2026-03-25"}},"h24":true,"services":["Automate CB 24/24"]},{"id":83130003,"lat":43.143,"lng":6.037,"addr":"1394 Avenue de Draguignan","city":"LA GARDE","cp":"83130","fuels":{"Gazole":{"p":2.182,"d":"2026-04-30"},"SP95":{"p":2.073,"d":"2026-04-29"},"E85":{"p":0.829,"d":"2026-03-10"},"SP98":{"p":2.147,"d":"2026-04-29"}},"brand":"K9","h24":true,"services":["Toilettes publiques","Boutique alimentaire","Boutique non alimentaire","Restauration à emporter","Restauration sur place","Bar","Vente de fioul domestique","Carburant additivé","Piste poids lourds","Lavage automatique","GNV","Vente de gaz domestique (Butane, Propane)","Bornes électriques","Automate CB 24/24","DAB (Distributeur automatique de billets)"]},{"id":83390002,"lat":43.233,"lng":6.07,"addr":"RN 97 Quartier Saint Lazare","city":"CUERS","cp":"83390","fuels":{"Gazole":{"p":2.199,"d":"2026-04-20"},"E85":{"p":0.799,"d":"2026-04-29"},"E10":{"p":2.039,"d":"2026-04-29"},"SP98":{"p":2.119,"d":"2026-04-29"}},"brand":"Casino","h24":true,"services":["Laverie","Relais colis","Boutique alimentaire","Vente de gaz domestique (Butane, Propane)","Vente d'additifs carburants","Automate CB 24/24","DAB (Distributeur automatique de billets)"]},{"id":83600025,"lat":43.46,"lng":6.743,"addr":"RD 37 QUARTIER ST PONS","city":"FREJUS","cp":"83600","fuels":{"Gazole":{"p":2.199,"d":"2026-05-01"},"E85":{"p":1.069,"d":"2026-05-01"},"E10":{"p":2.069,"d":"2026-05-01"},"SP98":{"p":2.189,"d":"2026-05-01"}},"brand":"BP","services":["Boutique alimentaire","Station de gonflage","Piste poids lourds","Lavage automatique"]},{"id":83160001,"lat":43.14,"lng":6.014,"addr":"ROUTE DE L'UNIVERSITE","city":"La Valette-du-Var","cp":"83160","fuels":{"Gazole":{"p":2.14,"d":"2026-05-01"},"SP95":{"p":2.071,"d":"2026-05-01"},"E10":{"p":1.999,"d":"2026-05-01"},"SP98":{"p":2.154,"d":"2026-05-01"}},"brand":"Carrefour","h24":true,"services":["Relais colis","Boutique alimentaire","Station de gonflage","Location de véhicule","Vente de gaz domestique (Butane, Propane)","Automate CB 24/24","DAB (Distributeur automatique de billets)"]},{"id":83270003,"lat":43.183229311568,"lng":5.6951125902699005,"addr":"ZAC DES PRADEAUX","city":"Saint-Cyr-sur-Mer","cp":"83270","fuels":{"Gazole":{"p":2.185,"d":"2026-04-27"},"E10":{"p":1.989,"d":"2026-04-27"},"SP98":{"p":2.105,"d":"2026-04-27"}},"brand":"Intermarché","h24":true,"services":["Vente de gaz domestique (Butane, Propane)","Automate CB 24/24"]},{"id":83230006,"lat":43.139562277779,"lng":6.3568519037858,"addr":"78 AVENUE LOU MISTRAOU","city":"Bormes-les-Mimosas","cp":"83230","fuels":{"Gazole":{"p":2.09,"d":"2026-05-01"},"E85":{"p":0.849,"d":"2026-05-01"},"SP98":{"p":1.99,"d":"2026-05-01"}},"brand":"TotalEnergies","services":["Boutique alimentaire","Boutique non alimentaire","Vente de fioul domestique","Station de gonflage","Carburant additivé","Lavage automatique","Lavage manuel","Services réparation / entretien","Vente de gaz domestique (Butane, Propane)","DAB (Distributeur automatique de billets)"]},{"id":83470004,"lat":43.446,"lng":5.865,"addr":"ROND POINT DE LA GENDARMERIE RN 7","city":"Saint-Maximin-la-Sainte-Baume","cp":"83470","fuels":{"Gazole":{"p":2.179,"d":"2026-04-29"},"E85":{"p":0.819,"d":"2026-04-22"},"E10":{"p":1.985,"d":"2026-04-29"},"SP98":{"p":2.105,"d":"2026-04-29"}},"brand":"Intermarché","services":["Lavage automatique","Vente de gaz domestique (Butane, Propane)","DAB (Distributeur automatique de billets)"]},{"id":83250007,"lat":43.143,"lng":6.241,"addr":"Z.A. DE LA POMPE","city":"La Londe-les-Maures","cp":"83250","fuels":{"Gazole":{"p":2.169,"d":"2026-04-30"},"E10":{"p":1.995,"d":"2026-04-28"},"SP98":{"p":2.115,"d":"2026-04-30"}},"brand":"Intermarché"},{"id":83670002,"lat":43.567,"lng":6.012,"addr":"Avenue de Tavernes","city":"BARJOLS","cp":"83670","fuels":{"Gazole":{"p":2.199,"d":"2026-04-27"},"E85":{"p":0.819,"d":"2026-04-16"},"E10":{"p":2.029,"d":"2026-04-27"},"SP98":{"p":2.149,"d":"2026-04-27"}},"brand":"Intermarché Barjols","services":["Laverie","Vente de fioul domestique","Vente de pétrole lampant","Station de gonflage","Lavage automatique","Lavage manuel","Vente de gaz domestique (Butane, Propane)","DAB (Distributeur automatique de billets)"]},{"id":83350001,"lat":43.214,"lng":6.645,"addr":"6465 QUARTIER DU PLAN","city":"Ramatuelle","cp":"83350","fuels":{"Gazole":{"p":2.09,"d":"2026-05-01"},"E85":{"p":0.904,"d":"2026-05-01"},"E10":{"p":1.99,"d":"2026-05-01"},"SP98":{"p":1.99,"d":"2026-05-01"}},"brand":"TotalEnergies","h24":true,"services":["Boutique alimentaire","Boutique non alimentaire","Station de gonflage","Carburant additivé","Lavage manuel","Vente de gaz domestique (Butane, Propane)","Automate CB 24/24","DAB (Distributeur automatique de billets)"]},{"id":83390005,"lat":43.22,"lng":6.146,"addr":"Avenue Frédéric Mistral","city":"PIERREFEU-DU-VAR","cp":"83390","fuels":{"Gazole":{"p":2.13,"d":"2026-04-30"},"E85":{"p":0.95,"d":"2026-04-10"},"E10":{"p":2,"d":"2026-04-30"},"SP98":{"p":2.11,"d":"2026-04-28"}},"brand":"Système U","services":["Vente de gaz domestique (Butane, Propane)","DAB (Distributeur automatique de billets)"]},{"id":83560006,"lat":43.727,"lng":5.812,"addr":"204 avenue de la République","city":"VINON-SUR-VERDON","cp":"83560","fuels":{"Gazole":{"p":2.328,"d":"2026-04-28"},"E10":{"p":2.139,"d":"2026-04-28"},"SP98":{"p":2.206,"d":"2026-04-28"}},"brand":"BP","services":["Toilettes publiques","Vente de fioul domestique","Station de gonflage","Vente de gaz domestique (Butane, Propane)"]},{"id":83400013,"lat":43.0846876404,"lng":6.14856278346,"addr":"CD 97 LE PALYVESTRE","city":"HYERES","cp":"83400","fuels":{"Gazole":{"p":2.09,"d":"2026-05-01"},"E85":{"p":0.849,"d":"2026-05-01"},"E10":{"p":1.99,"d":"2026-05-01"},"SP98":{"p":1.99,"d":"2026-05-01"}},"brand":"TotalEnergies","services":["Boutique alimentaire","Boutique non alimentaire","Restauration à emporter","Station de gonflage","Carburant additivé","Lavage automatique","Lavage manuel","DAB (Distributeur automatique de billets)"]},{"id":83170002,"lat":43.409,"lng":6.045,"addr":".RN7","city":"BRIGNOLES","cp":"83170","fuels":{"Gazole":{"p":2.249,"d":"2026-04-20"},"E85":{"p":0.999,"d":"2026-03-23"},"GPLc":{"p":1.049,"d":"2026-04-16"},"E10":{"p":2.029,"d":"2026-04-28"},"SP98":{"p":2.109,"d":"2026-04-28"}},"brand":"Avia","h24":true,"services":["Toilettes publiques","Relais colis","Boutique alimentaire","Boutique non alimentaire","Station de gonflage","Carburant additivé","Location de véhicule","Piste poids lourds","Lavage automatique","Vente de gaz domestique (Butane, Propane)","Vente d'additifs carburants","Automate CB 24/24"]},{"id":83400011,"lat":43.1096,"lng":6.12885,"addr":"Avenue Geoffroy Saint-Hilaire","city":"HYèRES","cp":"83400","fuels":{"Gazole":{"p":2.207,"d":"2026-04-28"},"SP95":{"p":2.069,"d":"2026-04-27"},"E85":{"p":0.829,"d":"2026-04-08"},"E10":{"p":2.039,"d":"2026-04-27"}},"brand":"Leclerc","services":["Vente de pétrole lampant","DAB (Distributeur automatique de billets)"]},{"id":83000006,"lat":43.12753,"lng":5.97764,"addr":"283 Rue Henri Sainte-Claire Deville","city":"TOULON","cp":"83100","fuels":{"Gazole":{"p":2.185,"d":"2026-04-30"},"SP95":{"p":2.068,"d":"2026-04-30"},"E10":{"p":1.997,"d":"2026-04-30"},"SP98":{"p":2.115,"d":"2026-04-30"}},"brand":"Intermarché","services":["Station de gonflage","Piste poids lourds","Vente de gaz domestique (Butane, Propane)","DAB (Distributeur automatique de billets)"]},{"id":83560007,"lat":43.729,"lng":5.8,"addr":"Chemin du Plan","city":"VINON-SUR-VERDON","cp":"83560","fuels":{"Gazole":{"p":2.18,"d":"2026-04-30"},"E85":{"p":0.829,"d":"2026-04-24"},"E10":{"p":1.999,"d":"2026-04-30"},"SP98":{"p":2.139,"d":"2026-04-30"}},"brand":"Carrefour","h24":true,"services":["Laverie","Relais colis","Vente de pétrole lampant","Station de gonflage","Aire de camping-cars","Location de véhicule","Piste poids lourds","Lavage automatique","Lavage manuel","Vente de gaz domestique (Butane, Propane)","Automate CB 24/24","DAB (Distributeur automatique de billets)"]},{"id":83150002,"lat":43.14936,"lng":5.76446,"addr":"6 Route du Beausset","city":"BANDOL","cp":"83150","fuels":{"Gazole":{"p":2.209,"d":"2026-04-27"},"E10":{"p":2.059,"d":"2026-04-27"},"SP98":{"p":2.139,"d":"2026-04-27"}},"brand":"Système U","services":["Boutique alimentaire","Boutique non alimentaire","Station de gonflage","Vente de gaz domestique (Butane, Propane)","DAB (Distributeur automatique de billets)"]},{"id":83130004,"lat":43.129946293907,"lng":6.0124208526305,"addr":"119 rue Pierre Revelli","city":"LA GARDE","cp":"83130","fuels":{"Gazole":{"p":2.269,"d":"2026-04-24"},"SP95":{"p":2.065,"d":"2026-04-24"},"E85":{"p":0.819,"d":"2026-04-17"},"E10":{"p":2.006,"d":"2026-04-24"}},"brand":"Intermarché","services":["DAB (Distributeur automatique de billets)"]},{"id":83500008,"lat":43.108,"lng":5.877,"addr":"Rond-Point du 8 Mai 1945","city":"LA SEYNE-SUR-MER","cp":"83500","fuels":{"Gazole":{"p":2.249,"d":"2026-04-28"},"E85":{"p":0.935,"d":"2026-04-07"},"E10":{"p":2.133,"d":"2026-04-26"},"SP98":{"p":2.195,"d":"2026-04-26"}},"brand":"Avia","h24":true,"services":["Toilettes publiques","Relais colis","Boutique alimentaire","Station de gonflage","Carburant additivé","Vente de gaz domestique (Butane, Propane)","Automate CB 24/24","DAB (Distributeur automatique de billets)"]},{"id":83520002,"lat":43.461,"lng":6.639,"addr":"Rond point des 4 Chemins","city":"Roquebrune-sur-Argens","cp":"83520","fuels":{"Gazole":{"p":2.199,"d":"2026-04-29"},"SP95":{"p":2.05,"d":"2026-04-29"},"SP98":{"p":2.199,"d":"2026-04-29"}},"brand":"Intermarché","services":["Vente de gaz domestique (Butane, Propane)","DAB (Distributeur automatique de billets)"]},{"id":83130005,"lat":43.12488,"lng":6.00718,"addr":"46 PLACE CLAUDE CHIAPPE","city":"LA GARDE","cp":"83130","fuels":{"Gazole":{"p":2.229,"d":"2026-04-21"},"SP95":{"p":2.044,"d":"2026-04-21"},"SP98":{"p":2.107,"d":"2026-04-21"}},"brand":"Netto","services":["Vente de gaz domestique (Butane, Propane)","DAB (Distributeur automatique de billets)"]},{"id":83140006,"lat":43.098,"lng":5.826,"addr":"60 traverse Font de Fillol","city":"SIX-FOURS-LES-PLAGES","cp":"83140","fuels":{"Gazole":{"p":2.198,"d":"2026-04-25"},"SP95":{"p":2.049,"d":"2026-04-25"},"E10":{"p":1.989,"d":"2026-04-25"},"SP98":{"p":2.089,"d":"2026-04-25"}},"brand":"Intermarché","h24":true,"services":["Toilettes publiques","Laverie","Station de gonflage","Vente de gaz domestique (Butane, Propane)","Bornes électriques","Automate CB 24/24","DAB (Distributeur automatique de billets)"]},{"id":83210003,"lat":43.163,"lng":6.045,"addr":"Avenue Charles de Gaulle rn 97","city":"LA FARLèDE","cp":"83210","fuels":{"Gazole":{"p":2.199,"d":"2026-04-27"},"SP95":{"p":2.045,"d":"2026-04-27"},"GPLc":{"p":1.139,"d":"2026-04-21"},"E10":{"p":1.989,"d":"2026-04-27"},"SP98":{"p":2.109,"d":"2026-04-27"}},"brand":"Intermarché","services":["Relais colis","Boutique alimentaire","Boutique non alimentaire","Restauration à emporter","Restauration sur place","Carburant additivé","Piste poids lourds","Vente de gaz domestique (Butane, Propane)","DAB (Distributeur automatique de billets)"]},{"id":83570003,"lat":43.528,"lng":6.15,"addr":"QUARTIER LE FERRAILLON","city":"Cotignac","cp":"83570","fuels":{"Gazole":{"p":2.199,"d":"2026-04-27"},"E10":{"p":2.019,"d":"2026-04-27"}},"brand":"Avia","h24":true,"services":["Toilettes publiques","Boutique non alimentaire","Vente de fioul domestique","Station de gonflage","Carburant additivé","Location de véhicule","Piste poids lourds","Lavage automatique","Services réparation / entretien","Vente de gaz domestique (Butane, Propane)","Vente d'additifs carburants","Automate CB 24/24"]},{"id":83580003,"lat":43.263,"lng":6.583,"addr":"RN 98","city":"GASSIN","cp":"83580","fuels":{"Gazole":{"p":2.259,"d":"2026-04-22"},"GPLc":{"p":1.049,"d":"2026-04-17"},"E10":{"p":2.029,"d":"2026-04-29"},"SP98":{"p":2.109,"d":"2026-04-29"}},"brand":"Avia","h24":true,"services":["Boutique alimentaire","Boutique non alimentaire","Restauration à emporter","Station de gonflage","Carburant additivé","Piste poids lourds","Lavage automatique","Lavage manuel","Vente de gaz domestique (Butane, Propane)","Automate CB 24/24"]},{"id":83130007,"lat":43.114,"lng":5.99,"addr":"683 AV MARECHAL DE LATTRE TASSIGNY","city":"La Garde","cp":"83130","fuels":{"Gazole":{"p":2.199,"d":"2026-04-29"},"E10":{"p":1.999,"d":"2026-04-29"},"SP98":{"p":2.149,"d":"2026-04-29"}},"brand":"Carrefour","h24":true,"services":["Relais colis","Boutique alimentaire","Restauration à emporter","Vente de pétrole lampant","Station de gonflage","Lavage automatique","Lavage manuel","Automate CB 24/24"]},{"id":83160003,"lat":43.137588197207,"lng":6.0133697873034,"addr":"AV.DE L'UNIVERSITE","city":"La Valette-du-Var","cp":"83160","fuels":{"Gazole":{"p":2.09,"d":"2026-05-01"}},"brand":"TotalEnergies","h24":true,"services":["Boutique alimentaire","Boutique non alimentaire","Station de gonflage","Carburant additivé","Piste poids lourds","Lavage automatique","Vente de gaz domestique (Butane, Propane)","Vente d'additifs carburants","Automate CB 24/24"]},{"id":83260003,"lat":43.132,"lng":6.069,"addr":"1400 Chemin Long","city":"LA CRAU","cp":"83260","fuels":{"Gazole":{"p":2.199,"d":"2026-04-17"},"E85":{"p":0.799,"d":"2026-04-23"},"E10":{"p":2.039,"d":"2026-04-28"},"SP98":{"p":2.107,"d":"2026-04-28"}},"brand":"Avia","h24":true,"services":["Relais colis","Station de gonflage","Carburant additivé","Piste poids lourds","Lavage automatique","Vente de gaz domestique (Butane, Propane)","Automate CB 24/24"]},{"id":83780001,"lat":43.53688,"lng":6.38944,"addr":"830 ROUTE DE SALERNES","city":"Flayosc","cp":"83780","fuels":{"Gazole":{"p":2.31,"d":"2026-04-17"},"SP95":{"p":2.09,"d":"2026-04-17"},"E10":{"p":2.09,"d":"2026-04-17"},"SP98":{"p":2.18,"d":"2026-04-02"}},"brand":"Campus","services":["Toilettes publiques","Boutique non alimentaire","Vente de fioul domestique","Vente de pétrole lampant","Station de gonflage","Carburant additivé","Lavage manuel","Services réparation / entretien","Vente de gaz domestique (Butane, Propane)","DAB (Distributeur automatique de billets)"]},{"id":83260007,"lat":43.153,"lng":6.073,"addr":"Avenue du 8 Mai 1945","city":"La Crau","cp":"83260","fuels":{"Gazole":{"p":2.199,"d":"2026-04-27"},"E85":{"p":0.799,"d":"2026-04-29"},"E10":{"p":2.034,"d":"2026-04-29"},"SP98":{"p":2.109,"d":"2026-04-29"}},"h24":true,"services":["Piste poids lourds","Vente d'additifs carburants","Automate CB 24/24"]},{"id":83210001,"lat":43.176,"lng":6.047,"addr":"RN 97","city":"Solliès-Ville","cp":"83210","fuels":{"Gazole":{"p":2.203,"d":"2026-04-29"},"E85":{"p":0.829,"d":"2026-03-11"},"E10":{"p":2.009,"d":"2026-04-29"},"SP98":{"p":2.117,"d":"2026-04-29"}},"brand":"K9","h24":true,"services":["Toilettes publiques","Boutique alimentaire","Boutique non alimentaire","Restauration à emporter","Restauration sur place","Vente de pétrole lampant","Station de gonflage","Carburant additivé","Lavage manuel","Vente de gaz domestique (Butane, Propane)","Automate CB 24/24","DAB (Distributeur automatique de billets)"]},{"id":83380002,"lat":43.3407736485,"lng":6.69252480444,"addr":"SAN PEIRE","city":"LES ISSAMBRES","cp":"83380","fuels":{"Gazole":{"p":2.09,"d":"2026-05-01"},"E10":{"p":1.99,"d":"2026-05-01"},"SP98":{"p":1.99,"d":"2026-05-01"}},"brand":"TotalEnergies","services":["Boutique alimentaire","Boutique non alimentaire","Restauration à emporter","Restauration sur place","Station de gonflage","Carburant additivé","Lavage automatique","Vente de gaz domestique (Butane, Propane)","DAB (Distributeur automatique de billets)"]},{"id":83460002,"lat":43.451,"lng":6.487,"addr":"Voie Jacques Prévert","city":"Les Arcs","cp":"83460","fuels":{"Gazole":{"p":2.129,"d":"2026-04-30"},"SP95":{"p":2.029,"d":"2026-04-30"},"E85":{"p":0.799,"d":"2026-04-28"},"E10":{"p":1.989,"d":"2026-04-30"},"SP98":{"p":2.039,"d":"2026-04-29"}},"services":["Restauration à emporter","Carburant additivé","Restauration sur place","Toilettes publiques","Bar","Boutique alimentaire","Station de gonflage","Espace bébé","Boutique non alimentaire","Services réparation / entretien","Laverie","Vente de gaz domestique (Butane, Propane)","Location de véhicule","Aire de camping-cars","DAB (Distributeur automatique de billets)","Lavage automatique","Lavage manuel","Vente de fioul domestique","Vente de pétrole lampant"]},{"id":83140008,"lat":43.11,"lng":5.813,"addr":"206 PLAGE DE BONNEGRACE - RD559","city":"Six-Fours-les-Plages","cp":"83140","fuels":{"Gazole":{"p":2.09,"d":"2026-05-01"},"E85":{"p":0.829,"d":"2026-05-01"}},"brand":"TotalEnergies","h24":true,"services":["Boutique alimentaire","Boutique non alimentaire","Station de gonflage","Carburant additivé","Lavage automatique","Vente de gaz domestique (Butane, Propane)","Vente d'additifs carburants","Automate CB 24/24"]},{"id":83470001,"lat":43.457,"lng":5.853,"addr":"Route d'Aix","city":"SAINT-MAXIMIN-LA-SAINTE-BAUME","cp":"83470","fuels":{"Gazole":{"p":2.149,"d":"2026-04-24"},"E85":{"p":0.759,"d":"2026-04-17"},"E10":{"p":1.989,"d":"2026-04-28"},"SP98":{"p":2.079,"d":"2026-04-28"}},"brand":"Système U","h24":true,"services":["Toilettes publiques","Boutique alimentaire","Boutique non alimentaire","Restauration à emporter","Restauration sur place","Bar","Vente de pétrole lampant","Station de gonflage","Carburant additivé","Aire de camping-cars","Location de véhicule","Piste poids lourds","Lavage automatique","Lavage manuel","Services réparation / entretien","Vente de gaz domestique (Butane, Propane)","Wifi","Automate CB 24/24","DAB (Distributeur automatique de billets)"]},{"id":83490004,"lat":43.470494052136,"lng":6.5786569002191,"addr":"491 ROUTE DE FREJUS","city":"Le Muy","cp":"83490","fuels":{"Gazole":{"p":2.21,"d":"2026-04-29"},"SP95":{"p":2.14,"d":"2026-04-29"},"SP98":{"p":2.174,"d":"2026-04-03"}},"brand":"Dyneff","h24":true,"services":["Bar","Vente de fioul domestique","Piste poids lourds","Automate CB 24/24"]},{"id":83130008,"lat":43.149918597295,"lng":6.0339952216349,"addr":"AIRE DES AMANDIERS CHABERTE, AUTOROUTE A57","city":"LA GARDE","cp":"83130","fuels":{"Gazole":{"p":2.429,"d":"2026-05-01"},"E85":{"p":0.999,"d":"2026-05-01"},"GPLc":{"p":1.149,"d":"2026-05-01"},"E10":{"p":2.199,"d":"2026-05-01"},"SP98":{"p":2.299,"d":"2026-05-01"}},"brand":"Eni","services":["Toilettes publiques","Douches","Boutique alimentaire","Boutique non alimentaire","Station de gonflage","Carburant additivé","Espace bébé"]},{"id":83470003,"lat":43.44,"lng":5.873,"addr":"Route de Nice","city":"SAINT-MAXIMIN-LA-SAINTE-BAUME","cp":"83470","fuels":{"Gazole":{"p":2.249,"d":"2026-04-20"},"E10":{"p":2.029,"d":"2026-04-28"},"SP98":{"p":2.109,"d":"2026-04-28"}},"brand":"Avia","services":["Station de gonflage","Carburant additivé","Lavage automatique"]},{"id":83400012,"lat":43.124,"lng":6.148,"addr":"22 Avenue Mal. de Lattre de Tassigny","city":"Hyères","cp":"83400","fuels":{"Gazole":{"p":2.169,"d":"2026-04-30"},"SP95":{"p":2.075,"d":"2026-04-30"},"GPLc":{"p":1.15,"d":"2026-04-29"},"E10":{"p":2.01,"d":"2026-04-30"},"SP98":{"p":2.13,"d":"2026-04-27"}},"brand":"Intermarché","h24":true,"services":["Toilettes publiques","Laverie","Station de gonflage","Lavage automatique","Vente de gaz domestique (Butane, Propane)","Bornes électriques","Automate CB 24/24"]},{"id":83480001,"lat":43.44299,"lng":6.70539,"addr":"Quartier des salles","city":"Puget-sur-Argens","cp":"83480","fuels":{"Gazole":{"p":2.155,"d":"2026-04-30"},"E85":{"p":0.815,"d":"2026-04-30"},"E10":{"p":2.02,"d":"2026-04-30"},"SP98":{"p":2.449,"d":"2026-04-30"}},"brand":"Carrefour","h24":true,"services":["Station de gonflage","Automate CB 24/24"]},{"id":83480005,"lat":43.458,"lng":6.678,"addr":"RN 7 Quartier le GABRON","city":"PUGET-SUR-ARGENS","cp":"83480","fuels":{"Gazole":{"p":2.169,"d":"2026-04-30"},"SP95":{"p":2.059,"d":"2026-04-27"},"E85":{"p":0.815,"d":"2026-04-22"},"E10":{"p":2.02,"d":"2026-04-30"}},"brand":"Leclerc","h24":true,"services":["Carburant additivé","Vente de gaz domestique (Butane, Propane)","Automate CB 24/24"]},{"id":83190006,"lat":43.12237,"lng":5.84962,"addr":"715 RTE DE LA SEYNE","city":"OLLIOULES","cp":"83190","fuels":{"Gazole":{"p":2.09,"d":"2026-05-01"},"E10":{"p":1.99,"d":"2026-05-01"},"SP98":{"p":1.99,"d":"2026-05-01"}},"brand":"TotalEnergies","services":["Boutique alimentaire","Boutique non alimentaire","Restauration à emporter","Station de gonflage","Carburant additivé","Lavage automatique","DAB (Distributeur automatique de billets)"]},{"id":83100005,"lat":43.11874,"lng":5.9794,"addr":"2338 Avenue Joseph Gasquet","city":"TOULON","cp":"83100","fuels":{"Gazole":{"p":2.299,"d":"2026-05-01"},"E10":{"p":2.099,"d":"2026-05-01"},"SP98":{"p":2.199,"d":"2026-05-01"}},"brand":"Eni","services":["Toilettes publiques","Boutique alimentaire","Vente de fioul domestique","Station de gonflage","Carburant additivé","Lavage automatique","Vente de gaz domestique (Butane, Propane)"]},{"id":83210006,"lat":43.16,"lng":6.064,"addr":"329 Route de la Crau","city":"La Farlède","cp":"83210","fuels":{"Gazole":{"p":2.215,"d":"2026-04-30"},"E85":{"p":0.829,"d":"2026-03-10"},"E10":{"p":2.01,"d":"2026-04-29"},"SP98":{"p":2.076,"d":"2026-04-24"}},"brand":"K9","h24":true,"services":["Toilettes publiques","Relais colis","Boutique alimentaire","Restauration à emporter","Carburant additivé","Piste poids lourds","Lavage manuel","Vente de gaz domestique (Butane, Propane)","Automate CB 24/24"]},{"id":83200002,"lat":43.13945251,"lng":5.88654834,"addr":"620 Rue David","city":"Toulon","cp":"83200","fuels":{"Gazole":{"p":2.299,"d":"2026-05-01"},"E10":{"p":2.099,"d":"2026-05-01"},"SP98":{"p":2.199,"d":"2026-05-01"}},"brand":"Eni","services":["Toilettes publiques","Boutique alimentaire","Station de gonflage","Carburant additivé","Lavage manuel","Services réparation / entretien","Vente de gaz domestique (Butane, Propane)"]},{"id":83136005,"lat":43.33024,"lng":6.04965,"addr":"3, Bd de la Libération","city":"Garéoult","cp":"83136","fuels":{"Gazole":{"p":2.165,"d":"2026-04-18"},"SP95":{"p":1.99,"d":"2026-04-18"},"SP98":{"p":1.99,"d":"2026-04-18"}},"brand":"TotalEnergies","services":["Boutique alimentaire","Vente de fioul domestique","Station de gonflage"]},{"id":83310011,"lat":43.264,"lng":6.577,"addr":"RN 98 CARREFOUR DE LA FOUX","city":"COGOLIN","cp":"83310","fuels":{"Gazole":{"p":2.09,"d":"2026-05-01"},"E85":{"p":0.883,"d":"2026-05-01"},"GPLc":{"p":1.049,"d":"2026-05-01"},"E10":{"p":1.99,"d":"2026-05-01"},"SP98":{"p":1.99,"d":"2026-05-01"}},"brand":"TotalEnergies","services":["Toilettes publiques","Boutique alimentaire","Boutique non alimentaire","Restauration à emporter","Restauration sur place","Vente de fioul domestique","Station de gonflage","Carburant additivé","Lavage automatique","Lavage manuel","Vente de gaz domestique (Butane, Propane)","Vente d'additifs carburants"]},{"id":83160004,"lat":43.143,"lng":6.011,"addr":"AUTOROUTE A 57","city":"LA VALETTE-DU-VAR","cp":"83160","fuels":{"Gazole":{"p":2.306,"d":"2026-05-01"},"GPLc":{"p":1.209,"d":"2026-05-01"},"E10":{"p":2.09,"d":"2026-05-01"},"SP98":{"p":2.19,"d":"2026-05-01"}},"brand":"Esso","services":["Toilettes publiques","Douches","Boutique alimentaire","Boutique non alimentaire","Restauration à emporter","Restauration sur place","Bar","Station de gonflage","Carburant additivé","Piste poids lourds","Espace bébé","Vente de gaz domestique (Butane, Propane)"]},{"id":83340011,"lat":43.395,"lng":6.333,"addr":"Quartier Les Taurelles - RN7","city":"Le Cannet-des-Maures","cp":"83340","fuels":{"Gazole":{"p":2.09,"d":"2026-05-01"},"E85":{"p":0.829,"d":"2026-05-01"},"E10":{"p":1.99,"d":"2026-05-01"}},"brand":"TotalEnergies","h24":true,"services":["Boutique alimentaire","Boutique non alimentaire","Station de gonflage","Carburant additivé","Piste poids lourds","Lavage automatique","Vente de gaz domestique (Butane, Propane)","Automate CB 24/24","DAB (Distributeur automatique de billets)"]},{"id":83400004,"lat":43.109,"lng":6.129,"addr":"BD GEOFFROY ST HILAIRE","city":"Hyères","cp":"83400","fuels":{"Gazole":{"p":2.168,"d":"2026-05-01"},"E10":{"p":1.974,"d":"2026-05-01"},"SP98":{"p":2.07,"d":"2026-05-01"}},"brand":"Esso"},{"id":83570001,"lat":43.47373,"lng":6.17634,"addr":"route de Brignoles","city":"Carcès","cp":"83570","fuels":{"Gazole":{"p":2.191,"d":"2026-04-28"},"SP95":{"p":2.057,"d":"2026-04-28"},"E10":{"p":2.003,"d":"2026-04-28"}},"brand":"Intermarché"},{"id":83690003,"lat":43.56,"lng":6.252,"addr":"888 route de draguignan","city":"SALERNES","cp":"83690","fuels":{"Gazole":{"p":2.39,"d":"2026-04-15"},"SP95":{"p":2.08,"d":"2026-04-15"},"SP98":{"p":2.21,"d":"2026-04-15"}},"brand":"Esso","services":["Toilettes publiques","Boutique non alimentaire","Vente de fioul domestique","Station de gonflage","Lavage automatique","Lavage manuel","Vente de gaz domestique (Butane, Propane)"]},{"id":83390003,"lat":43.251,"lng":6.097,"addr":"91 rue de la merlette","city":"CUERS","cp":"83390","fuels":{"Gazole":{"p":2.189,"d":"2026-04-27"},"SP95":{"p":2.039,"d":"2026-04-22"},"E10":{"p":1.979,"d":"2026-04-22"},"SP98":{"p":2.089,"d":"2026-04-22"}},"brand":"Intermarché","h24":true,"services":["Laverie","Relais colis","Restauration sur place","Station de gonflage","Location de véhicule","Piste poids lourds","Lavage automatique","Lavage manuel","Vente de gaz domestique (Butane, Propane)","Automate CB 24/24","DAB (Distributeur automatique de billets)"]},{"id":83000011,"lat":43.11313,"lng":5.93462,"addr":"AV INFANTERIE DE MARINE","city":"TOULON","cp":"83000","fuels":{"Gazole":{"p":2.09,"d":"2026-05-01"},"E10":{"p":1.99,"d":"2026-05-01"},"SP98":{"p":1.99,"d":"2026-05-01"}},"brand":"TotalEnergies","services":["Boutique alimentaire","Station de gonflage","Carburant additivé","Lavage automatique","Services réparation / entretien","Vente de gaz domestique (Butane, Propane)","DAB (Distributeur automatique de billets)"]},{"id":83480006,"lat":43.466859091819,"lng":6.671643191754801,"addr":"AUTOROUTE A8 - AIRE DE CANAVER","city":"Puget-sur-Argens","cp":"83480","fuels":{"Gazole":{"p":2.09,"d":"2026-05-01"},"GPLc":{"p":1.119,"d":"2026-05-01"},"E10":{"p":1.99,"d":"2026-05-01"},"SP98":{"p":1.99,"d":"2026-05-01"}},"brand":"TotalEnergies","h24":true,"services":["Toilettes publiques","Douches","Boutique alimentaire","Boutique non alimentaire","Restauration à emporter","Station de gonflage","Aire de camping-cars","Piste poids lourds","Espace bébé","Wifi","Automate CB 24/24","DAB (Distributeur automatique de billets)"]},{"id":83170011,"lat":43.423740853226,"lng":5.9929507895994,"addr":"AUTOROUTE A8","city":"BRIGNOLES","cp":"83170","fuels":{"Gazole":{"p":2.529,"d":"2026-04-30"},"GPLc":{"p":1.149,"d":"2026-04-30"},"E10":{"p":2.299,"d":"2026-04-30"},"SP98":{"p":2.399,"d":"2026-04-30"}},"brand":"Eni","services":["Toilettes publiques","Douches","Boutique alimentaire","Boutique non alimentaire","Restauration à emporter","Restauration sur place","Station de gonflage","Carburant additivé","Piste poids lourds","Espace bébé","Wifi"]},{"id":83100006,"lat":43.128,"lng":5.919,"addr":"508 AVENUE FOCH","city":"TOULON","cp":"83100","fuels":{"Gazole":{"p":2.09,"d":"2026-05-01"},"E85":{"p":0.839,"d":"2026-05-01"},"E10":{"p":1.99,"d":"2026-05-01"},"SP98":{"p":1.99,"d":"2026-05-01"}},"brand":"TotalEnergies","h24":true,"services":["Toilettes publiques","Boutique alimentaire","Station de gonflage","Wifi","Automate CB 24/24","DAB (Distributeur automatique de billets)"]},{"id":83340008,"lat":43.373,"lng":6.203,"addr":"ZA du Peyrouas rn7","city":"Flassans-sur-Issole","cp":"83340","fuels":{"Gazole":{"p":2.198,"d":"2026-04-18"},"SP95":{"p":2.078,"d":"2026-04-29"},"E85":{"p":0.798,"d":"2026-04-16"},"E10":{"p":2.048,"d":"2026-04-29"},"SP98":{"p":2.138,"d":"2026-04-29"}},"brand":"Système U","h24":true,"services":["Laverie","Relais colis","Boutique alimentaire","Boutique non alimentaire","Station de gonflage","Location de véhicule","Piste poids lourds","Lavage automatique","Vente de gaz domestique (Butane, Propane)","Bornes électriques","Vente d'additifs carburants","Wifi","Automate CB 24/24","DAB (Distributeur automatique de billets)"]},{"id":83550005,"lat":43.414401729784004,"lng":6.453159103249999,"addr":"Aire de Vidauban Sud - A 8","city":"VIDAUBAN","cp":"83550","fuels":{"Gazole":{"p":2.339,"d":"2026-04-25"},"E85":{"p":1.055,"d":"2026-04-25"},"GPLc":{"p":1.13,"d":"2026-04-25"},"E10":{"p":2.119,"d":"2026-04-25"},"SP98":{"p":2.199,"d":"2026-04-25"}},"brand":"Avia","h24":true,"services":["Toilettes publiques","Douches","Boutique alimentaire","Boutique non alimentaire","Restauration à emporter","Restauration sur place","Station de gonflage","Carburant additivé","Piste poids lourds","Espace bébé","Wifi","Automate CB 24/24","DAB (Distributeur automatique de billets)"]},{"id":83300006,"lat":43.532,"lng":6.451,"addr":"526 Avenue Pierre Brossolette","city":"DRAGUIGNAN BROSSOLETTE","cp":"83300","fuels":{"Gazole":{"p":2.209,"d":"2026-04-29"},"GPLc":{"p":1.065,"d":"2026-04-08"},"E10":{"p":2.059,"d":"2026-04-29"},"SP98":{"p":2.176,"d":"2026-04-29"}},"brand":"Intermarché","h24":true,"services":["Vente de gaz domestique (Butane, Propane)","Automate CB 24/24","DAB (Distributeur automatique de billets)"]},{"id":83120006,"lat":43.304,"lng":6.627,"addr":"24 BOULEVARD JEAN MOULIN - RD559","city":"Sainte-Maxime","cp":"83120","fuels":{"E85":{"p":0.895,"d":"2026-05-01"},"E10":{"p":1.99,"d":"2026-05-01"}},"brand":"TotalEnergies","services":["Boutique alimentaire","Boutique non alimentaire","Station de gonflage","Carburant additivé","Lavage automatique","Lavage manuel","Services réparation / entretien","Vente de gaz domestique (Butane, Propane)","Wifi"]},{"id":83000010,"lat":43.124,"lng":5.937,"addr":"160 BOULEVARD G.CLEMENCEAU","city":"TOULON","cp":"83000","fuels":{"Gazole":{"p":2.09,"d":"2026-05-01"},"E85":{"p":0.839,"d":"2026-05-01"},"GPLc":{"p":1.089,"d":"2026-05-01"},"E10":{"p":1.99,"d":"2026-05-01"}},"brand":"TotalEnergies","services":["Toilettes publiques","Boutique alimentaire","Boutique non alimentaire","Restauration à emporter","Station de gonflage","Carburant additivé","Piste poids lourds","Lavage automatique","Lavage manuel"]},{"id":83140007,"lat":43.089,"lng":5.852,"addr":"RD 16 - 333 ROUTE DES SABLETTES","city":"Six-Fours-les-Plages","cp":"83140","fuels":{"Gazole":{"p":2.09,"d":"2026-05-01"},"E85":{"p":0.832,"d":"2026-05-01"},"E10":{"p":1.99,"d":"2026-05-01"}},"brand":"TotalEnergies","services":["Boutique alimentaire","Station de gonflage","Carburant additivé","Lavage automatique","Vente de gaz domestique (Butane, Propane)","Wifi"]},{"id":83440006,"lat":43.607,"lng":6.749,"addr":"497 ROUTE DEPARTEMENTAL 562","city":"CALLIAN","cp":"83440","fuels":{"Gazole":{"p":2.249,"d":"2026-04-16"},"SP95":{"p":2.029,"d":"2026-04-16"},"E85":{"p":0.8,"d":"2026-04-07"},"SP98":{"p":2.059,"d":"2026-04-16"}},"brand":"Agip","h24":true,"services":["Toilettes publiques","Boutique alimentaire","Boutique non alimentaire","Vente de fioul domestique","Station de gonflage","Carburant additivé","Lavage automatique","Vente de gaz domestique (Butane, Propane)","Vente d'additifs carburants","Automate CB 24/24","DAB (Distributeur automatique de billets)"]},{"id":83630003,"lat":43.6560537166,"lng":6.11974997415,"addr":"Centre Commercial des CLOUOS, Route de Montmeyan","city":"REGUSSE","cp":"83630","fuels":{"Gazole":{"p":2.239,"d":"2026-04-27"},"E10":{"p":2.099,"d":"2026-04-27"},"SP98":{"p":2.189,"d":"2026-04-27"}},"brand":"Système U","services":["Station de gonflage","Carburant additivé","Lavage manuel","Vente de gaz domestique (Butane, Propane)","DAB (Distributeur automatique de billets)"]},{"id":83440002,"lat":43.622,"lng":6.691,"addr":"QUARTIER DE LA GARE RD.19","city":"Fayence","cp":"83440","fuels":{"Gazole":{"p":2.09,"d":"2026-04-30"},"SP95":{"p":1.99,"d":"2026-04-30"},"SP98":{"p":1.99,"d":"2026-04-30"}},"brand":"TotalEnergies","services":["Toilettes publiques","Boutique alimentaire","Boutique non alimentaire","Bar","Vente de fioul domestique","Station de gonflage","Carburant additivé","Piste poids lourds","Vente de gaz domestique (Butane, Propane)","DAB (Distributeur automatique de billets)"]},{"id":83300008,"lat":43.533,"lng":6.452,"addr":"386 Avenue Pierre Brossolette","city":"DRAGUIGNAN","cp":"83300","fuels":{"Gazole":{"p":2.479,"d":"2026-04-03"},"E85":{"p":0.818,"d":"2026-04-16"},"E10":{"p":2.154,"d":"2026-04-03"}},"h24":true,"services":["Relais colis","Boutique alimentaire","Boutique non alimentaire","Station de gonflage","Vente de gaz domestique (Butane, Propane)","Automate CB 24/24"]},{"id":83870001,"lat":43.29,"lng":5.863,"addr":"15 AVENUE DU CHEVAL BLANC","city":"SIGNES","cp":"83870","fuels":{"Gazole":{"p":2.249,"d":"2026-04-20"},"E10":{"p":2.059,"d":"2026-04-20"}},"brand":"Avia","h24":true,"services":["Toilettes publiques","Boutique alimentaire","Boutique non alimentaire","Vente de fioul domestique","Station de gonflage","Carburant additivé","Piste poids lourds","Lavage manuel","Services réparation / entretien","Vente de gaz domestique (Butane, Propane)","Vente d'additifs carburants","Wifi","Automate CB 24/24"]},{"id":83470006,"lat":43.447,"lng":5.863,"addr":"RN.7 ROUTE DE NICE","city":"Saint-Maximin-la-Sainte-Baume","cp":"83470","fuels":{"E85":{"p":0.835,"d":"2026-05-01"},"GPLc":{"p":1.119,"d":"2026-05-01"},"E10":{"p":1.99,"d":"2026-05-01"}},"brand":"TotalEnergies","h24":true,"services":["Relais colis","Boutique alimentaire","Boutique non alimentaire","Restauration à emporter","Station de gonflage","Carburant additivé","Piste poids lourds","Lavage automatique","Lavage manuel","Vente de gaz domestique (Butane, Propane)","Automate CB 24/24","DAB (Distributeur automatique de billets)"]},{"id":83260001,"lat":43.154,"lng":6.07,"addr":"ZI Le Patrimoine","city":"LA CRAU","cp":"83260","fuels":{"Gazole":{"p":2.195,"d":"2026-04-27"},"SP95":{"p":2.042,"d":"2026-04-27"},"E10":{"p":1.985,"d":"2026-04-27"},"SP98":{"p":2.095,"d":"2026-04-30"}},"brand":"Carrefour","h24":true,"services":["Toilettes publiques","Relais colis","Boutique alimentaire","Boutique non alimentaire","Restauration à emporter","Restauration sur place","Location de véhicule","Lavage automatique","Lavage manuel","Vente de gaz domestique (Butane, Propane)","Vente d'additifs carburants","Wifi","Automate CB 24/24","DAB (Distributeur automatique de billets)"]},{"id":83110002,"lat":43.124,"lng":5.792,"addr":"RN 559","city":"SANARY","cp":"83110","fuels":{"Gazole":{"p":2.09,"d":"2026-05-01"},"E85":{"p":0.829,"d":"2026-05-01"},"E10":{"p":1.99,"d":"2026-05-01"},"SP98":{"p":1.99,"d":"2026-05-01"}},"brand":"TotalEnergies","h24":true,"services":["Boutique alimentaire","Boutique non alimentaire","Lavage manuel","Vente de gaz domestique (Butane, Propane)","Vente d'additifs carburants","Automate CB 24/24"]},{"id":83600023,"lat":43.53923099000001,"lng":6.709598199999999,"addr":"985 ROUTE DE SAINT PAUL","city":"Bagnols-en-Forêt","cp":"83600","fuels":{"Gazole":{"p":2.579,"d":"2026-04-08"},"SP95":{"p":2.179,"d":"2026-04-08"},"E10":{"p":2.129,"d":"2026-04-08"}},"brand":"Carrefour","services":["Boutique alimentaire","Vente de gaz domestique (Butane, Propane)"]},{"id":83340002,"lat":43.3815,"lng":6.30429,"addr":"Route de Toulon","city":"LE LUC","cp":"83340","fuels":{"Gazole":{"p":2.169,"d":"2026-04-24"},"SP95":{"p":2.055,"d":"2026-04-27"},"E85":{"p":0.745,"d":"2026-04-17"},"GPLc":{"p":1.085,"d":"2026-04-13"},"SP98":{"p":2.096,"d":"2026-04-27"}},"brand":"Leclerc","services":["Vente de pétrole lampant","Station de gonflage","Piste poids lourds","Lavage automatique","Lavage manuel","DAB (Distributeur automatique de billets)"]},{"id":83510003,"lat":43.471,"lng":6.381,"addr":"Route des Arcs","city":"Lorgues","cp":"83510","fuels":{"Gazole":{"p":2.159,"d":"2026-04-29"},"E10":{"p":1.979,"d":"2026-04-27"},"SP98":{"p":2.079,"d":"2026-04-27"}},"brand":"Intermarché","services":["Laverie","Station de gonflage","Piste poids lourds","Lavage automatique","Vente de gaz domestique (Butane, Propane)","DAB (Distributeur automatique de billets)"]},{"id":83990002,"lat":43.267,"lng":6.63,"addr":"Avenue general leclerc RD 98","city":"Saint-Tropez","cp":"83990","fuels":{"Gazole":{"p":2.79,"d":"2026-04-08"},"E10":{"p":2.49,"d":"2026-04-08"},"SP98":{"p":2.55,"d":"2026-04-08"}},"h24":true,"services":["Boutique alimentaire","Boutique non alimentaire","Station de gonflage","Carburant additivé","Lavage manuel","Vente de gaz domestique (Butane, Propane)","Automate CB 24/24"]},{"id":83240001,"lat":43.17,"lng":6.526,"addr":"Avenue des Alliés","city":"CAVALAIRE-SUR-MER","cp":"83240","fuels":{"Gazole":{"p":2.156,"d":"2026-04-30"},"E10":{"p":1.988,"d":"2026-04-30"},"SP98":{"p":2.098,"d":"2026-04-30"}},"brand":"Carrefour","services":["Station de gonflage","Location de véhicule","Vente de gaz domestique (Butane, Propane)","DAB (Distributeur automatique de billets)"]},{"id":83210004,"lat":43.202370883419995,"lng":6.050361038462,"addr":"ZAC DE LA POULASSE","city":"Solliès-Pont","cp":"83210","fuels":{"Gazole":{"p":2.125,"d":"2026-04-28"},"E85":{"p":0.815,"d":"2026-04-16"},"E10":{"p":1.965,"d":"2026-04-28"},"SP98":{"p":2.075,"d":"2026-04-28"}},"brand":"Independent","h24":true,"services":["Station de gonflage","Carburant additivé","Piste poids lourds","Lavage automatique","Vente de gaz domestique (Butane, Propane)","Vente d'additifs carburants","Automate CB 24/24"]},{"id":83570002,"lat":43.473214680000005,"lng":6.12454725,"addr":"QUARTIER LE PIGEONNIER","city":"Montfort-sur-Argens","cp":"83570","fuels":{"Gazole":{"p":2.245,"d":"2026-04-18"},"E85":{"p":0.758,"d":"2026-03-24"},"E10":{"p":1.954,"d":"2026-04-18"},"SP98":{"p":2.111,"d":"2026-04-08"}},"brand":"Intermarché","services":["Toilettes publiques","Relais colis","Boutique alimentaire","Restauration à emporter","Vente de fioul domestique","Station de gonflage","Vente de gaz domestique (Butane, Propane)","DAB (Distributeur automatique de billets)"]},{"id":83840001,"lat":43.711,"lng":6.507,"addr":"Route départementale 955","city":"Comps sur Artuby","cp":"83840","fuels":{"Gazole":{"p":2.214,"d":"2026-04-30"},"E10":{"p":2.053,"d":"2026-04-30"},"SP98":{"p":2.214,"d":"2026-04-30"}},"h24":true,"services":["Bornes électriques","Automate CB 24/24","DAB (Distributeur automatique de billets)"]},{"id":83300003,"lat":43.532,"lng":6.456,"addr":"ZI SAINT HERMENTAIRE","city":"DRAGUIGNAN","cp":"83300","fuels":{"Gazole":{"p":2.125,"d":"2026-04-30"},"E10":{"p":1.996,"d":"2026-04-30"},"SP98":{"p":2.146,"d":"2026-04-30"}},"brand":"Carrefour","h24":true,"services":["Toilettes publiques","Relais colis","Boutique alimentaire","Boutique non alimentaire","Restauration à emporter","Restauration sur place","Bar","Vente de pétrole lampant","Station de gonflage","Carburant additivé","Location de véhicule","Piste poids lourds","Lavage automatique","Vente de gaz domestique (Butane, Propane)","Wifi","Automate CB 24/24","DAB (Distributeur automatique de billets)"]},{"id":83000012,"lat":43.1177114581,"lng":5.94101238436,"addr":"322 AV.LE BELLEGOU RODE","city":"TOULON","cp":"83000","fuels":{"Gazole":{"p":2.09,"d":"2026-05-01"},"E85":{"p":0.829,"d":"2026-05-01"},"GPLc":{"p":1.079,"d":"2026-05-01"}},"brand":"TotalEnergies","services":["Toilettes publiques","Boutique alimentaire","Restauration à emporter","Station de gonflage","Carburant additivé","Lavage automatique","Lavage manuel","Services réparation / entretien","Vente de gaz domestique (Butane, Propane)","DAB (Distributeur automatique de billets)"]},{"id":83136007,"lat":43.318,"lng":6.076,"addr":"ZAC DE FRAY REDON","city":"Rocbaron","cp":"83136","fuels":{"Gazole":{"p":2.25,"d":"2026-04-30"},"E85":{"p":0.869,"d":"2026-04-02"},"E10":{"p":1.99,"d":"2026-04-20"}},"brand":"TotalEnergies","h24":true,"services":["Boutique alimentaire","Boutique non alimentaire","Restauration à emporter","Restauration sur place","Station de gonflage","Carburant additivé","Piste poids lourds","Lavage automatique","Lavage manuel","Vente de gaz domestique (Butane, Propane)","Vente d'additifs carburants","Wifi","Automate CB 24/24"]},{"id":83390001,"lat":43.228,"lng":6.07,"addr":"660 Avenue Léon Amic","city":"CUERS","cp":"83390","fuels":{"Gazole":{"p":2.25,"d":"2026-04-30"}},"brand":"TotalEnergies","h24":true,"services":["Boutique alimentaire","Boutique non alimentaire","Restauration à emporter","Station de gonflage","Carburant additivé","Lavage automatique","Vente de gaz domestique (Butane, Propane)","Vente d'additifs carburants","Automate CB 24/24"]},{"id":83120002,"lat":43.31,"lng":6.635,"addr":"Place Jean Mermoz","city":"SAINTE-MAXIME","cp":"83120","fuels":{"Gazole":{"p":2.189,"d":"2026-04-27"},"E10":{"p":1.99,"d":"2026-04-27"}},"brand":"Carrefour","h24":true,"services":["Vente de gaz domestique (Butane, Propane)","Automate CB 24/24","DAB (Distributeur automatique de billets)"]},{"id":83560008,"lat":43.673828509983004,"lng":5.8477935939865,"addr":"lieu-dit La plantude 23 route de la Verdière","city":"Ginasservis","cp":"83560","fuels":{"Gazole":{"p":2.309,"d":"2026-04-29"},"E85":{"p":0.819,"d":"2026-04-20"},"E10":{"p":2.039,"d":"2026-04-22"},"SP98":{"p":2.159,"d":"2026-04-22"}},"brand":"Intermarché","h24":true,"services":["Laverie","Vente de pétrole lampant","Station de gonflage","Carburant additivé","Piste poids lourds","Lavage automatique","Vente de gaz domestique (Butane, Propane)","Automate CB 24/24"]},{"id":83140001,"lat":43.103,"lng":5.821,"addr":"Avenue de la Mer","city":"SIX-FOURS-LES-PLAGES","cp":"83140","fuels":{"Gazole":{"p":2.159,"d":"2026-04-29"},"SP95":{"p":2.049,"d":"2026-04-25"},"E85":{"p":0.818,"d":"2026-04-23"},"E10":{"p":1.989,"d":"2026-04-25"},"SP98":{"p":2.089,"d":"2026-04-25"}},"brand":"Carrefour","h24":true,"services":["Toilettes publiques","Laverie","Restauration à emporter","Station de gonflage","Location de véhicule","Lavage automatique","Vente de gaz domestique (Butane, Propane)","Bornes électriques","Automate CB 24/24","DAB (Distributeur automatique de billets)"]},{"id":83170007,"lat":43.407,"lng":6.05,"addr":"quartier saint jean rn7","city":"BRIGNOLES","cp":"83170","fuels":{"Gazole":{"p":2.149,"d":"2026-04-30"},"SP95":{"p":2.077,"d":"2026-04-30"},"E10":{"p":1.985,"d":"2026-04-29"},"SP98":{"p":2.079,"d":"2026-04-28"}},"brand":"Leclerc","h24":true,"services":["Toilettes publiques","Relais colis","Boutique alimentaire","Restauration à emporter","Restauration sur place","Vente de fioul domestique","Vente de pétrole lampant","Carburant additivé","Piste poids lourds","Espace bébé","Vente de gaz domestique (Butane, Propane)","Vente d'additifs carburants","Automate CB 24/24","DAB (Distributeur automatique de billets)"]},{"id":83200004,"lat":43.12814,"lng":5.90563,"addr":"95 Boulevard Général Brosset","city":"TOULON","cp":"83200","fuels":{"Gazole":{"p":2.299,"d":"2026-04-28"},"SP95":{"p":2.149,"d":"2026-04-28"},"SP98":{"p":2.199,"d":"2026-04-28"}},"brand":"Esso","services":["Toilettes publiques","Boutique alimentaire","Boutique non alimentaire","Restauration à emporter","Restauration sur place","Station de gonflage","Carburant additivé","Lavage automatique","Vente de gaz domestique (Butane, Propane)","DAB (Distributeur automatique de billets)"]},{"id":83510004,"lat":43.488,"lng":6.351,"addr":"278 ROUTE DE CARCES","city":"Lorgues","cp":"83510","fuels":{"Gazole":{"p":2.25,"d":"2026-04-29"},"E10":{"p":1.99,"d":"2026-04-29"},"SP98":{"p":1.99,"d":"2026-04-29"}},"brand":"TotalEnergies","h24":true,"services":["Relais colis","Boutique non alimentaire","Carburant additivé","Lavage manuel","Services réparation / entretien","Vente de gaz domestique (Butane, Propane)","Vente d'additifs carburants","Automate CB 24/24"]},{"id":83190001,"lat":43.125,"lng":5.876,"addr":"55 Chemin de la Bouyère","city":"OLLIOULES","cp":"83190","fuels":{"Gazole":{"p":2.137,"d":"2026-04-29"},"SP95":{"p":2.07,"d":"2026-04-29"},"E85":{"p":0.819,"d":"2026-04-29"},"GPLc":{"p":0.999,"d":"2026-04-29"},"E10":{"p":1.988,"d":"2026-04-29"},"SP98":{"p":2.158,"d":"2026-04-29"}},"brand":"Carrefour","services":["Vente de gaz domestique (Butane, Propane)","DAB (Distributeur automatique de billets)"]},{"id":83330001,"lat":43.196,"lng":5.804,"addr":"BD.DU 11 NOVEMBRE","city":"Le Beausset","cp":"83330","fuels":{"Gazole":{"p":2.09,"d":"2026-05-01"},"E85":{"p":0.869,"d":"2026-04-30"},"E10":{"p":1.99,"d":"2026-04-30"},"SP98":{"p":1.99,"d":"2026-04-30"}},"h24":true,"services":["Boutique alimentaire","Boutique non alimentaire","Station de gonflage","Carburant additivé","Piste poids lourds","Lavage automatique","Lavage manuel","Services réparation / entretien","Vente de gaz domestique (Butane, Propane)","Vente d'additifs carburants","Automate CB 24/24"]},{"id":83170010,"lat":43.40551,"lng":6.0753,"addr":"H.l.m. de la Route de Nice","city":"BRIGNOLES","cp":"83170","fuels":{"Gazole":{"p":2.169,"d":"2026-04-30"},"E85":{"p":0.818,"d":"2026-04-30"},"E10":{"p":1.999,"d":"2026-04-30"},"SP98":{"p":2.145,"d":"2026-04-30"}},"brand":"Intermarché","services":["Station de gonflage","Location de véhicule","Vente de gaz domestique (Butane, Propane)","DAB (Distributeur automatique de billets)"]},{"id":83140009,"lat":43.092,"lng":5.844,"addr":"TRAVERSE DE BAYLE","city":"Six-Fours-les-Plages","cp":"83140","fuels":{"Gazole":{"p":2.198,"d":"2026-04-29"},"E85":{"p":0.818,"d":"2026-04-29"},"E10":{"p":1.99,"d":"2026-04-29"},"SP98":{"p":2.089,"d":"2026-04-29"}},"brand":"Intermarché","h24":true,"services":["Vente de gaz domestique (Butane, Propane)","Automate CB 24/24"]},{"id":83560003,"lat":43.726,"lng":5.811,"addr":"342 AVENUE DE LA REPUBLIQUE","city":"VINON-SUR-VERDON","cp":"83560","fuels":{"Gazole":{"p":2.45,"d":"2026-04-09"},"SP95":{"p":2.23,"d":"2026-04-09"},"SP98":{"p":2.23,"d":"2026-04-09"}},"services":["Location de véhicule","Services réparation / entretien","Vente de gaz domestique (Butane, Propane)"]},{"id":83560010,"lat":43.731677927281,"lng":5.817796652140499,"addr":"Route de Gréoux Lieudit les AdrechsRoute des gorges","city":"Vinon-sur-Verdon","cp":"83560","fuels":{"Gazole":{"p":2.18,"d":"2026-04-30"},"E10":{"p":1.999,"d":"2026-04-30"}},"brand":"Auchan","h24":true,"services":["Station de gonflage","Vente de gaz domestique (Butane, Propane)","Automate CB 24/24"]},{"id":83460004,"lat":43.448,"lng":6.473,"addr":"QUARTIER BOURGOGNE","city":"LES ARCS SUR ARGENS","cp":"83460","fuels":{"Gazole":{"p":2.129,"d":"2026-04-30"},"SP95":{"p":2.029,"d":"2026-04-30"},"E10":{"p":1.989,"d":"2026-04-30"}},"brand":"Système U","h24":true,"services":["Boutique alimentaire","Automate CB 24/24"]},{"id":83660002,"lat":43.299,"lng":6.191,"addr":"Chemin du Plan","city":"CARNOULES","cp":"83660","fuels":{"Gazole":{"p":2.189,"d":"2026-04-30"},"E10":{"p":1.999,"d":"2026-04-30"},"SP98":{"p":2.159,"d":"2026-04-30"}},"brand":"Intermarché","h24":true,"services":["Toilettes publiques","Laverie","Boutique alimentaire","Restauration à emporter","Station de gonflage","Location de véhicule","Piste poids lourds","Lavage automatique","Vente de gaz domestique (Butane, Propane)","Wifi","Automate CB 24/24","DAB (Distributeur automatique de billets)"]},{"id":83440003,"lat":43.606,"lng":6.767,"addr":"AVENUE CHAMBAROT","city":"Montauroux","cp":"83440","fuels":{"Gazole":{"p":2.09,"d":"2026-05-01"},"E85":{"p":0.869,"d":"2026-05-01"}},"brand":"TotalEnergies","h24":true,"services":["Boutique alimentaire","Boutique non alimentaire","Station de gonflage","Carburant additivé","Piste poids lourds","Lavage automatique","Lavage manuel","Vente de gaz domestique (Butane, Propane)","Automate CB 24/24","DAB (Distributeur automatique de billets)"]},{"id":83690002,"lat":43.562749561400004,"lng":6.23623619218,"addr":"Quartier les Plantiers","city":"SALERNES","cp":"83690","fuels":{"Gazole":{"p":2.219,"d":"2026-04-27"},"E85":{"p":0.819,"d":"2026-04-16"},"E10":{"p":2.039,"d":"2026-04-27"},"SP98":{"p":2.149,"d":"2026-04-27"}},"brand":"Intermarché","services":["Station de gonflage","Vente de gaz domestique (Butane, Propane)","DAB (Distributeur automatique de billets)"]},{"id":83170012,"lat":43.4241230141,"lng":5.96988461932,"addr":"AUTOROUTE A8 - AIRE DE CAMBARETTE SUD - TERRASSES DE PROVENCE CENTRE","city":"BRIGNOLES","cp":"83170","fuels":{"Gazole":{"p":2.09,"d":"2026-05-01"},"E85":{"p":0.999,"d":"2026-05-01"},"E10":{"p":1.99,"d":"2026-05-01"},"SP98":{"p":1.99,"d":"2026-05-01"}},"brand":"TotalEnergies","services":["Toilettes publiques","Douches","Boutique alimentaire","Boutique non alimentaire","Restauration à emporter","Restauration sur place","Bar","Station de gonflage","Carburant additivé","Aire de camping-cars","Piste poids lourds","Espace bébé","DAB (Distributeur automatique de billets)"]},{"id":83160008,"lat":43.134,"lng":5.983,"addr":"ANGLE AV PASTEUR ET RN 97","city":"TOULON LA VALETTE","cp":"83160","fuels":{"Gazole":{"p":2.191,"d":"2026-04-23"},"E10":{"p":2.004,"d":"2026-04-24"},"SP98":{"p":2.117,"d":"2026-04-23"}},"brand":"Auchan","services":["Vente de gaz domestique (Butane, Propane)","Wifi","DAB (Distributeur automatique de billets)"]},{"id":83320002,"lat":43.092855,"lng":6.079276999999999,"addr":"QUARTIER ST VINCENT - RN 559","city":"CARQUEIRANNE","cp":"83320","fuels":{"Gazole":{"p":2.19,"d":"2026-04-29"},"E10":{"p":2.04,"d":"2026-04-29"},"SP98":{"p":2.162,"d":"2026-04-29"}},"brand":"Intermarché","h24":true,"services":["Automate CB 24/24"]},{"id":83310007,"lat":43.249,"lng":6.535,"addr":"Avenue Sigismond Coulet","city":"COGOLIN","cp":"83310","fuels":{"Gazole":{"p":2.157,"d":"2026-04-30"},"SP95":{"p":2.079,"d":"2026-04-30"},"E85":{"p":0.882,"d":"2026-04-30"},"E10":{"p":1.989,"d":"2026-04-30"},"SP98":{"p":2.099,"d":"2026-04-30"}},"brand":"Leclerc","h24":true,"services":["Laverie","Station de gonflage","Piste poids lourds","Lavage automatique","Lavage manuel","Vente de gaz domestique (Butane, Propane)","Automate CB 24/24","DAB (Distributeur automatique de billets)"]},{"id":83400006,"lat":43.11303358471601,"lng":6.1163160143735,"addr":"rue mario benard","city":"HYèRES","cp":"83400","fuels":{"Gazole":{"p":2.159,"d":"2026-04-28"},"SP95":{"p":2.069,"d":"2026-04-27"},"E10":{"p":1.959,"d":"2026-04-28"}},"brand":"Leclerc","services":["Boutique alimentaire","Boutique non alimentaire","Station de gonflage","Vente de gaz domestique (Butane, Propane)","DAB (Distributeur automatique de billets)"]},{"id":83190004,"lat":43.133,"lng":5.846,"addr":"427 Avenue de la Résistance","city":"Ollioules","cp":"83190","fuels":{"Gazole":{"p":2.249,"d":"2026-03-25"},"SP95":{"p":2.119,"d":"2026-03-25"},"SP98":{"p":2.169,"d":"2026-03-25"}},"brand":"Avia","h24":true,"services":["Boutique alimentaire","Station de gonflage","Carburant additivé","Piste poids lourds","Lavage automatique","Vente de gaz domestique (Butane, Propane)","Automate CB 24/24"]},{"id":83170003,"lat":43.406,"lng":6.073,"addr":"AV DE LA LIBERATION","city":"Brignoles","cp":"83170","fuels":{"Gazole":{"p":2.178,"d":"2026-05-01"},"E85":{"p":0.948,"d":"2026-05-01"},"E10":{"p":2.008,"d":"2026-05-01"},"SP98":{"p":2.088,"d":"2026-05-01"}},"brand":"Esso"},{"id":83220002,"lat":43.107,"lng":6.027,"addr":"157 Avenue Ganzin","city":"Le Pradet","cp":"83220","fuels":{"Gazole":{"p":2.205,"d":"2026-05-01"},"E10":{"p":2.008,"d":"2026-05-01"},"SP98":{"p":2.088,"d":"2026-05-01"}},"brand":"Esso"},{"id":83490002,"lat":43.468,"lng":6.549,"addr":"1068 ROUTE D'AIX","city":"Le Muy","cp":"83490","fuels":{"Gazole":{"p":2.192,"d":"2026-05-01"},"E85":{"p":0.999,"d":"2026-05-01"},"E10":{"p":2.004,"d":"2026-05-01"},"SP98":{"p":2.084,"d":"2026-05-01"}},"brand":"Esso"},{"id":83490005,"lat":43.47084099999999,"lng":6.5665569999999995,"addr":"AVENUE DE LA REPUBLIQUE - C.C LES JONQUIERES","city":"LE MUY","cp":"83490","fuels":{"Gazole":{"p":2.199,"d":"2026-04-24"},"E10":{"p":1.99,"d":"2026-04-24"},"SP98":{"p":2.149,"d":"2026-04-24"}},"brand":"Intermarché","h24":true,"services":["Automate CB 24/24"]},{"id":83240007,"lat":43.184,"lng":6.543,"addr":"AVENUE DE SAINT-RAPHAEL","city":"Cavalaire-sur-Mer","cp":"83240","fuels":{"Gazole":{"p":2.329,"d":"2026-04-14"},"SP95":{"p":2.129,"d":"2026-04-15"},"E10":{"p":2.099,"d":"2026-04-15"}},"brand":"Avia","h24":true,"services":["Relais colis","Boutique non alimentaire","Station de gonflage","Lavage automatique","Lavage manuel","Vente de gaz domestique (Butane, Propane)","Vente d'additifs carburants","Automate CB 24/24"]},{"id":83600013,"lat":43.541,"lng":6.786,"addr":"A8 AIRE DE L'ESTEREL","city":"Les Adrets-de-l'Estérel","cp":"83600","fuels":{"Gazole":{"p":2.24,"d":"2026-04-21"},"E85":{"p":0.999,"d":"2026-02-24"},"GPLc":{"p":1.04,"d":"2026-04-10"},"E10":{"p":2.1,"d":"2026-04-24"},"SP98":{"p":2.15,"d":"2026-04-24"}},"brand":"Leclerc","h24":true,"services":["Toilettes publiques","Douches","Boutique alimentaire","Boutique non alimentaire","Restauration à emporter","Restauration sur place","Station de gonflage","Carburant additivé","Piste poids lourds","Espace bébé","Bornes électriques","Wifi","Automate CB 24/24"]},{"id":83560011,"lat":43.61,"lng":5.755,"addr":"QUARTIER SAINT ESPRIT","city":"Rians","cp":"83560","fuels":{"Gazole":{"p":2.25,"d":"2026-04-22"},"E10":{"p":1.99,"d":"2026-04-22"},"SP98":{"p":1.99,"d":"2026-04-22"}},"h24":true,"services":["Boutique alimentaire","Boutique non alimentaire","Station de gonflage","Piste poids lourds","Lavage automatique","Lavage manuel","Services réparation / entretien","Vente de gaz domestique (Butane, Propane)","Vente d'additifs carburants","Automate CB 24/24"]},{"id":83330007,"lat":43.167597,"lng":5.829782,"addr":"RN8 QUARTIER LA REPPE","city":"Évenos","cp":"83330","fuels":{"Gazole":{"p":2.249,"d":"2026-04-21"},"E10":{"p":2.059,"d":"2026-04-21"},"SP98":{"p":2.129,"d":"2026-04-21"}},"brand":"Avia","h24":true,"services":["Relais colis","Station de gonflage","Carburant additivé","Piste poids lourds","Vente de gaz domestique (Butane, Propane)","Vente d'additifs carburants","Automate CB 24/24"]},{"id":83136009,"lat":43.316,"lng":6.074,"addr":"Impasse des chênes verts","city":"ROCBARON","cp":"83136","fuels":{"Gazole":{"p":2.179,"d":"2026-04-30"},"E85":{"p":0.765,"d":"2026-03-31"},"E10":{"p":2.049,"d":"2026-04-27"},"SP98":{"p":2.089,"d":"2026-04-27"}},"brand":"Système U","h24":true,"services":["Station de gonflage","Vente de gaz domestique (Butane, Propane)","Automate CB 24/24"]},{"id":83560012,"lat":43.605915,"lng":5.754161999999999,"addr":"1 rue du lavoir neuf","city":"RIANS","cp":"83560","fuels":{"Gazole":{"p":2.389,"d":"2026-04-24"},"E10":{"p":2.069,"d":"2026-04-24"},"SP98":{"p":2.169,"d":"2026-04-24"}},"services":["Laverie","Relais colis","Vente de gaz domestique (Butane, Propane)","Automate CB 24/24"]},{"id":83550006,"lat":43.416,"lng":6.453,"addr":"Aire de PROVENCE VERDON - Autoroute A8","city":"Vidauban","cp":"83550","fuels":{"Gazole":{"p":2.289,"d":"2026-04-28"},"GPLc":{"p":1.206,"d":"2026-04-28"},"E10":{"p":2.1,"d":"2026-04-28"},"SP98":{"p":2.165,"d":"2026-04-28"}},"brand":"Esso","h24":true,"services":["Toilettes publiques","Douches","Boutique alimentaire","Boutique non alimentaire","Restauration à emporter","Restauration sur place","Station de gonflage","Carburant additivé","Aire de camping-cars","Piste poids lourds","Espace bébé","GNV","Bornes électriques","Vente d'additifs carburants","Wifi","Automate CB 24/24"]},{"id":83500005,"lat":43.083,"lng":5.894,"addr":"Chemin de l'evescat aux sablettes","city":"La Seyne-sur-Mer","cp":"83500","fuels":{"Gazole":{"p":2.167,"d":"2026-04-30"},"E85":{"p":0.817,"d":"2026-04-28"},"E10":{"p":2.009,"d":"2026-04-30"},"SP98":{"p":2.099,"d":"2026-04-30"}},"brand":"Leclerc","h24":true,"services":["Carburant additivé","Vente de gaz domestique (Butane, Propane)","Automate CB 24/24","DAB (Distributeur automatique de billets)"]},{"id":83310006,"lat":43.265,"lng":6.541,"addr":"ZA DU GRAND PONT","city":"GRIMAUD","cp":"83310","fuels":{"Gazole":{"p":2.239,"d":"2026-04-29"},"SP95":{"p":2.099,"d":"2026-04-29"},"E85":{"p":0.899,"d":"2026-04-29"}},"brand":"Bergon SAS","h24":true,"services":["Toilettes publiques","Relais colis","Boutique non alimentaire","Restauration à emporter","Vente de fioul domestique","Vente de pétrole lampant","Station de gonflage","Carburant additivé","Lavage automatique","Vente de gaz domestique (Butane, Propane)","Vente d'additifs carburants","Automate CB 24/24"]},{"id":83190005,"lat":43.124,"lng":5.823,"addr":"LE PETIT PLAN","city":"OLLIOULES","cp":"83190","fuels":{"Gazole":{"p":2.158,"d":"2026-04-30"},"E85":{"p":0.819,"d":"2026-04-30"},"E10":{"p":1.99,"d":"2026-04-30"},"SP98":{"p":2.07,"d":"2026-04-30"}},"brand":"Intermarché","h24":true,"services":["Laverie","Boutique alimentaire","Restauration à emporter","Station de gonflage","Vente de gaz domestique (Butane, Propane)","Bornes électriques","Vente d'additifs carburants","Automate CB 24/24","DAB (Distributeur automatique de billets)"]},{"id":83640001,"lat":43.383,"lng":5.706,"addr":"Avenue Augustin Juramy","city":"SAINT-ZACHARIE","cp":"83640","fuels":{"Gazole":{"p":2.129,"d":"2026-04-30"},"SP95":{"p":2.019,"d":"2026-04-30"},"E85":{"p":0.799,"d":"2026-04-24"},"E10":{"p":1.989,"d":"2026-04-30"},"SP98":{"p":2.059,"d":"2026-04-30"}},"brand":"Système U","services":["Boutique alimentaire","Boutique non alimentaire","Restauration à emporter","Vente de pétrole lampant","Carburant additivé","Piste poids lourds","Lavage automatique","Lavage manuel","Vente de gaz domestique (Butane, Propane)","DAB (Distributeur automatique de billets)"]},{"id":83440005,"lat":43.624,"lng":6.702,"addr":"Quartier Les Grandes Terrasses","city":"TOURRETTES","cp":"83440","fuels":{"Gazole":{"p":2.249,"d":"2026-04-25"},"E85":{"p":0.819,"d":"2026-04-21"},"E10":{"p":2.049,"d":"2026-04-25"},"SP98":{"p":2.159,"d":"2026-04-25"}},"brand":"Intermarché","h24":true,"services":["Boutique alimentaire","Station de gonflage","Piste poids lourds","Lavage automatique","Vente de gaz domestique (Butane, Propane)","Automate CB 24/24","DAB (Distributeur automatique de billets)"]},{"id":83330006,"lat":43.166,"lng":5.829,"addr":"RN 8","city":"LE BEAUSSET","cp":"83330","fuels":{"Gazole":{"p":2.219,"d":"2026-04-27"},"E10":{"p":2.069,"d":"2026-04-27"},"SP98":{"p":2.149,"d":"2026-04-27"}},"brand":"Auchan","services":["Relais colis","Boutique alimentaire","Boutique non alimentaire","Station de gonflage","Carburant additivé","Piste poids lourds","Services réparation / entretien","Vente de gaz domestique (Butane, Propane)","Vente d'additifs carburants","Wifi","DAB (Distributeur automatique de billets)"]},{"id":83120001,"lat":43.32,"lng":6.628,"addr":"164 Route du Plan-de-la-Tour","city":"SAINTE-MAXIME","cp":"83120","fuels":{"Gazole":{"p":2.179,"d":"2026-04-24"},"GPLc":{"p":0.909,"d":"2026-04-10"},"E10":{"p":1.989,"d":"2026-04-27"},"SP98":{"p":2.099,"d":"2026-04-27"}},"brand":"Carrefour","h24":true,"services":["Relais colis","Restauration sur place","Station de gonflage","Location de véhicule","Piste poids lourds","Lavage automatique","Vente de gaz domestique (Butane, Propane)","Automate CB 24/24","DAB (Distributeur automatique de billets)"]},{"id":83700004,"lat":43.43285,"lng":6.80672,"addr":"Boulevard de l'Aspé","city":"Saint-Raphaël","cp":"83700","fuels":{"Gazole":{"p":2.155,"d":"2026-04-30"},"SP95":{"p":2.05,"d":"2026-04-29"},"E85":{"p":0.815,"d":"2026-04-22"},"GPLc":{"p":0.99,"d":"2026-04-21"},"E10":{"p":2.02,"d":"2026-04-29"}},"brand":"Leclerc","services":["Toilettes publiques","Boutique alimentaire","Boutique non alimentaire","Restauration à emporter","Vente de fioul domestique","Vente de pétrole lampant","Station de gonflage","Carburant additivé","Piste poids lourds","Lavage automatique","Lavage manuel","Vente de gaz domestique (Butane, Propane)","DAB (Distributeur automatique de billets)"]},{"id":83170014,"lat":43.40971202172899,"lng":6.0618488885197,"addr":"Carrefour de l'Europe","city":"Brignoles","cp":"83170","fuels":{"Gazole":{"p":2.195,"d":"2026-04-30"},"E10":{"p":1.999,"d":"2026-04-28"},"SP98":{"p":2.145,"d":"2026-04-30"}},"brand":"Auchan","h24":true,"services":["Laverie","Vente de gaz domestique (Butane, Propane)","Automate CB 24/24"]},{"id":83500013,"lat":43.108,"lng":5.868,"addr":"278 BD MARECHAL JUIN","city":"La Seyne-sur-Mer","cp":"83500","fuels":{"Gazole":{"p":2.09,"d":"2026-05-01"},"E85":{"p":0.829,"d":"2026-05-01"},"E10":{"p":1.99,"d":"2026-05-01"},"SP98":{"p":1.99,"d":"2026-05-01"}},"brand":"TotalEnergies","services":["Boutique alimentaire","Boutique non alimentaire","Station de gonflage","Carburant additivé","Lavage automatique","Vente de gaz domestique (Butane, Propane)","Bornes électriques","Vente d'additifs carburants","Wifi"]},{"id":83690005,"lat":43.56,"lng":6.25,"addr":"Chemin de la Baume","city":"Salernes","cp":"83690","fuels":{"Gazole":{"p":2.246,"d":"2026-04-29"},"SP95":{"p":2.102,"d":"2026-04-30"}},"brand":"Independent","h24":true,"services":["Station de gonflage","Lavage automatique","Services réparation / entretien","Vente de gaz domestique (Butane, Propane)","Automate CB 24/24"]},{"id":83830002,"lat":43.554,"lng":6.524,"addr":"QUARTIER LE BAS PLAN","city":"FIGANIèRES","cp":"83830","fuels":{"Gazole":{"p":2.299,"d":"2026-04-27"},"E10":{"p":2.099,"d":"2026-04-27"},"SP98":{"p":2.159,"d":"2026-04-27"}},"brand":"Avia","h24":true,"services":["Boutique alimentaire","Boutique non alimentaire","Station de gonflage","Services réparation / entretien","Vente de gaz domestique (Butane, Propane)","Vente d'additifs carburants","Automate CB 24/24"]},{"id":83210008,"lat":43.206357000000004,"lng":6.050923,"addr":"ZAC LA POULASSE","city":"SOLLIES PONT","cp":"83210","fuels":{"Gazole":{"p":2.129,"d":"2026-04-27"},"E85":{"p":0.819,"d":"2026-04-16"},"GPLc":{"p":1.139,"d":"2026-04-29"},"E10":{"p":1.979,"d":"2026-04-30"},"SP98":{"p":2.099,"d":"2026-04-30"}},"h24":true,"services":["Automate CB 24/24"]},{"id":83610002,"lat":43.237279439424,"lng":6.3037097445639,"addr":"23 avenue Jean Aicard","city":"Collobrières","cp":"83610","fuels":{"Gazole":{"p":2.09,"d":"2026-05-01"},"E10":{"p":1.99,"d":"2026-04-20"},"SP98":{"p":1.99,"d":"2026-03-09"}},"brand":"Independent","h24":true,"services":["Automate CB 24/24"]},{"id":83400017,"lat":43.114940470729,"lng":6.110020452270001,"addr":"ZAC DU ROUBAUD","city":"HYERES","cp":"83400","fuels":{"Gazole":{"p":2.159,"d":"2026-04-30"},"E85":{"p":0.819,"d":"2026-04-16"},"GPLc":{"p":1.06,"d":"2026-04-17"},"E10":{"p":1.985,"d":"2026-04-28"},"SP98":{"p":2.098,"d":"2026-04-28"}},"brand":"Intermarché","h24":true,"services":["Automate CB 24/24"]},{"id":83300001,"lat":43.529,"lng":6.472,"addr":"127 Avenue du Gal de GAULLE","city":"DRAGUIGNAN","cp":"83300","fuels":{"Gazole":{"p":2.09,"d":"2026-04-30"},"E85":{"p":0.899,"d":"2026-04-14"},"E10":{"p":1.99,"d":"2026-04-29"}},"brand":"TotalEnergies","services":["Boutique alimentaire","Boutique non alimentaire","Station de gonflage","Carburant additivé","Lavage automatique","Lavage manuel","Vente de gaz domestique (Butane, Propane)"]},{"id":83600027,"lat":43.422,"lng":6.731,"addr":"ROUTE NATIONALE 98","city":"FREJUS","cp":"83600","fuels":{"Gazole":{"p":2.155,"d":"2026-04-29"},"E85":{"p":0.911,"d":"2026-04-30"},"GPLc":{"p":1.099,"d":"2026-04-29"},"E10":{"p":2.053,"d":"2026-04-30"},"SP98":{"p":2.449,"d":"2026-04-30"}},"brand":"Auchan","services":["Station de gonflage","Lavage automatique","Lavage manuel","Vente de gaz domestique (Butane, Propane)","DAB (Distributeur automatique de billets)"]},{"id":83570005,"lat":43.509982222407004,"lng":6.1511814978312005,"addr":"22 Loup à Loup","city":"Cotignac","cp":"83570","fuels":{"Gazole":{"p":2.189,"d":"2026-04-28"},"E10":{"p":1.999,"d":"2026-04-27"},"SP98":{"p":2.109,"d":"2026-04-27"}},"h24":true,"services":["Laverie","Relais colis","Boutique alimentaire","Station de gonflage","Lavage automatique","Lavage manuel","Vente d'additifs carburants","Wifi","Automate CB 24/24"]},{"id":83490001,"lat":43.47,"lng":6.562,"addr":"145 RN 7 station total","city":"LE MUY","cp":"83490","fuels":{"Gazole":{"p":2.25,"d":"2026-04-30"},"E10":{"p":1.99,"d":"2026-04-30"},"SP98":{"p":1.99,"d":"2026-04-30"}},"brand":"TotalEnergies","h24":true,"services":["Boutique alimentaire","Boutique non alimentaire","Bar","Vente de fioul domestique","Station de gonflage","Carburant additivé","Piste poids lourds","Lavage automatique","Lavage manuel","Services réparation / entretien","Vente de gaz domestique (Butane, Propane)","Vente d'additifs carburants","Wifi","Automate CB 24/24","DAB (Distributeur automatique de billets)"]},{"id":83230007,"lat":43.142506,"lng":6.346515,"addr":"1189 AVENUE LOU MISTRAOU","city":"BORMES LES MIMOSAS","cp":"83230","fuels":{"Gazole":{"p":2.159,"d":"2026-04-28"},"E85":{"p":0.818,"d":"2026-04-21"},"E10":{"p":1.988,"d":"2026-04-28"},"SP98":{"p":2.095,"d":"2026-04-28"}},"h24":true,"services":["Boutique non alimentaire","Station de gonflage","Carburant additivé","Lavage automatique","Lavage manuel","Vente de gaz domestique (Butane, Propane)","Vente d'additifs carburants","Automate CB 24/24"]},{"id":83300004,"lat":43.529,"lng":6.471,"addr":"80 Avenue du Général Charles de Gaulle","city":"Draguignan","cp":"83300","fuels":{"Gazole":{"p":2.249,"d":"2026-04-20"},"E85":{"p":0.999,"d":"2026-03-23"},"E10":{"p":2.029,"d":"2026-04-28"},"SP98":{"p":2.109,"d":"2026-04-28"}},"brand":"Avia","h24":true,"services":["Toilettes publiques","Boutique alimentaire","Boutique non alimentaire","Station de gonflage","Carburant additivé","Location de véhicule","Lavage automatique","Lavage manuel","Vente de gaz domestique (Butane, Propane)","Automate CB 24/24"]},{"id":83500001,"lat":43.113,"lng":5.858,"addr":"780,Boulevard de l'Europe","city":"LA SEYNE-SUR-MER","cp":"83500","fuels":{"Gazole":{"p":2.139,"d":"2026-04-30"},"E85":{"p":0.818,"d":"2026-04-16"},"GPLc":{"p":0.999,"d":"2026-04-18"},"E10":{"p":1.999,"d":"2026-04-30"},"SP98":{"p":2.095,"d":"2026-04-30"}},"brand":"Auchan","h24":true,"services":["Station de gonflage","Carburant additivé","Vente de gaz domestique (Butane, Propane)","Automate CB 24/24","DAB (Distributeur automatique de billets)"]},{"id":83910002,"lat":43.496320160055,"lng":5.732130894301901,"addr":"561 ROUTE DE TRETS","city":"POURRIERES","cp":"83910","fuels":{"Gazole":{"p":2.169,"d":"2026-04-27"},"E10":{"p":1.998,"d":"2026-04-13"},"SP98":{"p":2.113,"d":"2026-04-27"}},"h24":true,"services":["Laverie","Relais colis","Location de véhicule","Piste poids lourds","Vente de gaz domestique (Butane, Propane)","Automate CB 24/24"]},{"id":83480007,"lat":43.442207,"lng":6.703716999999999,"addr":"RN 7 LA TUILIERE","city":"Puget-sur-Argens","cp":"83480","fuels":{"Gazole":{"p":2.299,"d":"2026-04-30"},"E10":{"p":2.129,"d":"2026-04-30"},"SP98":{"p":2.229,"d":"2026-04-30"}},"services":["Toilettes publiques","Boutique alimentaire","Station de gonflage","Carburant additivé","Vente de gaz domestique (Butane, Propane)"]},{"id":83720005,"lat":43.513,"lng":6.477,"addr":"RN 555 LA FOUX","city":"Trans-en-Provence","cp":"83720","fuels":{"Gazole":{"p":2.09,"d":"2026-05-01"},"E85":{"p":0.879,"d":"2026-05-01"},"E10":{"p":1.99,"d":"2026-05-01"},"SP98":{"p":1.99,"d":"2026-05-01"}},"brand":"TotalEnergies","h24":true,"services":["Boutique alimentaire","Boutique non alimentaire","Restauration à emporter","Station de gonflage","Carburant additivé","Lavage automatique","Vente de gaz domestique (Butane, Propane)","Vente d'additifs carburants","Wifi","Automate CB 24/24"]}]