[{"id":87570002,"lat":45.89885,"lng":1.31178,"addr":"87 rue jean monet","city":"RILHAC RANCON","cp":"87570","fuels":{"Gazole":{"p":2.249,"d":"2026-04-30"},"SP95":{"p":2.099,"d":"2026-04-16"},"SP98":{"p":2.149,"d":"2026-04-04"}},"brand":"Carrefour","services":["Restauration à emporter","Station de gonflage","Lavage manuel","Vente de gaz domestique (Butane, Propane)","DAB (Distributeur automatique de billets)"]},{"id":87120005,"lat":45.738215264962,"lng":1.7352501557588,"addr":"1, rue Léon Jouhaud - Claud","city":"Eymoutiers","cp":"87120","fuels":{"Gazole":{"p":2.199,"d":"2026-04-29"},"E10":{"p":1.999,"d":"2026-04-29"},"SP98":{"p":2.029,"d":"2026-04-21"}},"brand":"Intermarché","h24":true,"services":["Laverie","Station de gonflage","Piste poids lourds","Automate CB 24/24"]},{"id":87160002,"lat":46.313,"lng":1.419,"addr":"AUTOROUTE A 20","city":"Saint-Sulpice-les-Feuilles","cp":"87160","fuels":{"Gazole":{"p":2.346,"d":"2026-04-30"},"GPLc":{"p":1.099,"d":"2026-04-30"},"E10":{"p":2.085,"d":"2026-04-30"},"SP98":{"p":2.185,"d":"2026-04-30"}},"brand":"Esso","services":["Toilettes publiques","Douches","Boutique alimentaire","Boutique non alimentaire","Restauration à emporter","Restauration sur place","Bar","Station de gonflage","Carburant additivé","Aire de camping-cars","Piste poids lourds","Espace bébé"]},{"id":87280002,"lat":45.914,"lng":1.293,"addr":"AUTOROUTE A 20","city":"Limoges","cp":"87280","fuels":{"Gazole":{"p":2.269,"d":"2026-04-30"},"E10":{"p":2.08,"d":"2026-04-30"},"SP98":{"p":2.155,"d":"2026-04-30"}},"brand":"Esso","services":["Toilettes publiques","Douches","Boutique alimentaire","Restauration à emporter","Restauration sur place","Station de gonflage","Carburant additivé","Piste poids lourds","Espace bébé"]},{"id":87600004,"lat":45.833,"lng":0.831,"addr":"ZAC de la fabrique, Rue de la Gare","city":"Rochechouart","cp":"87600","fuels":{"Gazole":{"p":2.149,"d":"2026-04-30"},"E85":{"p":0.818,"d":"2026-04-18"},"E10":{"p":1.979,"d":"2026-04-30"},"SP98":{"p":2.079,"d":"2026-04-30"}},"brand":"Leclerc","h24":true,"services":["Automate CB 24/24"]},{"id":87000029,"lat":45.82156019051799,"lng":1.2116455302687,"addr":"Ancienne Route d'Aixe","city":"Limoges","cp":"87000","fuels":{"Gazole":{"p":2.25,"d":"2026-04-28"},"E85":{"p":0.875,"d":"2026-04-28"},"E10":{"p":1.99,"d":"2026-04-28"}},"brand":"TotalEnergies","h24":true,"services":["Automate CB 24/24"]},{"id":87000023,"lat":45.84,"lng":1.258,"addr":"2 Place Sadi Carnot","city":"LIMOGES","cp":"87100","fuels":{"Gazole":{"p":2.369,"d":"2026-03-24"},"E10":{"p":2.089,"d":"2026-04-30"},"SP98":{"p":2.239,"d":"2026-04-30"}},"brand":"Esso","h24":true,"services":["Relais colis","Station de gonflage","Carburant additivé","Automate CB 24/24"]},{"id":87500004,"lat":45.5,"lng":1.2,"addr":"Route de Brive","city":"Saint-Yrieix-la-Perche","cp":"87500","fuels":{"Gazole":{"p":2.168,"d":"2026-04-29"},"SP95":{"p":2.039,"d":"2026-04-22"},"E85":{"p":0.818,"d":"2026-04-15"},"E10":{"p":1.998,"d":"2026-04-22"},"SP98":{"p":2.098,"d":"2026-04-22"}},"brand":"Intermarché","h24":true,"services":["Relais colis","Restauration sur place","Station de gonflage","Location de véhicule","Piste poids lourds","Vente de gaz domestique (Butane, Propane)","Automate CB 24/24"]},{"id":87130001,"lat":45.70942,"lng":1.59823,"addr":"LE ROUCHILLOUX","city":"CHâTEAUNEUF-LA-FORêT","cp":"87130","fuels":{"Gazole":{"p":2.159,"d":"2026-04-29"},"E85":{"p":0.799,"d":"2026-04-17"},"E10":{"p":1.999,"d":"2026-04-27"},"SP98":{"p":2.029,"d":"2026-04-29"}},"brand":"Système U"},{"id":87300003,"lat":46.129,"lng":1.055,"addr":"1 rue René Coty","city":"Bellac","cp":"87300","fuels":{"Gazole":{"p":2.166,"d":"2026-04-28"},"E10":{"p":1.993,"d":"2026-04-30"},"SP98":{"p":2.109,"d":"2026-04-30"}},"brand":"Intermarché","services":["Station de gonflage","Piste poids lourds","Vente de gaz domestique (Butane, Propane)","DAB (Distributeur automatique de billets)"]},{"id":87310001,"lat":45.769263932879994,"lng":0.9641147166716499,"addr":"Rue de la Borie","city":"Saint Laurent Sur Gorre","cp":"87310","fuels":{"Gazole":{"p":2.289,"d":"2026-04-29"},"SP95":{"p":2.149,"d":"2026-04-29"},"E10":{"p":2.039,"d":"2026-04-29"}},"h24":true,"services":["Automate CB 24/24","DAB (Distributeur automatique de billets)"]},{"id":87220002,"lat":45.78,"lng":1.306,"addr":"ROUTE DE TOULOUSE","city":"BOISSEUIL","cp":"87220","fuels":{"Gazole":{"p":2.147,"d":"2026-04-30"},"SP95":{"p":2.048,"d":"2026-04-30"},"E85":{"p":0.75,"d":"2026-04-30"},"GPLc":{"p":1,"d":"2026-04-30"},"E10":{"p":1.991,"d":"2026-04-30"},"SP98":{"p":2.115,"d":"2026-04-30"}},"brand":"Carrefour","h24":true,"services":["Vente de gaz domestique (Butane, Propane)","Automate CB 24/24","DAB (Distributeur automatique de billets)"]},{"id":87600001,"lat":45.82066,"lng":0.82571,"addr":"4 ROUTE DE NONTRON","city":"Rochechouart","cp":"87600","fuels":{"Gazole":{"p":2.09,"d":"2026-05-01"},"E10":{"p":1.99,"d":"2026-04-22"},"SP98":{"p":1.99,"d":"2026-04-05"}},"brand":"TotalEnergies","services":["Boutique alimentaire","Boutique non alimentaire","Vente de fioul domestique","Station de gonflage","Carburant additivé","Piste poids lourds","Lavage automatique","Lavage manuel","Services réparation / entretien","DAB (Distributeur automatique de billets)"]},{"id":87190001,"lat":46.215,"lng":1.166,"addr":"Avenue Jules Courivaud","city":"MAGNAC-LAVAL","cp":"87190","fuels":{"Gazole":{"p":2.169,"d":"2026-04-30"},"SP95":{"p":2.029,"d":"2026-04-30"},"E10":{"p":1.979,"d":"2026-04-30"}},"brand":"Intermarché","h24":true,"services":["Toilettes publiques","Boutique alimentaire","Restauration à emporter","Location de véhicule","Piste poids lourds","Lavage manuel","Vente de gaz domestique (Butane, Propane)","Vente d'additifs carburants","Automate CB 24/24","DAB (Distributeur automatique de billets)"]},{"id":87170001,"lat":45.81,"lng":1.219,"addr":"3 Avenue Louis Aragon","city":"ISLE","cp":"87170","fuels":{"Gazole":{"p":2.178,"d":"2026-04-28"},"E10":{"p":1.979,"d":"2026-04-28"},"SP98":{"p":2.088,"d":"2026-04-28"}},"brand":"Système U","h24":true,"services":["Vente de fioul domestique","Station de gonflage","Vente de gaz domestique (Butane, Propane)","Automate CB 24/24"]},{"id":87290002,"lat":46.198,"lng":1.306,"addr":"Route de Lavergne","city":"Saint-Sornin-Leulac","cp":"87290","fuels":{"Gazole":{"p":2.22,"d":"2026-04-23"},"E10":{"p":2.08,"d":"2026-04-23"},"SP98":{"p":2.16,"d":"2026-04-23"}},"h24":true,"services":["Automate CB 24/24"]},{"id":87500007,"lat":45.521332,"lng":1.212822,"addr":"Le Clos de Bart","city":"Saint-Yrieix-la-Perche","cp":"87500","fuels":{"Gazole":{"p":2.169,"d":"2026-04-28"},"E10":{"p":1.999,"d":"2026-04-22"}},"brand":"Intermarché","h24":true,"services":["Relais colis","Lavage automatique","Vente de gaz domestique (Butane, Propane)","Wifi","Automate CB 24/24"]},{"id":87300002,"lat":46.126,"lng":1.044,"addr":"18 Route de Poitiers","city":"BELLAC","cp":"87300","fuels":{"Gazole":{"p":2.31,"d":"2026-04-30"},"SP98":{"p":2.245,"d":"2026-04-30"}},"brand":"TotalEnergies","h24":true,"services":["Laverie","Boutique non alimentaire","Vente de fioul domestique","Station de gonflage","Carburant additivé","Piste poids lourds","Lavage automatique","Lavage manuel","Services réparation / entretien","Automate CB 24/24"]},{"id":87270004,"lat":45.865,"lng":1.238,"addr":"Avenue de Limoges","city":"COUZEIX","cp":"87270","fuels":{"Gazole":{"p":2.249,"d":"2026-05-01"},"E10":{"p":2.089,"d":"2026-05-01"},"SP98":{"p":2.239,"d":"2026-05-01"}},"brand":"Esso","h24":true,"services":["Relais colis","Station de gonflage","Carburant additivé","Piste poids lourds","Automate CB 24/24"]},{"id":87220001,"lat":45.812,"lng":1.322,"addr":"CC LE MAS CERISE","city":"FEYTIAT","cp":"87220","fuels":{"Gazole":{"p":2.161,"d":"2026-04-30"},"E85":{"p":0.814,"d":"2026-04-30"},"E10":{"p":2.036,"d":"2026-04-30"},"SP98":{"p":2.103,"d":"2026-04-30"}},"brand":"Système U","h24":true,"services":["Toilettes publiques","Laverie","Relais colis","Boutique non alimentaire","Restauration à emporter","Restauration sur place","Location de véhicule","Lavage automatique","Vente de gaz domestique (Butane, Propane)","Bornes électriques","Automate CB 24/24","DAB (Distributeur automatique de billets)"]},{"id":87280008,"lat":45.907,"lng":1.297,"addr":"25 Avenue Georges Guingouin","city":"LIMOGES","cp":"87280","fuels":{"Gazole":{"p":2.09,"d":"2026-05-01"},"E10":{"p":1.99,"d":"2026-05-01"}},"brand":"TotalEnergies","services":["Boutique alimentaire","Boutique non alimentaire","Restauration à emporter","Vente de fioul domestique","Station de gonflage","Carburant additivé","Piste poids lourds","Lavage automatique","Vente de gaz domestique (Butane, Propane)","DAB (Distributeur automatique de billets)"]},{"id":87440001,"lat":45.71,"lng":0.763,"addr":"Route de Rochechouart","city":"SAINT-MATHIEU","cp":"87440","fuels":{"Gazole":{"p":2.109,"d":"2026-04-28"},"SP95":{"p":1.989,"d":"2026-04-28"},"E10":{"p":1.94,"d":"2026-04-22"},"SP98":{"p":2.029,"d":"2026-04-22"}},"brand":"Casino"},{"id":87700001,"lat":45.795,"lng":1.126,"addr":"3 Avenue Pasteur","city":"Aixe-sur-Vienne","cp":"87700","fuels":{"Gazole":{"p":2.179,"d":"2026-04-21"},"E10":{"p":1.999,"d":"2026-04-28"},"SP98":{"p":2.079,"d":"2026-04-28"}},"brand":"U","h24":true,"services":["Boutique alimentaire","Boutique non alimentaire","Vente de fioul domestique","Vente de gaz domestique (Butane, Propane)","Automate CB 24/24","DAB (Distributeur automatique de billets)"]},{"id":23300007,"lat":45.827,"lng":1.259,"addr":"4 avenue baudin","city":"Limoges","cp":"87000","fuels":{"Gazole":{"p":2.299,"d":"2026-04-30"},"E85":{"p":0.875,"d":"2026-04-30"},"E10":{"p":2.059,"d":"2026-04-30"},"SP98":{"p":2.129,"d":"2026-04-30"}},"brand":"Avia","h24":true,"services":["Boutique alimentaire","Boutique non alimentaire","Restauration à emporter","Restauration sur place","Station de gonflage","Carburant additivé","Bornes électriques","Vente d'additifs carburants","Automate CB 24/24"]},{"id":87500001,"lat":45.507,"lng":1.202,"addr":"13 Avenue de Périgueux","city":"Saint-Yrieix-la-Perche","cp":"87500","fuels":{"Gazole":{"p":2.339,"d":"2026-04-16"},"E10":{"p":2.038,"d":"2026-04-14"},"SP98":{"p":2.125,"d":"2026-04-07"}},"brand":"Système U","h24":true,"services":["Boutique alimentaire","Boutique non alimentaire","Vente de fioul domestique","Vente de gaz domestique (Butane, Propane)","Automate CB 24/24","DAB (Distributeur automatique de billets)"]},{"id":87120003,"lat":45.739,"lng":1.739,"addr":"1 Promenade des Sports","city":"Eymoutiers","cp":"87120","fuels":{"Gazole":{"p":2.22,"d":"2026-04-28"},"SP95":{"p":1.96,"d":"2026-04-22"}},"brand":"TotalEnergies","services":["Toilettes publiques","Boutique non alimentaire","Vente de fioul domestique","Station de gonflage","Carburant additivé","Piste poids lourds","Lavage manuel","Services réparation / entretien","Vente de gaz domestique (Butane, Propane)","Bornes électriques","Vente d'additifs carburants"]},{"id":87510001,"lat":45.92,"lng":1.169,"addr":"Rue des Rives","city":"NIEUL","cp":"87510","fuels":{"Gazole":{"p":2.169,"d":"2026-04-24"},"E10":{"p":2.079,"d":"2026-04-30"},"SP98":{"p":2.159,"d":"2026-04-30"}},"h24":true,"services":["Laverie","Station de gonflage","Lavage automatique","Lavage manuel","Vente de gaz domestique (Butane, Propane)","Automate CB 24/24","DAB (Distributeur automatique de billets)"]},{"id":87000030,"lat":45.837,"lng":1.278,"addr":"38, Avenue des Casseaux","city":"Limoges","cp":"87000","fuels":{"Gazole":{"p":2.165,"d":"2026-04-29"},"GPLc":{"p":1.017,"d":"2026-03-24"},"E10":{"p":1.965,"d":"2026-04-29"},"SP98":{"p":2.073,"d":"2026-04-29"}},"brand":"Intermarché","h24":true,"services":["Laverie","Station de gonflage","Piste poids lourds","Vente de gaz domestique (Butane, Propane)","Bornes électriques","Automate CB 24/24"]},{"id":87100007,"lat":45.838,"lng":1.219,"addr":"86 Rue Abbe Pierre","city":"LIMOGES","cp":"87100","fuels":{"Gazole":{"p":2.19,"d":"2026-04-29"},"E85":{"p":0.818,"d":"2026-04-17"},"E10":{"p":1.991,"d":"2026-04-29"},"SP98":{"p":2.077,"d":"2026-04-24"}},"brand":"Intermarché","h24":true,"services":["Laverie","Relais colis","Station de gonflage","Location de véhicule","Lavage automatique","Lavage manuel","Vente de gaz domestique (Butane, Propane)","Automate CB 24/24","DAB (Distributeur automatique de billets)"]},{"id":87000028,"lat":45.818457256025,"lng":1.2492994846559,"addr":"26 RUE WAGNER","city":"LIMOGES","cp":"87000","fuels":{"Gazole":{"p":2.145,"d":"2026-04-27"},"SP95":{"p":2.036,"d":"2026-04-27"},"E10":{"p":2.009,"d":"2026-04-28"}},"brand":"Leclerc"},{"id":87000004,"lat":45.825,"lng":1.228,"addr":"282 Rue François Perrin","city":"Limoges","cp":"87000","fuels":{"Gazole":{"p":2.176,"d":"2026-04-30"},"E10":{"p":2.054,"d":"2026-04-30"},"SP98":{"p":2.133,"d":"2026-04-30"}},"brand":"Système U","h24":true,"services":["Boutique alimentaire","Boutique non alimentaire","Vente de gaz domestique (Butane, Propane)","Wifi","Automate CB 24/24"]},{"id":87150005,"lat":45.732,"lng":0.87,"addr":"1 RUE JEAN SEGUREL","city":"ORADOUR SUR VAYRES","cp":"87150","fuels":{"Gazole":{"p":2.159,"d":"2026-04-30"},"SP95":{"p":2.045,"d":"2026-04-30"},"SP98":{"p":2.089,"d":"2026-04-30"}},"brand":"Système U","h24":true,"services":["Laverie","Boutique alimentaire","Location de véhicule","Piste poids lourds","Lavage automatique","Lavage manuel","Vente de gaz domestique (Butane, Propane)","Automate CB 24/24"]},{"id":87230002,"lat":45.653,"lng":0.981,"addr":"14 avenue François Mitterrand","city":"Châlus","cp":"87230","fuels":{"Gazole":{"p":2.179,"d":"2026-04-30"},"SP95":{"p":2.047,"d":"2026-04-30"},"SP98":{"p":2.089,"d":"2026-04-27"}},"brand":"Intermarché","h24":true,"services":["Laverie","Relais colis","Station de gonflage","Location de véhicule","Piste poids lourds","Vente de gaz domestique (Butane, Propane)","Automate CB 24/24","DAB (Distributeur automatique de billets)"]},{"id":87280003,"lat":45.870008956300005,"lng":1.2684087631599998,"addr":"Rue Henry Giffard","city":"LIMOGES","cp":"87280","fuels":{"Gazole":{"p":2.145,"d":"2026-04-29"},"SP95":{"p":2.033,"d":"2026-04-28"},"E85":{"p":0.75,"d":"2026-04-17"},"E10":{"p":1.99,"d":"2026-04-27"},"SP98":{"p":2.056,"d":"2026-04-29"}},"brand":"Leclerc","services":["Toilettes publiques","Boutique alimentaire","Boutique non alimentaire","Restauration sur place","Station de gonflage","Location de véhicule","Vente de gaz domestique (Butane, Propane)","DAB (Distributeur automatique de billets)"]},{"id":87000027,"lat":45.812,"lng":1.282,"addr":"270 ROUTE DE TOULOUSE","city":"LIMOGES","cp":"87000","fuels":{"Gazole":{"p":2.09,"d":"2026-05-01"},"E85":{"p":0.839,"d":"2026-05-01"},"GPLc":{"p":1.019,"d":"2026-05-01"}},"brand":"TotalEnergies","services":["Boutique alimentaire","Restauration à emporter","Station de gonflage","Carburant additivé","Lavage automatique","Lavage manuel","Vente de gaz domestique (Butane, Propane)","Vente d'additifs carburants","Wifi"]},{"id":87700004,"lat":45.7909,"lng":1.13539,"addr":"RUE JEANNE PICHENAUD","city":"Aixe-sur-Vienne","cp":"87700","fuels":{"Gazole":{"p":2.149,"d":"2026-04-28"},"SP95":{"p":2.059,"d":"2026-04-09"}},"brand":"Intermarché","services":["Station de gonflage","Lavage automatique","Vente de gaz domestique (Butane, Propane)"]},{"id":87300001,"lat":46.12967,"lng":1.05399,"addr":"ROUTE DU DORAT","city":"BELLAC","cp":"87300","fuels":{"Gazole":{"p":2.194,"d":"2026-04-30"},"SP95":{"p":2.072,"d":"2026-04-30"},"SP98":{"p":2.152,"d":"2026-04-30"}},"brand":"Carrefour","services":["Station de gonflage","Vente de gaz domestique (Butane, Propane)","DAB (Distributeur automatique de billets)"]},{"id":87100010,"lat":45.8214654804,"lng":1.24194302558,"addr":"BOULEVARD DE BEL AIR","city":"LIMOGES","cp":"87100","fuels":{"Gazole":{"p":2.09,"d":"2026-05-01"},"E85":{"p":0.879,"d":"2026-05-01"},"E10":{"p":1.99,"d":"2026-05-01"},"SP98":{"p":1.99,"d":"2026-05-01"}},"brand":"TotalEnergies","services":["Boutique alimentaire","Boutique non alimentaire","Station de gonflage","Carburant additivé","Piste poids lourds","Lavage automatique","Services réparation / entretien","DAB (Distributeur automatique de billets)"]},{"id":87280005,"lat":45.881,"lng":1.292,"addr":"ZAC Beaubreuil","city":"LIMOGES","cp":"87280","fuels":{"Gazole":{"p":2.146,"d":"2026-04-30"},"E85":{"p":0.751,"d":"2026-04-30"},"GPLc":{"p":1.019,"d":"2026-04-30"},"E10":{"p":1.991,"d":"2026-04-30"},"SP98":{"p":2.07,"d":"2026-04-30"}},"h24":true,"services":["Boutique alimentaire","Boutique non alimentaire","Restauration sur place","Station de gonflage","Carburant additivé","Piste poids lourds","Vente de gaz domestique (Butane, Propane)","Automate CB 24/24","DAB (Distributeur automatique de billets)"]},{"id":87140002,"lat":46.007,"lng":1.169,"addr":"17 RUE DU COLLEGE","city":"NANTIAT","cp":"87140","fuels":{"Gazole":{"p":2.199,"d":"2026-04-28"},"SP95":{"p":2.067,"d":"2026-04-28"},"SP98":{"p":2.122,"d":"2026-04-28"}},"brand":"Système U","h24":true,"services":["Laverie","Relais colis","Boutique alimentaire","Location de véhicule","Vente de gaz domestique (Butane, Propane)","Vente d'additifs carburants","Wifi","Automate CB 24/24"]},{"id":87100006,"lat":45.843,"lng":1.252,"addr":"Avenue Émile Labussière","city":"Limoges","cp":"87100","fuels":{"Gazole":{"p":2.169,"d":"2026-04-30"},"E85":{"p":0.749,"d":"2026-04-23"},"E10":{"p":2.065,"d":"2026-04-30"},"SP98":{"p":2.099,"d":"2026-04-30"}},"brand":"Système U"},{"id":87100001,"lat":45.84,"lng":1.235,"addr":"14 Rue Georges BRIQUET","city":"LIMOGES","cp":"87100","fuels":{"Gazole":{"p":2.145,"d":"2026-04-30"},"E85":{"p":0.749,"d":"2026-04-30"},"E10":{"p":2.025,"d":"2026-04-30"},"SP98":{"p":2.09,"d":"2026-04-30"}},"brand":"Système U","h24":true,"services":["Toilettes publiques","Boutique alimentaire","Boutique non alimentaire","Restauration à emporter","Restauration sur place","Bar","Vente de fioul domestique","Location de véhicule","Vente de gaz domestique (Butane, Propane)","Automate CB 24/24","DAB (Distributeur automatique de billets)"]},{"id":87210003,"lat":46.21632,"lng":1.08409,"addr":"Faubourg de la Porte de Dinsac","city":"LE DORAT","cp":"87210","fuels":{"Gazole":{"p":2.169,"d":"2026-04-30"},"SP95":{"p":2.029,"d":"2026-04-30"},"E10":{"p":1.979,"d":"2026-04-30"}},"brand":"Intermarché","services":["Boutique alimentaire","Vente de gaz domestique (Butane, Propane)"]},{"id":87250001,"lat":46.13182,"lng":1.37253,"addr":"RN 20 - Croix du Breuil","city":"Bessines-sur-Gartempe","cp":"87250","fuels":{"Gazole":{"p":2.189,"d":"2026-04-30"},"E10":{"p":2.019,"d":"2026-04-30"},"SP98":{"p":2.129,"d":"2026-04-30"}},"brand":"Intermarché","services":["Vente de gaz domestique (Butane, Propane)","DAB (Distributeur automatique de billets)"]},{"id":87220003,"lat":45.813,"lng":1.332,"addr":"47, Avenue Winston Churchill","city":"FEYTIAT","cp":"87220","fuels":{"Gazole":{"p":2.25,"d":"2026-04-29"},"SP95":{"p":1.99,"d":"2026-04-28"},"E10":{"p":1.99,"d":"2026-04-28"}},"brand":"TotalEnergies","services":["Relais colis","Boutique alimentaire","Boutique non alimentaire","Station de gonflage","Carburant additivé","Piste poids lourds","Lavage manuel","Vente de gaz domestique (Butane, Propane)"]},{"id":87500005,"lat":45.504,"lng":1.201,"addr":"Avenue de Périgueux","city":"SAINT-YRIEIX-LA-PERCHE","cp":"87500","fuels":{"Gazole":{"p":2.165,"d":"2026-04-29"},"SP95":{"p":2.045,"d":"2026-04-28"},"SP98":{"p":2.095,"d":"2026-04-28"}},"brand":"Intermarché","h24":true,"services":["Vente de gaz domestique (Butane, Propane)","Automate CB 24/24"]},{"id":87320001,"lat":46.232,"lng":0.898,"addr":"23 BEAULIEU","city":"Bussière-Poitevine","cp":"87320","fuels":{"Gazole":{"p":2.339,"d":"2026-04-17"},"SP95":{"p":2.184,"d":"2026-04-03"}},"brand":"Avia","h24":true,"services":["Carburant additivé","Lavage automatique","Lavage manuel","Services réparation / entretien","Vente de gaz domestique (Butane, Propane)","Automate CB 24/24"]},{"id":87100012,"lat":45.838,"lng":1.232,"addr":"100 boulevard de la borie","city":"Limoges","cp":"87100","fuels":{"Gazole":{"p":2.219,"d":"2026-04-29"},"E85":{"p":0.825,"d":"2026-04-29"},"E10":{"p":2.059,"d":"2026-04-29"}},"brand":"Avia","h24":true,"services":["Carburant additivé","Lavage automatique","Automate CB 24/24"]},{"id":87240001,"lat":45.956,"lng":1.398,"addr":"Rue de la Libération","city":"Ambazac","cp":"87240","fuels":{"Gazole":{"p":2.186,"d":"2026-04-30"},"E85":{"p":0.75,"d":"2026-04-24"},"E10":{"p":2.065,"d":"2026-04-27"},"SP98":{"p":2.145,"d":"2026-04-27"}},"brand":"Système U","services":["Boutique alimentaire","Boutique non alimentaire","Vente de fioul domestique","Station de gonflage","Location de véhicule","Piste poids lourds","Vente de gaz domestique (Butane, Propane)","DAB (Distributeur automatique de billets)"]},{"id":87150002,"lat":45.708,"lng":0.845,"addr":"32 Rue de Saint-Mathieu","city":"CUSSAC","cp":"87150","fuels":{"Gazole":{"p":2.119,"d":"2026-04-27"},"SP95":{"p":1.999,"d":"2026-04-27"},"E10":{"p":1.949,"d":"2026-04-27"},"SP98":{"p":2.059,"d":"2026-04-27"}},"brand":"Intermarché","h24":true,"services":["Laverie","Relais colis","Station de gonflage","Location de véhicule","Lavage automatique","Lavage manuel","Vente de gaz domestique (Butane, Propane)","Automate CB 24/24","DAB (Distributeur automatique de billets)"]},{"id":87500003,"lat":45.516,"lng":1.199,"addr":"AVENUE JEAN PIERRE TIMBAUT","city":"SAINT-YRIEIX-LA-PERCHE","cp":"87500","fuels":{"Gazole":{"p":2.09,"d":"2026-05-01"},"SP95":{"p":1.99,"d":"2026-04-23"},"E10":{"p":1.99,"d":"2026-04-23"}},"brand":"TotalEnergies","h24":true,"services":["Toilettes publiques","Boutique alimentaire","Boutique non alimentaire","Station de gonflage","Carburant additivé","Piste poids lourds","Lavage manuel","Vente de gaz domestique (Butane, Propane)","Automate CB 24/24"]},{"id":87000002,"lat":45.82,"lng":1.224,"addr":"Avenue du Roussillon","city":"LIMOGES","cp":"87000","fuels":{"Gazole":{"p":2.175,"d":"2026-04-29"},"SP95":{"p":2.049,"d":"2026-04-29"},"SP98":{"p":2.088,"d":"2026-04-29"}},"brand":"Carrefour","h24":true,"services":["Vente de gaz domestique (Butane, Propane)","Automate CB 24/24","DAB (Distributeur automatique de billets)"]},{"id":87430003,"lat":45.856,"lng":1.146,"addr":"les betoulles","city":"VERNEUIL SUR VIENNE","cp":"87430","fuels":{"Gazole":{"p":2.199,"d":"2026-04-30"},"SP95":{"p":2.059,"d":"2026-04-30"},"SP98":{"p":2.099,"d":"2026-04-30"}},"brand":"Système U","h24":true,"services":["Toilettes publiques","Laverie","Relais colis","Restauration sur place","Bar","Station de gonflage","Location de véhicule","Piste poids lourds","Lavage automatique","Lavage manuel","Vente de gaz domestique (Butane, Propane)","Automate CB 24/24","DAB (Distributeur automatique de billets)"]},{"id":87520002,"lat":45.932,"lng":1.034,"addr":"60 rue de la lande","city":"Oradour-sur-Glane","cp":"87520","fuels":{"Gazole":{"p":2.199,"d":"2026-04-19"},"SP95":{"p":1.987,"d":"2026-04-19"},"E85":{"p":0.789,"d":"2026-03-13"},"SP98":{"p":2.109,"d":"2026-04-09"}},"brand":"Système U","h24":true,"services":["Laverie","Station de gonflage","Piste poids lourds","Lavage automatique","Lavage manuel","Vente de gaz domestique (Butane, Propane)","Bornes électriques","Vente d'additifs carburants","Automate CB 24/24"]},{"id":87100011,"lat":45.855,"lng":1.266,"addr":"252/259 AVENUE DU GENERAL LECLER","city":"LIMOGES","cp":"87100","fuels":{"E85":{"p":0.852,"d":"2026-05-01"},"E10":{"p":1.99,"d":"2026-05-01"}},"brand":"TotalEnergies","services":["Boutique alimentaire","Boutique non alimentaire","Station de gonflage","Carburant additivé","Piste poids lourds","Lavage automatique","Vente de gaz domestique (Butane, Propane)"]},{"id":87000003,"lat":45.841,"lng":1.254,"addr":"Rue du Mas Loubier","city":"LIMOGES","cp":"87100","fuels":{"Gazole":{"p":2.179,"d":"2026-04-30"},"E10":{"p":1.989,"d":"2026-04-15"},"SP98":{"p":2.069,"d":"2026-04-11"}},"brand":"Système U","services":["Toilettes publiques","Laverie","Relais colis","Boutique alimentaire","Boutique non alimentaire","Restauration à emporter","Restauration sur place","Bar","Vente de fioul domestique","Station de gonflage","Location de véhicule","Piste poids lourds","Lavage automatique","Lavage manuel","Espace bébé","Vente de gaz domestique (Butane, Propane)","DAB (Distributeur automatique de billets)"]},{"id":87290001,"lat":46.136,"lng":1.268,"addr":"Avenue de Lorraine","city":"Châteauponsac","cp":"87290","fuels":{"Gazole":{"p":2.189,"d":"2026-04-29"},"SP95":{"p":2.029,"d":"2026-04-28"},"E10":{"p":1.993,"d":"2026-04-28"}},"brand":"Intermarché","h24":true,"services":["Relais colis","Boutique alimentaire","Vente de pétrole lampant","Lavage automatique","Lavage manuel","Vente de gaz domestique (Butane, Propane)","Vente d'additifs carburants","Wifi","Automate CB 24/24","DAB (Distributeur automatique de billets)"]},{"id":87400004,"lat":45.861,"lng":1.515,"addr":"EYCOUVEAUX","city":"Saint-Léonard-de-Noblat","cp":"87400","fuels":{"Gazole":{"p":2.16,"d":"2026-04-21"},"SP95":{"p":1.99,"d":"2026-04-21"},"SP98":{"p":1.99,"d":"2026-04-21"}},"brand":"TotalEnergies","services":["Bar","Carburant additivé","Piste poids lourds","Vente de gaz domestique (Butane, Propane)"]},{"id":87350002,"lat":45.83,"lng":1.297,"addr":"5 Avenue du Président Carnot","city":"Panazol","cp":"87350","fuels":{"Gazole":{"p":2.25,"d":"2026-04-29"},"SP95":{"p":1.99,"d":"2026-04-28"},"SP98":{"p":1.99,"d":"2026-04-28"}},"brand":"TotalEnergies","services":["Relais colis","Boutique alimentaire","Boutique non alimentaire","Vente de fioul domestique","Carburant additivé","Vente de gaz domestique (Butane, Propane)"]},{"id":87800002,"lat":45.67929,"lng":1.18634,"addr":"route de la meyze","city":"Nexon","cp":"87800","fuels":{"Gazole":{"p":2.179,"d":"2026-04-30"},"E85":{"p":0.759,"d":"2026-03-24"},"E10":{"p":2.049,"d":"2026-04-30"},"SP98":{"p":2.139,"d":"2026-04-27"}},"brand":"Système U","services":["Station de gonflage","Lavage automatique","Lavage manuel","Vente de gaz domestique (Butane, Propane)","DAB (Distributeur automatique de billets)"]},{"id":87200001,"lat":45.897,"lng":0.92,"addr":"Av. Nelson Mandela","city":"SAINT-JUNIEN","cp":"87200","fuels":{"Gazole":{"p":2.159,"d":"2026-04-24"},"E85":{"p":0.729,"d":"2026-04-24"},"GPLc":{"p":1.139,"d":"2026-04-03"},"E10":{"p":2.009,"d":"2026-04-27"},"SP98":{"p":2.079,"d":"2026-04-30"}},"brand":"U","services":["Toilettes publiques","Boutique alimentaire","Boutique non alimentaire","Restauration à emporter","Restauration sur place","Bar","Vente de fioul domestique","Vente de pétrole lampant","Station de gonflage","Location de véhicule","Piste poids lourds","Lavage manuel","Vente de gaz domestique (Butane, Propane)","DAB (Distributeur automatique de billets)"]},{"id":87000024,"lat":45.851,"lng":1.253,"addr":"129 rue des Tuilières","city":"Limoges","cp":"87100","fuels":{"Gazole":{"p":2.179,"d":"2026-04-30"},"E10":{"p":1.989,"d":"2026-04-15"},"SP98":{"p":2.079,"d":"2026-04-15"}},"brand":"U","h24":true,"services":["Automate CB 24/24"]},{"id":87230003,"lat":45.661,"lng":0.986,"addr":"62, Avenue Jean Jaurès","city":"Châlus","cp":"87230","fuels":{"Gazole":{"p":2.25,"d":"2026-04-27"},"SP95":{"p":1.99,"d":"2026-04-23"},"SP98":{"p":1.99,"d":"2026-04-23"}},"brand":"TotalEnergies","h24":true,"services":["Toilettes publiques","Douches","Relais colis","Boutique alimentaire","Boutique non alimentaire","Restauration à emporter","Restauration sur place","Bar","Vente de fioul domestique","Station de gonflage","Carburant additivé","Aire de camping-cars","Piste poids lourds","Lavage automatique","Lavage manuel","Vente de gaz domestique (Butane, Propane)","Vente d'additifs carburants","Automate CB 24/24"]},{"id":87000020,"lat":45.8145722283,"lng":1.2449106590899999,"addr":"77, rue Charles Legendre","city":"LIMOGES","cp":"87000","fuels":{"Gazole":{"p":2.165,"d":"2026-04-30"},"E10":{"p":1.995,"d":"2026-04-30"},"SP98":{"p":2.106,"d":"2026-04-30"}},"brand":"Intermarché","services":["Location de véhicule","Vente de gaz domestique (Butane, Propane)","DAB (Distributeur automatique de billets)"]},{"id":87270005,"lat":45.879,"lng":1.238,"addr":"187 Avenue de Limoges","city":"COUZEIX","cp":"87270","fuels":{"Gazole":{"p":2.149,"d":"2026-04-29"},"E10":{"p":1.979,"d":"2026-04-29"},"SP98":{"p":2.079,"d":"2026-04-29"}},"brand":"Intermarché","h24":true,"services":["Boutique alimentaire","Boutique non alimentaire","Station de gonflage","Carburant additivé","Vente de gaz domestique (Butane, Propane)","Automate CB 24/24"]},{"id":87350004,"lat":45.828,"lng":1.292,"addr":"Avenue Léonard LIMOSIN","city":"PANAZOL","cp":"87350","fuels":{"Gazole":{"p":2.169,"d":"2026-04-30"},"E85":{"p":0.816,"d":"2026-04-16"},"E10":{"p":1.985,"d":"2026-04-30"}},"brand":"Netto","h24":true,"services":["Toilettes publiques","Laverie","Boutique alimentaire","Automate CB 24/24"]},{"id":87000006,"lat":45.815,"lng":1.269,"addr":"RUE BERNART DE VENTADOUR","city":"LIMOGES","cp":"87000","fuels":{"Gazole":{"p":2.159,"d":"2026-04-30"},"SP95":{"p":2.023,"d":"2026-04-30"},"SP98":{"p":2.06,"d":"2026-04-30"}},"brand":"Intermarché","services":["Toilettes publiques","Relais colis","Boutique alimentaire","Boutique non alimentaire","Restauration à emporter","Restauration sur place","Station de gonflage","Location de véhicule","Vente de gaz domestique (Butane, Propane)","Bornes électriques","DAB (Distributeur automatique de billets)"]},{"id":87700005,"lat":45.798,"lng":1.124,"addr":"zac du grand rieux","city":"Aixe-sur-Vienne","cp":"87700","fuels":{"Gazole":{"p":2.149,"d":"2026-04-28"},"E85":{"p":0.749,"d":"2026-04-16"},"E10":{"p":2.029,"d":"2026-04-28"},"SP98":{"p":2.099,"d":"2026-04-28"}},"brand":"Système U","h24":true,"services":["Vente de pétrole lampant","Station de gonflage","Piste poids lourds","Lavage automatique","Lavage manuel","Vente de gaz domestique (Butane, Propane)","Automate CB 24/24","DAB (Distributeur automatique de billets)"]},{"id":87140004,"lat":45.993,"lng":1.272,"addr":"AVENUE DE LA GARE","city":"COMPREIGNAC","cp":"87140","fuels":{"Gazole":{"p":2.199,"d":"2026-04-30"},"SP95":{"p":2.059,"d":"2026-04-30"}},"brand":"Carrefour","h24":true,"services":["Relais colis","Vente de gaz domestique (Butane, Propane)","Automate CB 24/24"]},{"id":87380002,"lat":45.619,"lng":1.438,"addr":"37, route de la Gare","city":"MAGNAC-BOURG","cp":"87380","fuels":{"Gazole":{"p":2.165,"d":"2026-04-30"},"E85":{"p":0.818,"d":"2026-04-30"},"E10":{"p":1.985,"d":"2026-04-30"},"SP98":{"p":2.099,"d":"2026-04-30"}},"brand":"Intermarché","h24":true,"services":["Station de gonflage","Lavage manuel","Vente de gaz domestique (Butane, Propane)","Automate CB 24/24"]},{"id":87430004,"lat":45.846808623992,"lng":1.1720499263278001,"addr":"RN 141","city":"Verneuil-sur-Vienne","cp":"87430","fuels":{"Gazole":{"p":2.279,"d":"2026-04-29"},"E85":{"p":0.875,"d":"2026-04-29"},"E10":{"p":2.049,"d":"2026-04-29"},"SP98":{"p":2.159,"d":"2026-04-29"}},"brand":"Avia","h24":true,"services":["Carburant additivé","Automate CB 24/24"]},{"id":87600003,"lat":45.835,"lng":0.837,"addr":"8 RUE FRANCOIS MITTERRAND","city":"ROCHECHOUART","cp":"87600","fuels":{"Gazole":{"p":2.26,"d":"2026-04-24"},"SP95":{"p":2.17,"d":"2026-04-24"},"SP98":{"p":2.24,"d":"2026-04-24"}},"brand":"Avia","services":["Toilettes publiques","Station de gonflage","Carburant additivé","Lavage manuel","Services réparation / entretien","Bornes électriques","Vente d'additifs carburants"]},{"id":87800004,"lat":45.707487767898996,"lng":1.2405318507886,"addr":"\"Le Vieux Saint Maurice\"","city":"SAINT MAURICE LES BROUSSES","cp":"87800","fuels":{"Gazole":{"p":2.22,"d":"2026-04-26"},"SP95":{"p":1.999,"d":"2026-04-26"},"SP98":{"p":2.088,"d":"2026-04-26"}},"brand":"Carrefour","h24":true,"services":["Boutique alimentaire","Vente de gaz domestique (Butane, Propane)","Automate CB 24/24"]},{"id":87400005,"lat":45.904242763602,"lng":1.5945068099733,"addr":"2 RUE EMILE DOURDET","city":"Sauviat-sur-Vige","cp":"87400","fuels":{"Gazole":{"p":2.158,"d":"2026-04-30"},"E10":{"p":1.972,"d":"2026-04-28"},"SP98":{"p":2.08,"d":"2026-04-28"}},"brand":"Intermarché","h24":true,"services":["Laverie","Location de véhicule","Piste poids lourds","Automate CB 24/24"]},{"id":87400006,"lat":45.831627000000005,"lng":1.499039,"addr":"8 avenue jean moulin","city":"st léonard de noblat","cp":"87400","fuels":{"Gazole":{"p":2.189,"d":"2026-04-30"},"E85":{"p":0.829,"d":"2026-04-09"},"E10":{"p":2.065,"d":"2026-04-30"},"SP98":{"p":2.129,"d":"2026-04-30"}},"brand":"Carrefour","h24":true,"services":["Location de véhicule","Lavage automatique","Automate CB 24/24"]},{"id":87350003,"lat":45.832,"lng":1.304,"addr":"Avenue Jean Zay","city":"PANAZOL","cp":"87350","fuels":{"Gazole":{"p":2.175,"d":"2026-04-30"},"E10":{"p":1.985,"d":"2026-04-30"},"SP98":{"p":2.099,"d":"2026-04-30"}},"brand":"Intermarché","h24":true,"services":["Toilettes publiques","Boutique alimentaire","Boutique non alimentaire","Station de gonflage","Location de véhicule","Piste poids lourds","Lavage automatique","Lavage manuel","Vente de gaz domestique (Butane, Propane)","Vente d'additifs carburants","Automate CB 24/24"]},{"id":87400007,"lat":45.847349917372995,"lng":1.4469714475958,"addr":"ZA DU THEIL","city":"SAINT-LEONARD-DE-NOBLAT","cp":"87400","fuels":{"Gazole":{"p":2.189,"d":"2026-04-29"},"E85":{"p":0.769,"d":"2026-02-26"},"E10":{"p":2.065,"d":"2026-04-29"},"SP98":{"p":2.129,"d":"2026-04-29"}},"h24":true,"services":["Station de gonflage","Piste poids lourds","Lavage automatique","Automate CB 24/24"]},{"id":87200003,"lat":45.896,"lng":0.915,"addr":"Avenue d'Oradour sur Glane","city":"Saint-Junien","cp":"87200","fuels":{"Gazole":{"p":2.159,"d":"2026-04-22"},"SP95":{"p":2.039,"d":"2026-04-29"},"E85":{"p":0.769,"d":"2026-04-13"},"E10":{"p":2.009,"d":"2026-04-28"},"SP98":{"p":2.079,"d":"2026-04-29"}},"brand":"Leclerc","h24":true,"services":["Vente de pétrole lampant","Piste poids lourds","Lavage automatique","Lavage manuel","Vente de gaz domestique (Butane, Propane)","Automate CB 24/24"]},{"id":87410002,"lat":45.8560017,"lng":1.3093986,"addr":"Avenue de Limoges","city":"Le Palais-sur-Vienne","cp":"87410","fuels":{"Gazole":{"p":2.179,"d":"2026-04-30"},"E10":{"p":2.039,"d":"2026-04-30"},"SP98":{"p":2.109,"d":"2026-04-30"}},"brand":"Système U","services":["Station de gonflage","Piste poids lourds","Lavage automatique","Lavage manuel","DAB (Distributeur automatique de billets)"]},{"id":87280009,"lat":45.90864,"lng":1.292865,"addr":"A 20 Aire de Limoges Est","city":"LIMOGES","cp":"87280","fuels":{"Gazole":{"p":2.334,"d":"2026-04-30"},"E85":{"p":0.899,"d":"2026-04-30"},"GPLc":{"p":1.23,"d":"2026-04-30"},"E10":{"p":2.145,"d":"2026-04-30"},"SP98":{"p":2.22,"d":"2026-04-30"}},"h24":true,"services":["Toilettes publiques","Douches","Boutique alimentaire","Boutique non alimentaire","Restauration à emporter","Restauration sur place","Station de gonflage","Carburant additivé","Piste poids lourds","Espace bébé","Wifi","Automate CB 24/24"]},{"id":87260003,"lat":45.716634000000006,"lng":1.37491,"addr":"11 rue du commerce","city":"SAINT HILAIRE BONNEVAL","cp":"87260","fuels":{"Gazole":{"p":2.199,"d":"2026-04-28"},"E85":{"p":0.799,"d":"2026-04-28"},"E10":{"p":2.065,"d":"2026-04-28"},"SP98":{"p":2.145,"d":"2026-04-28"}},"brand":"Système U","h24":true,"services":["Laverie","Boutique alimentaire","Boutique non alimentaire","Station de gonflage","Carburant additivé","Location de véhicule","Piste poids lourds","Lavage automatique","Lavage manuel","Vente de gaz domestique (Butane, Propane)","Bornes électriques","Vente d'additifs carburants","Automate CB 24/24"]},{"id":87160007,"lat":46.317117242744,"lng":1.3695487082951001,"addr":"15 VOIE DE LA REINE","city":"SAINT SULPICE LES FEUILLES","cp":"87160","fuels":{"Gazole":{"p":2.199,"d":"2026-04-27"},"SP95":{"p":2.109,"d":"2026-04-27"},"E10":{"p":2.069,"d":"2026-04-27"}},"h24":true,"services":["Automate CB 24/24"]},{"id":87160008,"lat":46.313794,"lng":1.420283,"addr":"AUT A 20  AIRE DE BOISMANDE","city":"Saint-Sulpice-les-Feuilles","cp":"87160","fuels":{"Gazole":{"p":2.615,"d":"2026-05-01"},"GPLc":{"p":1.108,"d":"2026-05-01"},"E10":{"p":2.507,"d":"2026-05-01"},"SP98":{"p":2.657,"d":"2026-05-01"}},"h24":true,"services":["Toilettes publiques","Douches","Boutique non alimentaire","Restauration à emporter","Restauration sur place","Station de gonflage","Carburant additivé","Aire de camping-cars","Piste poids lourds","Espace bébé","Bornes électriques","Vente d'additifs carburants","Wifi","Automate CB 24/24"]},{"id":87380003,"lat":45.613815,"lng":1.487804,"addr":"1BIS RUE DU VIADUC","city":"SAINT GERMAIN LES BELLES","cp":"87380","fuels":{"Gazole":{"p":2.298,"d":"2026-04-10"},"E85":{"p":0.899,"d":"2026-03-31"},"E10":{"p":2.082,"d":"2026-04-10"}},"h24":true,"services":["Automate CB 24/24"]}]