[{"id":88170006,"lat":48.2666363,"lng":5.8637440000000005,"addr":"AUT.A31-AIRE DE LORRAINE SANDAUCOURT-LES RAPPES","city":"SANDAUCOURT","cp":"88170","fuels":{"Gazole":{"p":2.09,"d":"2026-05-01"},"E85":{"p":0.999,"d":"2026-05-01"},"GPLc":{"p":1.129,"d":"2026-05-01"},"E10":{"p":1.99,"d":"2026-05-01"},"SP98":{"p":1.99,"d":"2026-05-01"}},"brand":"TotalEnergies"},{"id":88400005,"lat":48.075,"lng":6.884,"addr":"68 BOULEVARD KELSCH","city":"GERARDMER","cp":"88400","fuels":{"Gazole":{"p":2.09,"d":"2026-05-01"},"E85":{"p":0.829,"d":"2026-05-01"},"GPLc":{"p":1.044,"d":"2026-05-01"},"E10":{"p":1.99,"d":"2026-05-01"},"SP98":{"p":1.99,"d":"2026-05-01"}},"brand":"TotalEnergies","services":["Relais colis","Boutique alimentaire","Station de gonflage","Carburant additivé","Piste poids lourds","Vente de gaz domestique (Butane, Propane)","Vente d'additifs carburants","Wifi"]},{"id":88600001,"lat":48.188,"lng":6.688,"addr":"500 ROUTE DE LEPANGES","city":"Laval-sur-Vologne","cp":"88600","fuels":{"Gazole":{"p":2.2,"d":"2026-04-21"},"SP95":{"p":1.99,"d":"2026-04-21"}},"brand":"TotalEnergies","services":["Toilettes publiques","Station de gonflage","Carburant additivé","Piste poids lourds","Services réparation / entretien","DAB (Distributeur automatique de billets)"]},{"id":88250003,"lat":48.004,"lng":6.834,"addr":"2 bis route de Cornimont","city":"La Bresse","cp":"88250","fuels":{"Gazole":{"p":2.189,"d":"2026-04-30"},"E85":{"p":0.819,"d":"2026-04-30"},"E10":{"p":2.069,"d":"2026-04-30"},"SP98":{"p":2.109,"d":"2026-04-30"}},"brand":"Station U","h24":true,"services":["Boutique alimentaire","Restauration à emporter","Station de gonflage","Aire de camping-cars","Lavage automatique","Lavage manuel","Automate CB 24/24"]},{"id":88270001,"lat":48.22,"lng":6.224,"addr":"Rue des Grands Jardins","city":"Dompaire","cp":"88270","fuels":{"Gazole":{"p":2.189,"d":"2026-04-30"},"E10":{"p":1.989,"d":"2026-04-30"},"SP98":{"p":2.099,"d":"2026-04-30"}},"brand":"Intermarché","h24":true,"services":["Laverie","Station de gonflage","Piste poids lourds","Lavage automatique","Lavage manuel","Vente de gaz domestique (Butane, Propane)","Automate CB 24/24"]},{"id":88200017,"lat":48.026185999999996,"lng":6.580887,"addr":"6 Faubourg de Remiremont","city":"Saint-Nabord","cp":"88200","fuels":{"Gazole":{"p":2.189,"d":"2026-04-30"},"E10":{"p":1.999,"d":"2026-04-30"},"SP98":{"p":2.089,"d":"2026-04-30"}},"brand":"Intermarché","h24":true,"services":["Laverie","Piste poids lourds","Automate CB 24/24"]},{"id":88140004,"lat":48.189,"lng":5.902,"addr":"630 Avenue des Pierrottes","city":"CONTREXéVILLE","cp":"88140","fuels":{"Gazole":{"p":2.185,"d":"2026-04-30"},"E85":{"p":0.818,"d":"2026-04-20"},"E10":{"p":1.99,"d":"2026-04-30"},"SP98":{"p":2.064,"d":"2026-04-30"}},"brand":"Intermarché","services":["Vente de gaz domestique (Butane, Propane)","DAB (Distributeur automatique de billets)"]},{"id":88800002,"lat":48.198083614299996,"lng":5.9403257296000005,"addr":"rue du lieutenant gauffre","city":"VITTEL","cp":"88800","fuels":{"Gazole":{"p":2.149,"d":"2026-04-29"},"SP95":{"p":1.999,"d":"2026-03-25"},"SP98":{"p":2.089,"d":"2026-03-25"}},"brand":"Carrefour","services":["Vente de gaz domestique (Butane, Propane)","DAB (Distributeur automatique de billets)"]},{"id":88350002,"lat":48.32204,"lng":5.57626,"addr":"2 Route de Joinville","city":"Liffol-le-Grand","cp":"88350","fuels":{"Gazole":{"p":2.179,"d":"2026-04-28"},"E10":{"p":2.024,"d":"2026-04-28"},"SP98":{"p":2.058,"d":"2026-04-28"}},"brand":"Système U","services":["Carburant additivé","Lavage manuel","Vente de gaz domestique (Butane, Propane)"]},{"id":88150004,"lat":48.247,"lng":6.425,"addr":"Rue d'Alsace","city":"Thaon-les-Vosges","cp":"88150","fuels":{"Gazole":{"p":2.09,"d":"2026-05-01"},"E10":{"p":1.99,"d":"2026-05-01"},"SP98":{"p":1.99,"d":"2026-05-01"}},"brand":"TotalEnergies","h24":true,"services":["Toilettes publiques","Station de gonflage","Carburant additivé","Piste poids lourds","Vente de gaz domestique (Butane, Propane)","Vente d'additifs carburants","Automate CB 24/24"]},{"id":88200006,"lat":48.017,"lng":6.615,"addr":"La Chaume","city":"Saint-Étienne-lès-Remiremont","cp":"88200","fuels":{"Gazole":{"p":2.148,"d":"2026-04-30"},"E10":{"p":1.996,"d":"2026-04-30"},"SP98":{"p":2.051,"d":"2026-04-30"}},"brand":"Leclerc","h24":true,"services":["Piste poids lourds","Vente d'additifs carburants","Automate CB 24/24"]},{"id":88170005,"lat":48.298678018473,"lng":5.849774933507301,"addr":"71 ZI LE NEUILLY","city":"Châtenois","cp":"88170","fuels":{"Gazole":{"p":2.25,"d":"2026-04-23"},"E10":{"p":1.99,"d":"2026-04-23"},"SP98":{"p":1.99,"d":"2026-04-23"}},"brand":"TotalEnergies","services":["Toilettes publiques","Station de gonflage","Carburant additivé","Location de véhicule","Piste poids lourds","Lavage automatique","Services réparation / entretien"]},{"id":88150001,"lat":48.246,"lng":6.423,"addr":"27 rue d'Alsace","city":"THAON-LES-VOSGES","cp":"88150","fuels":{"Gazole":{"p":2.146,"d":"2026-04-24"},"E10":{"p":1.981,"d":"2026-04-24"},"SP98":{"p":2.106,"d":"2026-04-24"}},"brand":"Match","h24":true,"services":["Automate CB 24/24"]},{"id":88500001,"lat":48.303,"lng":6.119,"addr":"23 Rue du pré Paradis","city":"MIRECOURT","cp":"88500","fuels":{"Gazole":{"p":2.459,"d":"2026-04-07"},"SP95":{"p":1.999,"d":"2026-03-24"},"SP98":{"p":2.069,"d":"2026-03-24"}},"brand":"Carrefour","services":["Relais colis","Location de véhicule","Vente de gaz domestique (Butane, Propane)","Wifi"]},{"id":88500006,"lat":48.3073572629,"lng":6.13367188605,"addr":"104, avenue Victor Hugo","city":"MIRECOURT","cp":"88500","fuels":{"Gazole":{"p":2.299,"d":"2026-04-29"},"SP95":{"p":2.129,"d":"2026-04-29"},"SP98":{"p":2.199,"d":"2026-04-29"}},"brand":"Avia","services":["Toilettes publiques","Relais colis","Boutique alimentaire","Boutique non alimentaire","Restauration à emporter","Station de gonflage","Services réparation / entretien","Vente de gaz domestique (Butane, Propane)"]},{"id":88160003,"lat":47.889,"lng":6.775,"addr":"Route Ménil","city":"LE THILLOT","cp":"88160","fuels":{"Gazole":{"p":2.115,"d":"2026-04-30"},"E85":{"p":0.818,"d":"2026-04-28"},"E10":{"p":1.951,"d":"2026-04-30"},"SP98":{"p":2.057,"d":"2026-04-30"}},"brand":"Intermarché","services":["Carburant additivé","Restauration sur place","Toilettes publiques","Bar","Station de gonflage","Laverie","Vente de gaz domestique (Butane, Propane)","Location de véhicule","Aire de camping-cars","Piste poids lourds","DAB (Distributeur automatique de billets)","Lavage automatique","Lavage manuel","Vente de pétrole lampant","Vente d'additifs carburants"]},{"id":88560004,"lat":47.856,"lng":6.811,"addr":"3 RUE DU PONT JEAN RN66","city":"SAINT MAURICE SUR MOSELLE","cp":"88560","fuels":{"Gazole":{"p":2.199,"d":"2026-04-28"}},"brand":"Avia XPress","h24":true,"services":["Piste poids lourds","Automate CB 24/24"]},{"id":88200018,"lat":48.02,"lng":6.615,"addr":"41 rue de la moselotte","city":"st etienne les remiremont","cp":"88200","fuels":{"Gazole":{"p":2.232,"d":"2026-04-29"},"E10":{"p":1.99,"d":"2026-04-29"},"SP98":{"p":1.99,"d":"2026-04-29"}},"brand":"TotalEnergies","h24":true,"services":["Automate CB 24/24"]},{"id":88410001,"lat":48.032,"lng":5.978,"addr":"rue de La Croix de mission","city":"Monthureux-sur-Saône","cp":"88410","fuels":{"Gazole":{"p":2.25,"d":"2026-04-24"},"SP95":{"p":2.069,"d":"2026-04-24"},"SP98":{"p":2.159,"d":"2026-04-24"}},"brand":"Carrefour","h24":true,"services":["Piste poids lourds","Automate CB 24/24"]},{"id":88130002,"lat":48.371,"lng":6.292,"addr":"RN 57","city":"CHARMES","cp":"88130","fuels":{"Gazole":{"p":2.159,"d":"2026-04-27"},"E10":{"p":1.999,"d":"2026-04-29"},"SP98":{"p":2.089,"d":"2026-04-29"}},"brand":"Leclerc","h24":true,"services":["Laverie","Relais colis","Boutique alimentaire","Boutique non alimentaire","Carburant additivé","Location de véhicule","Piste poids lourds","Lavage automatique","Vente de gaz domestique (Butane, Propane)","Vente d'additifs carburants","Wifi","Automate CB 24/24"]},{"id":88240001,"lat":48.006,"lng":6.275,"addr":"ROUTE D'EPINAL","city":"Bains-les-Bains","cp":"88240","fuels":{"Gazole":{"p":2.199,"d":"2026-04-20"},"E85":{"p":0.818,"d":"2026-04-29"},"E10":{"p":2.028,"d":"2026-04-29"},"SP98":{"p":2.158,"d":"2026-04-07"}},"brand":"Intermarché","h24":true,"services":["Toilettes publiques","Laverie","Relais colis","Restauration à emporter","Station de gonflage","Vente de gaz domestique (Butane, Propane)","Bornes électriques","Automate CB 24/24","DAB (Distributeur automatique de billets)"]},{"id":88190003,"lat":48.1763337523,"lng":6.42862370064,"addr":"Rue des Forges","city":"GOLBEY","cp":"88190","fuels":{"Gazole":{"p":2.209,"d":"2026-04-28"},"SP95":{"p":2.059,"d":"2026-04-28"},"SP98":{"p":2.099,"d":"2026-04-28"}},"brand":"Auchan","services":["Boutique alimentaire","Boutique non alimentaire","Station de gonflage","Vente de gaz domestique (Butane, Propane)","DAB (Distributeur automatique de billets)"]},{"id":88100007,"lat":48.288,"lng":6.928,"addr":"18 Rue d'Épinal","city":"Saint-Dié-des-Vosges","cp":"88100","fuels":{"Gazole":{"p":2.09,"d":"2026-05-01"},"E10":{"p":1.99,"d":"2026-05-01"}},"brand":"TotalEnergies","h24":true,"services":["Toilettes publiques","Laverie","Boutique non alimentaire","Station de gonflage","Carburant additivé","Piste poids lourds","Lavage manuel","Vente de gaz domestique (Butane, Propane)","Wifi","Automate CB 24/24"]},{"id":88230003,"lat":48.183292050384004,"lng":7.0040889058285,"addr":"14, Rue du Général Ingold","city":"Fraize","cp":"88230","fuels":{"Gazole":{"p":2.199,"d":"2026-04-30"},"E10":{"p":1.999,"d":"2026-04-30"},"SP98":{"p":2.119,"d":"2026-04-30"}},"brand":"Carrefour","h24":true,"services":["Laverie","Relais colis","Boutique alimentaire","Station de gonflage","Location de véhicule","Piste poids lourds","Bornes électriques","Automate CB 24/24"]},{"id":88130001,"lat":48.372797365699995,"lng":6.282220107190001,"addr":"10 Rue René Didierjean","city":"CHARMES","cp":"88130","fuels":{"Gazole":{"p":2.189,"d":"2026-04-29"},"E10":{"p":1.989,"d":"2026-04-29"},"SP98":{"p":2.091,"d":"2026-04-24"}},"brand":"Match","services":["Piste poids lourds"]},{"id":88340001,"lat":47.928,"lng":6.483,"addr":"22 ZA DU CENTRE","city":"LE VAL-D'AJOL","cp":"88340","fuels":{"Gazole":{"p":2.199,"d":"2026-04-29"},"E10":{"p":1.999,"d":"2026-04-29"},"SP98":{"p":2.099,"d":"2026-04-29"}},"brand":"Intermarché","h24":true,"services":["Laverie","Relais colis","Station de gonflage","Piste poids lourds","Vente de gaz domestique (Butane, Propane)","Automate CB 24/24"]},{"id":88140003,"lat":48.188461950599,"lng":5.8833742557768,"addr":"Rue François de Neufchâteau","city":"Contrexéville","cp":"88140","fuels":{"Gazole":{"p":2.185,"d":"2026-04-30"},"E85":{"p":0.729,"d":"2026-02-21"},"E10":{"p":2.021,"d":"2026-04-30"},"SP98":{"p":2.064,"d":"2026-04-30"}},"brand":"Leclerc","services":["Boutique alimentaire","Boutique non alimentaire","Piste poids lourds","Vente de gaz domestique (Butane, Propane)"]},{"id":88100008,"lat":48.293,"lng":6.942,"addr":"4 AVENUE DE VERDUN","city":"SAINT-DIE-DES-VOSGES","cp":"88100","fuels":{"Gazole":{"p":2.269,"d":"2026-05-01"},"E10":{"p":2.099,"d":"2026-05-01"},"SP98":{"p":2.199,"d":"2026-05-01"}},"brand":"Eni","services":["Toilettes publiques","Boutique alimentaire","Boutique non alimentaire","Station de gonflage","Carburant additivé","Lavage automatique","Vente de gaz domestique (Butane, Propane)"]},{"id":88700007,"lat":48.346,"lng":6.639,"addr":"11 FAUBOURG DE LA CHIPOTTE","city":"RAMBERVILLERS","cp":"88700","fuels":{"Gazole":{"p":2.25,"d":"2026-04-23"},"E10":{"p":1.99,"d":"2026-04-21"},"SP98":{"p":1.99,"d":"2026-03-17"}},"brand":"Total Contact","services":["Boutique non alimentaire","Vente de fioul domestique","Station de gonflage","Carburant additivé","Location de véhicule","Piste poids lourds","Vente de gaz domestique (Butane, Propane)","Vente d'additifs carburants"]},{"id":88170003,"lat":48.299,"lng":5.842,"addr":"11 Rue Pierre de Coubertin","city":"Châtenois","cp":"88170","fuels":{"Gazole":{"p":2.199,"d":"2026-04-28"},"E10":{"p":2.029,"d":"2026-04-28"},"SP98":{"p":2.099,"d":"2026-04-04"}},"brand":"Système U","h24":true,"services":["Vente de fioul domestique","Station de gonflage","Location de véhicule","Vente de gaz domestique (Butane, Propane)","Automate CB 24/24"]},{"id":88220004,"lat":48.045695457397,"lng":6.3984844637682,"addr":"18 Rue de la Vall. de L Aître","city":"Xertigny","cp":"88220","fuels":{"Gazole":{"p":2.199,"d":"2026-04-19"},"E10":{"p":1.998,"d":"2026-04-17"},"SP98":{"p":2.154,"d":"2026-04-01"}},"brand":"Colruyt","h24":true,"services":["Piste poids lourds","Automate CB 24/24"]},{"id":88800001,"lat":48.20196,"lng":5.942,"addr":"65 Place de la Marne","city":"VITTEL","cp":"88800","fuels":{"Gazole":{"p":2.25,"d":"2026-04-25"},"E10":{"p":1.99,"d":"2026-04-21"},"SP98":{"p":1.99,"d":"2026-04-21"}},"brand":"TotalEnergies","services":["Boutique non alimentaire","Station de gonflage","Carburant additivé"]},{"id":88000011,"lat":48.16,"lng":6.451,"addr":"51 route de Remiremont","city":"EPINAL","cp":"88000","fuels":{"Gazole":{"p":2.269,"d":"2026-05-01"},"GPLc":{"p":0.999,"d":"2026-05-01"},"E10":{"p":2.089,"d":"2026-05-01"},"SP98":{"p":2.189,"d":"2026-05-01"}},"brand":"Eni","h24":true,"services":["Relais colis","Boutique alimentaire","Boutique non alimentaire","Station de gonflage","Carburant additivé","Lavage automatique","Vente de gaz domestique (Butane, Propane)","Automate CB 24/24"]},{"id":88300005,"lat":48.36668,"lng":5.70118,"addr":"750 Rue Paul Melin Prolongé","city":"Neufchâteau","cp":"88300","fuels":{"Gazole":{"p":2.279,"d":"2026-04-28"},"SP95":{"p":2.069,"d":"2026-04-28"},"SP98":{"p":2.092,"d":"2026-04-28"}},"brand":"Intermarché","services":["Vente de gaz domestique (Butane, Propane)"]},{"id":88600002,"lat":48.199,"lng":6.727,"addr":"3 et 10 Rue de Gérardmer","city":"BRUYèRES","cp":"88600","fuels":{"Gazole":{"p":2.158,"d":"2026-04-29"},"SP95":{"p":2.088,"d":"2026-04-24"},"E10":{"p":1.988,"d":"2026-04-29"},"SP98":{"p":2.098,"d":"2026-04-24"}},"brand":"Independent","h24":true,"services":["Toilettes publiques","Laverie","Relais colis","Boutique alimentaire","Boutique non alimentaire","Restauration à emporter","Restauration sur place","Bar","Station de gonflage","Location de véhicule","Piste poids lourds","Lavage automatique","Lavage manuel","Vente de gaz domestique (Butane, Propane)","Vente d'additifs carburants","Wifi","Automate CB 24/24","DAB (Distributeur automatique de billets)"]},{"id":88300001,"lat":48.350987382300005,"lng":5.69258857653,"addr":"Rue du Général de Gaulle","city":"NEUFCHâTEAU","cp":"88300","fuels":{"Gazole":{"p":2.279,"d":"2026-04-29"},"E10":{"p":1.982,"d":"2026-04-28"}},"services":["Vente de gaz domestique (Butane, Propane)","DAB (Distributeur automatique de billets)"]},{"id":88600003,"lat":48.204,"lng":6.723,"addr":"Rue Abel Ferry","city":"Bruyères","cp":"88600","fuels":{"Gazole":{"p":2.159,"d":"2026-04-29"},"SP95":{"p":2.089,"d":"2026-04-29"},"E85":{"p":0.819,"d":"2026-04-29"},"E10":{"p":1.989,"d":"2026-04-29"}},"brand":"Intermarché","h24":true,"services":["Toilettes publiques","Relais colis","Boutique alimentaire","Restauration à emporter","Station de gonflage","Carburant additivé","Piste poids lourds","Lavage automatique","Vente de gaz domestique (Butane, Propane)","Vente d'additifs carburants","Wifi","Automate CB 24/24"]},{"id":88260001,"lat":48.093,"lng":6.044,"addr":"Route de Vittel","city":"Darney","cp":"88260","fuels":{"Gazole":{"p":2.132,"d":"2026-04-30"},"E10":{"p":1.967,"d":"2026-04-30"},"SP98":{"p":2.072,"d":"2026-04-30"}},"brand":"Intermarché","services":["Station de gonflage","Aire de camping-cars","Location de véhicule","Piste poids lourds","Vente de gaz domestique (Butane, Propane)","DAB (Distributeur automatique de billets)"]},{"id":88120001,"lat":48.012,"lng":6.715,"addr":"11 Rue du Général de Gaulle","city":"VAGNEY","cp":"88120","fuels":{"Gazole":{"p":2.189,"d":"2026-04-30"},"SP95":{"p":2.029,"d":"2026-04-30"},"E10":{"p":1.999,"d":"2026-04-30"},"SP98":{"p":2.089,"d":"2026-04-30"}},"brand":"U","services":["Laverie","Boutique alimentaire","Boutique non alimentaire","Restauration à emporter","Station de gonflage","Carburant additivé","Location de véhicule","Piste poids lourds","Vente de gaz domestique (Butane, Propane)","DAB (Distributeur automatique de billets)"]},{"id":88200001,"lat":48.004,"lng":6.613,"addr":"26 ROUTE DE BUSSANG","city":"REMIREMONT","cp":"88200","fuels":{"Gazole":{"p":2.17,"d":"2026-04-29"},"E10":{"p":1.977,"d":"2026-04-29"}},"brand":"Carrefour","h24":true,"services":["Toilettes publiques","Laverie","Relais colis","Boutique alimentaire","Boutique non alimentaire","Restauration à emporter","Restauration sur place","Bar","Vente de fioul domestique","Vente de pétrole lampant","Station de gonflage","Espace bébé","Vente de gaz domestique (Butane, Propane)","Bornes électriques","Vente d'additifs carburants","Wifi","Automate CB 24/24","DAB (Distributeur automatique de billets)"]},{"id":88110002,"lat":48.407,"lng":6.858,"addr":"Avenue du 21ème B.C.P.","city":"Raon-l'Étape","cp":"88110","fuels":{"Gazole":{"p":2.159,"d":"2026-04-30"},"SP95":{"p":2.027,"d":"2026-04-30"},"E10":{"p":1.994,"d":"2026-04-30"},"SP98":{"p":2.034,"d":"2026-04-30"}},"brand":"Leclerc","h24":true,"services":["Piste poids lourds","Automate CB 24/24"]},{"id":88450002,"lat":48.337,"lng":6.332,"addr":"ROUTE NATIONALE 57 - VOIE EXPRESS","city":"VINCEY","cp":"88450","fuels":{"Gazole":{"p":2.09,"d":"2026-05-01"},"E85":{"p":0.834,"d":"2026-05-01"},"E10":{"p":1.99,"d":"2026-05-01"},"SP98":{"p":1.99,"d":"2026-05-01"}},"brand":"TotalEnergies","services":["Toilettes publiques","Douches","Boutique alimentaire","Boutique non alimentaire","Restauration à emporter","Restauration sur place","Bar","Station de gonflage","Carburant additivé","Piste poids lourds","Espace bébé"]},{"id":88200015,"lat":48.04948393,"lng":6.58206806,"addr":"ROUTE NATIONALE 57 - AIRE DE LA CROIX SAINT JACQUES","city":"ST NABORD","cp":"88200","fuels":{"Gazole":{"p":2.09,"d":"2026-05-01"},"E85":{"p":0.819,"d":"2026-05-01"},"E10":{"p":1.99,"d":"2026-05-01"}},"brand":"TotalEnergies","services":["Toilettes publiques","Douches","Boutique alimentaire","Boutique non alimentaire","Restauration à emporter","Restauration sur place","Station de gonflage","Piste poids lourds","Espace bébé"]},{"id":88000007,"lat":48.18685,"lng":6.44195,"addr":"2 Avenue de la Fontenelle","city":"Épinal","cp":"88000","fuels":{"Gazole":{"p":2.259,"d":"2026-04-30"},"E85":{"p":0.818,"d":"2026-04-30"},"E10":{"p":2.079,"d":"2026-04-30"},"SP98":{"p":2.149,"d":"2026-04-30"}},"brand":"Intermarché","services":["Vente de gaz domestique (Butane, Propane)"]},{"id":88100005,"lat":48.278,"lng":6.961,"addr":"116 Rue d'Alsace","city":"SAINT-DIé-DES-VOSGES","cp":"88100","fuels":{"Gazole":{"p":2.149,"d":"2026-04-27"},"E85":{"p":0.819,"d":"2026-04-27"},"E10":{"p":1.982,"d":"2026-04-27"},"SP98":{"p":2.06,"d":"2026-04-27"}},"brand":"Intermarché","h24":true,"services":["Relais colis","Restauration à emporter","Restauration sur place","Bar","Station de gonflage","Vente de gaz domestique (Butane, Propane)","Automate CB 24/24","DAB (Distributeur automatique de billets)"]},{"id":88390003,"lat":48.16178,"lng":6.30282,"addr":"Rue de Darney","city":"Girancourt","cp":"88390","fuels":{"E85":{"p":0.818,"d":"2026-04-20"},"E10":{"p":2.019,"d":"2026-04-25"},"SP98":{"p":2.079,"d":"2026-04-25"}},"brand":"Intermarché","services":["Vente de pétrole lampant"]},{"id":88700003,"lat":48.33845,"lng":6.63507,"addr":"4 Avenue du 17ème B.C.P.","city":"Rambervillers","cp":"88700","fuels":{"Gazole":{"p":2.183,"d":"2026-04-23"},"SP95":{"p":2.027,"d":"2026-04-23"},"E10":{"p":1.974,"d":"2026-04-23"},"SP98":{"p":2.081,"d":"2026-04-23"}},"brand":"Intermarché","services":["Vente de gaz domestique (Butane, Propane)","DAB (Distributeur automatique de billets)"]},{"id":88650001,"lat":48.198,"lng":6.947,"addr":"493 AVENUE DE ST DIE","city":"ANOULD","cp":"88650","fuels":{"Gazole":{"p":2.149,"d":"2026-04-30"},"SP95":{"p":2.089,"d":"2026-04-30"},"SP98":{"p":2.119,"d":"2026-04-30"}},"brand":"Système U","h24":true,"services":["Toilettes publiques","Laverie","Relais colis","Boutique alimentaire","Boutique non alimentaire","Restauration à emporter","Restauration sur place","Bar","Vente de pétrole lampant","Station de gonflage","Location de véhicule","Lavage automatique","Lavage manuel","Vente de gaz domestique (Butane, Propane)","Vente d'additifs carburants","Automate CB 24/24","DAB (Distributeur automatique de billets)"]},{"id":88360001,"lat":47.926,"lng":6.659,"addr":"ROUTE NATIONALE 66","city":"RUPT-SUR-MOSELLE","cp":"88360","fuels":{"Gazole":{"p":2.09,"d":"2026-04-30"},"E10":{"p":1.99,"d":"2026-04-13"},"SP98":{"p":1.99,"d":"2026-04-13"}},"brand":"TotalEnergies","services":["Boutique alimentaire","Boutique non alimentaire","Station de gonflage","Piste poids lourds","Lavage manuel","Services réparation / entretien","DAB (Distributeur automatique de billets)"]},{"id":88700001,"lat":48.341,"lng":6.636,"addr":"Rue Charles Gratia","city":"Rambervillers","cp":"88700","fuels":{"Gazole":{"p":2.183,"d":"2026-04-30"},"E10":{"p":2.002,"d":"2026-04-30"}},"brand":"Match"},{"id":88300004,"lat":48.354,"lng":5.688,"addr":"401 QUAI JEAN MOULIN","city":"NEUFCHATEAU","cp":"88300","fuels":{"Gazole":{"p":2.289,"d":"2026-04-23"},"SP95":{"p":2.169,"d":"2026-04-23"}},"brand":"Avia","h24":true,"services":["Toilettes publiques","Station de gonflage","Carburant additivé","Piste poids lourds","Services réparation / entretien","Bornes électriques","Vente d'additifs carburants","Automate CB 24/24","DAB (Distributeur automatique de billets)"]},{"id":88307001,"lat":48.36903,"lng":5.705138100000001,"addr":"67b, Avenue de la Division Leclerc","city":"NEUFCHâTEAU","cp":"88300","fuels":{"Gazole":{"p":2.199,"d":"2026-04-30"},"E85":{"p":0.82,"d":"2026-03-21"},"GPLc":{"p":1.029,"d":"2026-04-17"},"E10":{"p":1.982,"d":"2026-04-28"},"SP98":{"p":1.989,"d":"2026-04-22"}},"brand":"Leclerc","services":["Boutique alimentaire","Boutique non alimentaire","Vente de gaz domestique (Butane, Propane)"]},{"id":88230001,"lat":48.185,"lng":6.993,"addr":"46 Rue Eugène Mathis","city":"FRAIZE","cp":"88230","fuels":{"Gazole":{"p":2.25,"d":"2026-04-28"},"E10":{"p":1.99,"d":"2026-04-28"}},"brand":"TotalEnergies","services":["Toilettes publiques","Boutique alimentaire","Boutique non alimentaire","Station de gonflage","Carburant additivé","Location de véhicule","Piste poids lourds","Lavage manuel","Services réparation / entretien","Vente de gaz domestique (Butane, Propane)","Vente d'additifs carburants","Wifi"]},{"id":88550001,"lat":48.11,"lng":6.573,"addr":"ZA LES SAVRONS","city":"POUXEUX","cp":"88550","fuels":{"Gazole":{"p":2.199,"d":"2026-04-30"},"E85":{"p":0.769,"d":"2026-04-30"},"E10":{"p":2.019,"d":"2026-04-30"},"SP98":{"p":2.099,"d":"2026-04-30"}},"brand":"Système U","h24":true,"services":["Toilettes publiques","Boutique alimentaire","Boutique non alimentaire","Restauration à emporter","Location de véhicule","Piste poids lourds","Vente de gaz domestique (Butane, Propane)","Automate CB 24/24","DAB (Distributeur automatique de billets)"]},{"id":88400006,"lat":48.0749562,"lng":6.883139,"addr":"60 Boulevard Kelsch","city":"Gérardmer","cp":"88400","fuels":{"Gazole":{"p":2.24,"d":"2026-04-27"},"SP95":{"p":2.11,"d":"2026-04-27"},"SP98":{"p":2.165,"d":"2026-04-27"}},"services":["Toilettes publiques","Boutique non alimentaire","Station de gonflage","Location de véhicule","Services réparation / entretien","DAB (Distributeur automatique de billets)"]},{"id":88500004,"lat":48.29234,"lng":6.13127,"addr":"Avenue Maréchal de Lattre de Tassigny","city":"MIRECOURT","cp":"88500","fuels":{"Gazole":{"p":2.09,"d":"2026-05-01"},"E10":{"p":1.99,"d":"2026-04-28"},"SP98":{"p":1.99,"d":"2026-03-13"}},"brand":"TotalEnergies","services":["Boutique alimentaire","Boutique non alimentaire","Vente de fioul domestique","Station de gonflage","Carburant additivé","Piste poids lourds","Lavage automatique","Lavage manuel","Vente de gaz domestique (Butane, Propane)","DAB (Distributeur automatique de billets)"]},{"id":88160001,"lat":47.881,"lng":6.764,"addr":"20 Avenue de Verdun","city":"LE THILLOT","cp":"88160","fuels":{"Gazole":{"p":2.09,"d":"2026-05-01"},"GPLc":{"p":1.07,"d":"2026-04-30"},"E10":{"p":1.99,"d":"2026-04-30"},"SP98":{"p":1.99,"d":"2026-04-30"}},"brand":"TotalEnergies","services":["Boutique alimentaire","Boutique non alimentaire","Station de gonflage","Carburant additivé","Location de véhicule","Piste poids lourds","Lavage manuel","Services réparation / entretien"]},{"id":88560003,"lat":47.856077400000004,"lng":6.8204837,"addr":"1 Rue de Lorraine","city":"Saint Maurice sur Moselle","cp":"88560","fuels":{"Gazole":{"p":2.245,"d":"2026-04-30"},"SP98":{"p":2.099,"d":"2026-04-30"}},"brand":"Carrefour","h24":true,"services":["Laverie","Vente de gaz domestique (Butane, Propane)","Automate CB 24/24"]},{"id":88500007,"lat":48.31,"lng":6.135,"addr":"RUE SAINT MAURICE","city":"Mirecourt","cp":"88500","fuels":{"Gazole":{"p":2.189,"d":"2026-04-29"},"GPLc":{"p":1.029,"d":"2026-04-23"},"E10":{"p":1.989,"d":"2026-04-29"},"SP98":{"p":2.079,"d":"2026-04-29"}},"brand":"Intermarché","h24":true,"services":["Restauration à emporter","Restauration sur place","Toilettes publiques","Boutique alimentaire","Station de gonflage","Boutique non alimentaire","Laverie","Vente de gaz domestique (Butane, Propane)","Location de véhicule","Relais colis","Piste poids lourds","DAB (Distributeur automatique de billets)","Lavage automatique","Lavage manuel","Bornes électriques","Vente d'additifs carburants","Wifi","Automate CB 24/24"]},{"id":88300009,"lat":48.350292214715,"lng":5.6937236543108,"addr":"3 avenue francois de neufchateau","city":"neufchateau","cp":"88300","fuels":{"Gazole":{"p":2.289,"d":"2026-04-22"},"SP95":{"p":2.169,"d":"2026-04-22"},"E85":{"p":0.899,"d":"2026-04-22"}},"brand":"TotalEnergies","h24":true,"services":["Automate CB 24/24"]},{"id":88190001,"lat":48.191,"lng":6.419,"addr":"Rue du Général Leclerc","city":"Golbey","cp":"88190","fuels":{"Gazole":{"p":2.159,"d":"2026-04-30"},"E85":{"p":0.758,"d":"2026-04-30"},"E10":{"p":2.019,"d":"2026-04-30"},"SP98":{"p":2.099,"d":"2026-04-30"}},"brand":"Leclerc","h24":true,"services":["Toilettes publiques","Relais colis","Bar","Carburant additivé","Piste poids lourds","Vente de gaz domestique (Butane, Propane)","Vente d'additifs carburants","Automate CB 24/24","DAB (Distributeur automatique de billets)"]},{"id":88420002,"lat":48.377920411274,"lng":6.892773748928,"addr":"7 Av. du Général de Gaulle","city":"MOYENMOUTIER","cp":"88420","fuels":{"Gazole":{"p":2.145,"d":"2026-05-01"},"SP95":{"p":2.069,"d":"2026-04-30"},"E10":{"p":2.009,"d":"2026-04-30"},"SP98":{"p":2.119,"d":"2026-04-30"}},"brand":"Intermarché","h24":true,"services":["Laverie","Restauration sur place","Station de gonflage","Location de véhicule","Piste poids lourds","Vente de gaz domestique (Butane, Propane)","Automate CB 24/24"]},{"id":88580001,"lat":48.242,"lng":6.954,"addr":"RUE RAYMOND PANIN","city":"Saulcy-sur-Meurthe","cp":"88580","fuels":{"Gazole":{"p":2.09,"d":"2026-05-01"},"E10":{"p":1.99,"d":"2026-05-01"},"SP98":{"p":1.99,"d":"2026-05-01"}},"brand":"TotalEnergies","services":["Boutique alimentaire","Boutique non alimentaire","Station de gonflage","Carburant additivé","Piste poids lourds","Services réparation / entretien","Vente de gaz domestique (Butane, Propane)","DAB (Distributeur automatique de billets)"]},{"id":88320001,"lat":48.074490839999996,"lng":5.78766316,"addr":"ZA du CHERI BUISSON","city":"LAMARCHE","cp":"88320","fuels":{"Gazole":{"p":2.179,"d":"2026-04-28"},"SP95":{"p":2.049,"d":"2026-04-24"},"SP98":{"p":2.099,"d":"2026-04-30"}},"brand":"Carrefour","services":["Piste poids lourds","DAB (Distributeur automatique de billets)"]},{"id":88650005,"lat":48.220247,"lng":6.945248,"addr":"456 RUE DE LA LORRAINE","city":"SAINT LEONARD","cp":"88650","fuels":{"Gazole":{"p":2.154,"d":"2026-04-29"},"E10":{"p":1.998,"d":"2026-04-25"},"SP98":{"p":2.089,"d":"2026-04-29"}},"brand":"DATS 24","h24":true,"services":["Automate CB 24/24"]},{"id":88440001,"lat":48.305,"lng":6.388,"addr":"68bis rue d'Alsace","city":"NOMEXY","cp":"88440","fuels":{"Gazole":{"p":2.189,"d":"2026-04-28"},"E85":{"p":0.819,"d":"2026-04-21"},"E10":{"p":1.999,"d":"2026-04-28"}},"brand":"DATS 24","h24":true,"services":["Piste poids lourds","Bornes électriques","Wifi","Automate CB 24/24","DAB (Distributeur automatique de billets)"]},{"id":88400002,"lat":48.079,"lng":6.889,"addr":"Zac de la Croisette","city":"Gérardmer","cp":"88400","fuels":{"Gazole":{"p":2.169,"d":"2026-04-30"},"E85":{"p":0.819,"d":"2026-04-16"},"E10":{"p":1.985,"d":"2026-04-30"},"SP98":{"p":2.079,"d":"2026-04-30"}},"brand":"Intermarché","services":["Toilettes publiques","Laverie","Boutique alimentaire","Restauration à emporter","Restauration sur place","Vente de pétrole lampant","Location de véhicule","Piste poids lourds","Vente de gaz domestique (Butane, Propane)","DAB (Distributeur automatique de billets)"]},{"id":88650004,"lat":48.188,"lng":6.954,"addr":"104 RUE DE COLMAR","city":"anould","cp":"88650","fuels":{"Gazole":{"p":2.09,"d":"2026-05-01"},"E10":{"p":1.99,"d":"2026-04-28"},"SP98":{"p":1.99,"d":"2026-04-28"}},"brand":"TotalEnergies","h24":true,"services":["Toilettes publiques","Boutique alimentaire","Station de gonflage","Carburant additivé","Piste poids lourds","Services réparation / entretien","Vente d'additifs carburants","Automate CB 24/24"]},{"id":88140006,"lat":48.188,"lng":5.894,"addr":"AV DIVISION LECLERC","city":"CONTREXEVILLE","cp":"88140","fuels":{"E85":{"p":0.819,"d":"2026-05-01"},"GPLc":{"p":1.044,"d":"2026-05-01"}},"brand":"TotalEnergies","services":["Relais colis","Boutique alimentaire","Boutique non alimentaire","Station de gonflage","Carburant additivé","Piste poids lourds","Vente de gaz domestique (Butane, Propane)","Wifi"]},{"id":88100004,"lat":48.293,"lng":6.935,"addr":"5 Rue Marcel Mauss","city":"Saint-Dié-des-Vosges","cp":"88100","fuels":{"Gazole":{"p":2.159,"d":"2026-04-30"},"SP95":{"p":2.028,"d":"2026-04-25"},"GPLc":{"p":1.034,"d":"2026-04-21"},"SP98":{"p":2.035,"d":"2026-04-29"}},"brand":"Leclerc","h24":true,"services":["Toilettes publiques","Laverie","Restauration à emporter","Restauration sur place","Vente de fioul domestique","Station de gonflage","Piste poids lourds","Lavage automatique","Lavage manuel","Vente de gaz domestique (Butane, Propane)","Wifi","Automate CB 24/24","DAB (Distributeur automatique de billets)"]},{"id":88300008,"lat":48.354,"lng":5.707,"addr":"24 AVENUE HERRINGEN","city":"NEUFCHATEAU","cp":"88300","fuels":{"Gazole":{"p":2.09,"d":"2026-05-01"},"E85":{"p":0.839,"d":"2026-05-01"},"E10":{"p":1.99,"d":"2026-05-01"},"SP98":{"p":1.99,"d":"2026-05-01"}},"brand":"TotalEnergies"},{"id":88250002,"lat":48.006,"lng":6.879,"addr":"11, Rue Paul CLAUDEL","city":"LA BRESSE","cp":"88250","fuels":{"Gazole":{"p":2.189,"d":"2026-04-30"},"SP95":{"p":2.09,"d":"2026-04-30"},"SP98":{"p":2.109,"d":"2026-04-30"}},"brand":"Système U","h24":true,"services":["Automate CB 24/24"]},{"id":88290001,"lat":47.952,"lng":6.817,"addr":"814 ROUTE DU BEU","city":"Saulxures-sur-Moselotte","cp":"88290","fuels":{"Gazole":{"p":2.09,"d":"2026-05-01"},"E10":{"p":1.99,"d":"2026-04-30"},"SP98":{"p":1.99,"d":"2026-04-30"}},"brand":"TotalEnergies","h24":true,"services":["Laverie","Boutique alimentaire","Boutique non alimentaire","Station de gonflage","Carburant additivé","Piste poids lourds","Lavage automatique","Lavage manuel","Services réparation / entretien","Vente de gaz domestique (Butane, Propane)","Automate CB 24/24"]},{"id":88100006,"lat":48.272,"lng":6.97,"addr":"183 Rue Ernest Charlier","city":"SAINTE-MARGUERITE","cp":"88100","fuels":{"Gazole":{"p":2.149,"d":"2026-04-30"},"E85":{"p":0.82,"d":"2026-04-30"},"GPLc":{"p":1.035,"d":"2026-04-30"},"E10":{"p":1.982,"d":"2026-04-30"},"SP98":{"p":2.078,"d":"2026-04-30"}},"brand":"Carrefour","h24":true,"services":["Toilettes publiques","Laverie","Relais colis","Restauration à emporter","Restauration sur place","Vente de fioul domestique","Vente de pétrole lampant","Station de gonflage","Carburant additivé","Location de véhicule","Piste poids lourds","Vente de gaz domestique (Butane, Propane)","Bornes électriques","Vente d'additifs carburants","Wifi","Automate CB 24/24","DAB (Distributeur automatique de billets)"]},{"id":88360002,"lat":47.925,"lng":6.659,"addr":"3 QUAI DE LA PARELLE","city":"Rupt-sur-Moselle","cp":"88360","fuels":{"Gazole":{"p":2.17,"d":"2026-04-29"},"E10":{"p":1.977,"d":"2026-04-29"},"SP98":{"p":1.99,"d":"2026-04-29"}},"brand":"Intermarché","h24":true,"services":["Laverie","Relais colis","Vente de fioul domestique","Vente de pétrole lampant","Station de gonflage","Aire de camping-cars","Vente de gaz domestique (Butane, Propane)","Automate CB 24/24"]},{"id":88000009,"lat":48.192,"lng":6.44,"addr":"47, AVENUE DE LA FONTENELLE","city":"EPINAL","cp":"88000","fuels":{"Gazole":{"p":2.09,"d":"2026-05-01"},"E85":{"p":0.829,"d":"2026-05-01"}},"services":["Relais colis","Boutique alimentaire","Boutique non alimentaire","Restauration à emporter","Station de gonflage","Carburant additivé","Piste poids lourds","Lavage automatique","Vente de gaz domestique (Butane, Propane)"]},{"id":88025001,"lat":48.2,"lng":6.48,"addr":"33 ROUTE DU SAUT LE CERF","city":"EPINAL - JEUXEY","cp":"88000","fuels":{"Gazole":{"p":2.209,"d":"2026-04-30"},"SP95":{"p":2.069,"d":"2026-04-30"},"GPLc":{"p":1.099,"d":"2026-04-30"},"E10":{"p":2.019,"d":"2026-04-30"},"SP98":{"p":2.149,"d":"2026-04-30"}},"brand":"Carrefour","h24":true,"services":["Laverie","Vente de fioul domestique","Station de gonflage","Location de véhicule","Piste poids lourds","Lavage automatique","Lavage manuel","Vente de gaz domestique (Butane, Propane)","Automate CB 24/24","DAB (Distributeur automatique de billets)"]},{"id":88150005,"lat":48.261339208231,"lng":6.409405188741999,"addr":"196 Rue de Lorraine","city":"Thaon-les-Vosges","cp":"88150","fuels":{"Gazole":{"p":2.189,"d":"2026-04-30"},"E10":{"p":2.069,"d":"2026-04-30"},"SP98":{"p":2.109,"d":"2026-04-30"}},"brand":"Système U","h24":true,"services":["Laverie","Relais colis","Carburant additivé","Location de véhicule","Piste poids lourds","Bornes électriques","Wifi","Automate CB 24/24"]},{"id":88630003,"lat":48.405,"lng":5.684,"addr":"52 grande rue","city":"COUSSEY","cp":"88630","fuels":{"Gazole":{"p":2.289,"d":"2026-04-22"},"E10":{"p":2.129,"d":"2026-04-14"},"SP98":{"p":2.199,"d":"2026-04-14"}},"h24":true,"services":["Laverie","Relais colis","Automate CB 24/24"]},{"id":88210003,"lat":48.391259000000005,"lng":6.972811999999999,"addr":"RUE DU DOCTEUR LARUE","city":"SENONES","cp":"88210","fuels":{"Gazole":{"p":2.176,"d":"2026-04-27"},"E10":{"p":1.969,"d":"2026-04-27"},"SP98":{"p":2.059,"d":"2026-04-27"}},"brand":"DATS 24","h24":true,"services":["Piste poids lourds","Automate CB 24/24"]},{"id":88170007,"lat":48.26905,"lng":5.85964,"addr":"A31 AIRE DE LORRAINE SANDAUCOURT LA TRELLE","city":"SANDAUCOURT","cp":"88170","fuels":{"Gazole":{"p":2.09,"d":"2026-05-01"},"E10":{"p":1.99,"d":"2026-05-01"},"SP98":{"p":1.99,"d":"2026-05-01"}},"brand":"Eni"},{"id":88250001,"lat":47.999,"lng":6.87,"addr":"GRAND RUE","city":"La Bresse","cp":"88250","fuels":{"Gazole":{"p":2.246,"d":"2026-04-29"},"E10":{"p":1.99,"d":"2026-04-29"},"SP98":{"p":1.99,"d":"2026-04-29"}},"brand":"TotalEnergies","h24":true,"services":["Boutique alimentaire","Boutique non alimentaire","Station de gonflage","Carburant additivé","Location de véhicule","Piste poids lourds","Lavage automatique","Lavage manuel","Services réparation / entretien","Wifi","Automate CB 24/24"]}]