[{"id":100004984,"lat":42.650611,"lng":-3.069667,"addr":"AUTOPISTA AP-1 (MRG.DCHO.) KM. 63,5","city":"AMEYUGO","cp":"09219","fuels":{"Gazole":{"p":1.635,"d":"2026-07-14"},"SP95":{"p":1.645,"d":"2026-07-14"},"SP98":{"p":1.87,"d":"2026-07-14"},"GPLc":{"p":1.144,"d":"2026-07-14"}},"brand":"Moeve","h24":true},{"id":100004983,"lat":42.651972,"lng":-3.068028,"addr":"AUTOPISTA AP-1 (MRG.IZDO.) KM. 63,5","city":"AMEYUGO","cp":"09219","fuels":{"Gazole":{"p":1.645,"d":"2026-07-14"},"SP95":{"p":1.645,"d":"2026-07-14"},"SP98":{"p":1.87,"d":"2026-07-14"},"GPLc":{"p":1.144,"d":"2026-07-14"}},"brand":"Moeve","h24":true},{"id":100004736,"lat":41.67025,"lng":-3.707139,"addr":"CALLE BEMPOSTA R-97, 97","city":"ARANDA DE DUERO","cp":"09400","fuels":{"Gazole":{"p":1.635,"d":"2026-07-14"},"SP95":{"p":1.625,"d":"2026-07-14"}},"brand":"Cepsa"},{"id":100014458,"lat":41.665556,"lng":-3.710611,"addr":"AVENIDA LUIS MATEOS  EN  ARANDA DE DUERO, 106","city":"ARANDA DE DUERO","cp":"09400","fuels":{"Gazole":{"p":1.469,"d":"2026-07-14"},"SP95":{"p":1.499,"d":"2026-07-14"}},"brand":"Petroprix","h24":true},{"id":100005070,"lat":41.674944,"lng":-3.686,"addr":"CALLE SAN FRANCISCO, 39","city":"ARANDA DE DUERO","cp":"09400","fuels":{"Gazole":{"p":1.599,"d":"2026-07-14"},"SP95":{"p":1.599,"d":"2026-07-14"},"SP98":{"p":1.739,"d":"2026-07-14"}},"brand":"Bp Aranda De Duero","h24":true},{"id":100014632,"lat":41.653917,"lng":-3.700472,"addr":"CALLE VENDIMIA  EN  ARANDA DE DUERO, 2","city":"ARANDA DE DUERO","cp":"09400","fuels":{"Gazole":{"p":1.549,"d":"2026-07-14"},"SP95":{"p":1.569,"d":"2026-07-14"},"SP98":{"p":1.749,"d":"2026-07-14"}},"brand":"Valcarce"},{"id":100006075,"lat":41.665194,"lng":-3.705444,"addr":"AVENIDA LUIS MATEOS, 84","city":"ARANDA DE DUERO","cp":"09400","fuels":{"Gazole":{"p":1.512,"d":"2026-07-14"},"SP95":{"p":1.518,"d":"2026-07-14"}},"brand":"Moeve"},{"id":100012039,"lat":41.665667,"lng":-3.733361,"addr":"AVENIDA PORTUGAL, 13","city":"ARANDA DE DUERO","cp":"09400","fuels":{"Gazole":{"p":1.51,"d":"2026-07-14"}},"brand":"No Tiene"},{"id":100016060,"lat":41.639778,"lng":-3.693444,"addr":"CARRETERA CL 603 KM. 0","city":"ARANDA DE DUERO","cp":"09400","fuels":{"Gazole":{"p":1.498,"d":"2026-07-14"},"SP95":{"p":1.508,"d":"2026-07-14"}},"brand":"Buquerin","h24":true},{"id":100013049,"lat":41.667972,"lng":-3.711778,"addr":"AVENIDA PORTUGAL, 53","city":"ARANDA DE DUERO","cp":"09400","fuels":{"Gazole":{"p":1.559,"d":"2026-07-14"}},"brand":"Dgv","h24":true},{"id":100004969,"lat":41.677056,"lng":-3.691944,"addr":"CARRETERA LA AGUILERA KM. 0","city":"ARANDA DE DUERO","cp":"09400","fuels":{"Gazole":{"p":1.469,"d":"2026-07-14"},"SP95":{"p":1.499,"d":"2026-07-14"},"SP98":{"p":1.729,"d":"2026-07-14"}},"brand":"Alcampo"},{"id":100014172,"lat":41.686861,"lng":-3.684861,"addr":"CARRETERA NACIONAL I KM. 160,3","city":"ARANDA DE DUERO","cp":"09400","fuels":{"Gazole":{"p":1.479,"d":"2026-07-14"},"SP95":{"p":1.499,"d":"2026-07-14"}},"brand":"Beroil","h24":true},{"id":100011831,"lat":41.666333,"lng":-3.725417,"addr":"AVENIDA PORTUGAL, 21","city":"ARANDA DE DUERO","cp":"09400","fuels":{"Gazole":{"p":1.529,"d":"2026-07-14"},"SP95":{"p":1.529,"d":"2026-07-14"}},"brand":"Gasoleos Aranda","h24":true},{"id":100013238,"lat":41.666444,"lng":-3.727861,"addr":"AVENIDA PORTUGAL, 82","city":"ARANDA DE DUERO","cp":"09400","fuels":{"Gazole":{"p":1.479,"d":"2026-07-14"},"SP95":{"p":1.499,"d":"2026-07-14"}},"brand":"Beroil","h24":true},{"id":100006038,"lat":41.662583,"lng":-3.691861,"addr":"AVENIDA CASTILLA, 64","city":"ARANDA DE DUERO","cp":"09400","fuels":{"Gazole":{"p":1.609,"d":"2026-07-14"},"SP95":{"p":1.619,"d":"2026-07-14"},"SP98":{"p":1.739,"d":"2026-07-14"},"GPLc":{"p":1.105,"d":"2026-07-14"}},"brand":"Repsol","h24":true},{"id":100012551,"lat":42.275306,"lng":-3.763167,"addr":"CARRETERA ALBILLOS KM. 0,2","city":"ARCOS","cp":"09195","fuels":{"Gazole":{"p":1.519,"d":"2026-07-14"},"SP95":{"p":1.539,"d":"2026-07-14"}},"brand":"Norpetrol Arcos","h24":true},{"id":100011228,"lat":42.177028,"lng":-4.060028,"addr":"AUTOVIA A-62 KM. 40","city":"BALBASES (LOS)","cp":"09119","fuels":{"Gazole":{"p":1.679,"d":"2026-07-14"},"SP95":{"p":1.624,"d":"2026-07-14"}},"brand":"Galp"},{"id":100005069,"lat":42.693778,"lng":-3.980611,"addr":"CARRETERA N-627, BURGOS-AGUILAR DE CAMPOO KM. 51,550","city":"BASCONCILLOS DEL TOZO","cp":"09126","fuels":{"Gazole":{"p":1.608,"d":"2026-07-14"},"SP95":{"p":1.658,"d":"2026-07-14"},"SP98":{"p":1.798,"d":"2026-07-14"}},"brand":"Repsol"},{"id":100005548,"lat":42.417333,"lng":-3.207111,"addr":"CARRETERA N-120 KM. 68,3","city":"BELORADO","cp":"09250","fuels":{"Gazole":{"p":1.618,"d":"2026-07-14"},"SP95":{"p":1.648,"d":"2026-07-14"},"SP98":{"p":1.788,"d":"2026-07-14"}},"brand":"Repsol"},{"id":100006045,"lat":42.911833,"lng":-3.061333,"addr":"CR N-625, 337","city":"BERBERANA","cp":"09511","fuels":{"Gazole":{"p":1.528,"d":"2026-07-14"},"SP95":{"p":1.538,"d":"2026-07-14"},"SP98":{"p":1.638,"d":"2026-07-14"}},"brand":"E.S.Ferreira"},{"id":100008990,"lat":42.56325,"lng":-3.331597,"addr":"CTRA.CORNUDILLA, KM.3,2","city":"BRIVIESCA","cp":"09240","fuels":{"Gazole":{"p":1.495,"d":"2026-07-14"},"SP95":{"p":1.49,"d":"2026-07-14"}},"brand":"Suministros Agrobureba, Sl","h24":true},{"id":100004989,"lat":42.526028,"lng":-3.334111,"addr":"AUTOPISTA AP-1 (MRG.DCHO.) KM. 35,5","city":"BRIVIESCA","cp":"09240","fuels":{"Gazole":{"p":1.635,"d":"2026-07-14"},"SP95":{"p":1.665,"d":"2026-07-14"},"SP98":{"p":1.87,"d":"2026-07-14"},"GPLc":{"p":1.144,"d":"2026-07-14"}},"brand":"Moeve","h24":true},{"id":100010039,"lat":42.534556,"lng":-3.321083,"addr":"CARRETERA N I KM. 278,050","city":"BRIVIESCA","cp":"09240","fuels":{"Gazole":{"p":1.639,"d":"2026-07-14"},"SP95":{"p":1.645,"d":"2026-07-14"},"SP98":{"p":1.785,"d":"2026-07-14"}},"brand":"BP","h24":true},{"id":100004991,"lat":42.528861,"lng":-3.332083,"addr":"AUTOPISTA AP-1 (MRG.IZDO.) KM. 35,5","city":"BRIVIESCA","cp":"09240","fuels":{"Gazole":{"p":1.635,"d":"2026-07-14"},"SP95":{"p":1.645,"d":"2026-07-14"},"SP98":{"p":1.87,"d":"2026-07-14"},"GPLc":{"p":1.144,"d":"2026-07-14"}},"brand":"Moeve","h24":true},{"id":100013946,"lat":42.535722,"lng":-3.314917,"addr":"CARRETERA BELORADO KM. BU-710 KM 0,5","city":"BRIVIESCA","cp":"09240","fuels":{"Gazole":{"p":1.489,"d":"2026-07-14"},"SP95":{"p":1.495,"d":"2026-07-14"}},"brand":"Norpetrol Los Carros 2","h24":true},{"id":100009430,"lat":42.555889,"lng":-3.320056,"addr":"CALLE BURGOS, 11","city":"BRIVIESCA","cp":"09240","fuels":{"Gazole":{"p":1.49,"d":"2026-07-14"},"SP95":{"p":1.495,"d":"2026-07-14"}},"brand":"Norpetrol La Vega","h24":true},{"id":100009431,"lat":42.536278,"lng":-3.312889,"addr":"CARRETERA BELORADO BU-710 km 1","city":"BRIVIESCA","cp":"09240","fuels":{"Gazole":{"p":1.49,"d":"2026-07-14"}},"brand":"Norpetrol Los Carros","h24":true},{"id":100013239,"lat":42.300722,"lng":-3.835139,"addr":"CARRETERA A 62 KM. 14","city":"BUNIEL","cp":"09230","fuels":{"Gazole":{"p":1.469,"d":"2026-07-14"},"SP95":{"p":1.499,"d":"2026-07-14"}},"brand":"Beroil","h24":true},{"id":100005989,"lat":42.344667,"lng":-3.698667,"addr":"CL GENERAL SANZ PASTOR, S.N.","city":"BURGOS","cp":"09003","fuels":{"Gazole":{"p":1.609,"d":"2026-07-14"},"SP95":{"p":1.649,"d":"2026-07-14"}},"brand":"Repsol"},{"id":100005986,"lat":42.337472,"lng":-3.711889,"addr":"CL AVENIDA PALENCIA, S.N.","city":"BURGOS","cp":"09001","fuels":{"Gazole":{"p":1.639,"d":"2026-07-14"},"SP95":{"p":1.649,"d":"2026-07-14"},"SP98":{"p":1.789,"d":"2026-07-14"},"GPLc":{"p":1.109,"d":"2026-07-14"}},"brand":"Repsol","h24":true},{"id":100006053,"lat":42.330333,"lng":-3.7005,"addr":"CL MADRID, 66","city":"BURGOS","cp":"09001","fuels":{"Gazole":{"p":1.639,"d":"2026-07-14"},"SP95":{"p":1.649,"d":"2026-07-14"},"SP98":{"p":1.789,"d":"2026-07-14"}},"brand":"Repsol","h24":true},{"id":100011878,"lat":42.370528,"lng":-3.718528,"addr":"CALLE CONDADO DE TREVIÑO, 30","city":"BURGOS","cp":"09001","fuels":{"Gazole":{"p":1.659,"d":"2026-07-14"},"SP95":{"p":1.649,"d":"2026-07-14"}},"brand":"Villalonquejar"},{"id":100010753,"lat":42.364306,"lng":-3.711944,"addr":"CARRETERA BURGOS-QUINTANADUEÑAS KM. 3","city":"BURGOS","cp":"09001","fuels":{"Gazole":{"p":1.509,"d":"2026-07-14"},"SP95":{"p":1.549,"d":"2026-07-14"},"SP98":{"p":1.709,"d":"2026-07-14"},"GPLc":{"p":0.999,"d":"2026-07-14"}},"brand":"Las Terrazas","h24":true},{"id":100009803,"lat":42.362528,"lng":-3.762083,"addr":"LOPEZ BRAVO, 93","city":"BURGOS","cp":"09001","fuels":{"Gazole":{"p":1.597,"d":"2026-07-14"},"SP95":{"p":1.597,"d":"2026-07-14"},"SP98":{"p":1.757,"d":"2026-07-14"}},"brand":"Villalón"},{"id":100016192,"lat":42.319611,"lng":-3.702278,"addr":"CARRETERA NACIONAL I KM. 236","city":"BURGOS","cp":"09001","fuels":{"Gazole":{"p":1.499,"d":"2026-07-14"},"SP95":{"p":1.499,"d":"2026-07-14"}},"brand":"Ballenoil","h24":true},{"id":100006006,"lat":42.342417,"lng":-3.720889,"addr":"PASEO LAS FUENTECILLAS, S/N","city":"BURGOS","cp":"09001","fuels":{"Gazole":{"p":1.639,"d":"2026-07-14"},"SP95":{"p":1.635,"d":"2026-07-14"}},"brand":"Cepsa"},{"id":100011058,"lat":42.310278,"lng":-3.702917,"addr":"AUTOVIA A-I KM. 235","city":"BURGOS","cp":"09001","fuels":{"Gazole":{"p":1.665,"d":"2026-07-14"},"SP95":{"p":1.675,"d":"2026-07-14"},"GPLc":{"p":1.144,"d":"2026-07-14"}},"brand":"Moeve"},{"id":100016126,"lat":42.365028,"lng":-3.698778,"addr":"CALLE DEL ALFOZ DE BRICIA  EN  BURGOS, 28","city":"BURGOS","cp":"09001","fuels":{"Gazole":{"p":1.499,"d":"2026-07-14"},"SP95":{"p":1.539,"d":"2026-07-14"}},"brand":"Norpetrol","h24":true},{"id":100014166,"lat":42.371861,"lng":-3.728361,"addr":"CALLE LOPEZ BRAVO, 17","city":"BURGOS","cp":"09001","fuels":{"Gazole":{"p":1.499,"d":"2026-07-14"},"SP95":{"p":1.539,"d":"2026-07-14"}},"brand":"Beroil","h24":true},{"id":100012062,"lat":42.360694,"lng":-3.694778,"addr":"CARRETERA SANTANDER N-623 (CARREFOUR) KM. 2","city":"BURGOS","cp":"09006","fuels":{"Gazole":{"p":1.579,"d":"2026-07-14"},"SP95":{"p":1.619,"d":"2026-07-14"},"SP98":{"p":1.759,"d":"2026-07-14"}},"brand":"Carrefour","h24":true},{"id":100014516,"lat":42.365528,"lng":-3.674806,"addr":"AVENIDA PRINCIPE DE ASTURIAS, SN","city":"BURGOS","cp":"09006","fuels":{"Gazole":{"p":1.659,"d":"2026-07-14"},"SP95":{"p":1.649,"d":"2026-07-14"},"SP98":{"p":1.839,"d":"2026-07-14"}},"brand":"Trifon"},{"id":100006068,"lat":42.363611,"lng":-3.680694,"addr":"AVENIDA ISLAS BALEARES, S/N","city":"BURGOS","cp":"09006","fuels":{"Gazole":{"p":1.649,"d":"2026-07-14"},"SP95":{"p":1.639,"d":"2026-07-14"}},"brand":"Fundacion Aida Cepsa","h24":true},{"id":100006073,"lat":42.358694,"lng":-3.695111,"addr":"CARRETERA CARRETERA DE SANTANDER KM. 2","city":"BURGOS","cp":"09006","fuels":{"Gazole":{"p":1.499,"d":"2026-07-14"},"SP95":{"p":1.539,"d":"2026-07-14"},"SP98":{"p":1.699,"d":"2026-07-14"},"GPLc":{"p":0.999,"d":"2026-07-14"}},"brand":"Beroil","h24":true},{"id":100005532,"lat":42.34875,"lng":-3.677917,"addr":"CL GLORIETA LOGROÑO, S.N.","city":"BURGOS","cp":"09007","fuels":{"Gazole":{"p":1.639,"d":"2026-07-14"},"SP95":{"p":1.649,"d":"2026-07-14"},"SP98":{"p":1.789,"d":"2026-07-14"}},"brand":"Repsol","h24":true},{"id":100014580,"lat":42.358722,"lng":-3.650972,"addr":"CALLE ALCALDE MARTIN COBOS  EN  BURGOS, 18","city":"BURGOS","cp":"09007","fuels":{"Gazole":{"p":1.549,"d":"2026-07-14"},"SP95":{"p":1.529,"d":"2026-07-14"}},"brand":"Cepsa"},{"id":100015683,"lat":42.351167,"lng":-3.660306,"addr":"CALLE JUAN RAMÓN JIMENEZ, S/N","city":"BURGOS","cp":"09007","fuels":{"Gazole":{"p":1.499,"d":"2026-07-14"},"SP95":{"p":1.499,"d":"2026-07-14"}},"brand":"Ballenoil","h24":true},{"id":100014798,"lat":42.351583,"lng":-3.647722,"addr":"CALLE ALCALDE MARTIN COBOS  EN  BURGOS, 12","city":"BURGOS","cp":"09007","fuels":{"Gazole":{"p":1.499,"d":"2026-07-14"},"SP95":{"p":1.539,"d":"2026-07-14"}},"brand":"Norpetrol Ory","h24":true},{"id":100016220,"lat":42.360639,"lng":-3.652806,"addr":"CALLE ALCALDE MARTIN COBOS  EN  BURGOS, 19","city":"BURGOS","cp":"09007","fuels":{"Gazole":{"p":1.499,"d":"2026-07-14"},"SP95":{"p":1.539,"d":"2026-07-14"}},"brand":"Beroil","h24":true},{"id":100015572,"lat":42.362,"lng":-3.6535,"addr":"CALLE ALCALDE MARTÍN COBOS, 26","city":"BURGOS","cp":"09007","fuels":{"Gazole":{"p":1.499,"d":"2026-07-14"},"SP95":{"p":1.499,"d":"2026-07-14"}},"brand":"Plenergy","h24":true},{"id":100005040,"lat":42.366083,"lng":-3.692694,"addr":"CARRETERA N-623 KM. 0","city":"VILLATORO","cp":"09006","fuels":{"Gazole":{"p":1.569,"d":"2026-07-14"},"SP95":{"p":1.609,"d":"2026-07-14"}},"brand":"Galp"},{"id":100005982,"lat":42.364111,"lng":-3.622139,"addr":"CALLE VITORIA, 290","city":"VILLAFRIA","cp":"09192","fuels":{"Gazole":{"p":1.605,"d":"2026-07-14"},"SP95":{"p":1.639,"d":"2026-07-14"},"SP98":{"p":1.809,"d":"2026-07-14"}},"brand":"Repsol"},{"id":100006059,"lat":42.344583,"lng":-3.647944,"addr":"CARRETERA NACIONAL 120 KM. 108,3","city":"VILLAYUDA O LA VENTILLA","cp":"09007","fuels":{"Gazole":{"p":1.609,"d":"2026-07-14"},"SP95":{"p":1.645,"d":"2026-07-14"},"SP98":{"p":1.765,"d":"2026-07-14"},"GPLc":{"p":1.109,"d":"2026-07-14"}},"brand":"Repsol"},{"id":100012608,"lat":42.368111,"lng":-3.728194,"addr":"CALLE CONDADO DE TREVIÑO, 2","city":"BURGOS","cp":"09000","fuels":{"Gazole":{"p":1.569,"d":"2026-07-14"},"SP95":{"p":1.619,"d":"2026-07-14"}},"brand":"Biesa","h24":true},{"id":100004942,"lat":42.369417,"lng":-3.607611,"addr":"CARRETERA NACIONAL I KM. 247","city":"BURGOS","cp":"09192","fuels":{"Gazole":{"p":1.809,"d":"2026-07-14"},"SP95":{"p":1.754,"d":"2026-07-14"}},"brand":"Urlave","h24":true},{"id":100005544,"lat":41.823167,"lng":-3.49025,"addr":"CARRETERA BU-910 KM. 24","city":"CALERUEGA","cp":"09451","fuels":{"Gazole":{"p":1.639,"d":"2026-07-14"},"SP95":{"p":1.659,"d":"2026-07-14"},"SP98":{"p":1.809,"d":"2026-07-14"}},"brand":"Moeve"},{"id":100014118,"lat":42.287639,"lng":-3.623639,"addr":"CALLE CALZADA, 1","city":"CARCEDO DE BURGOS","cp":"09193","fuels":{"Gazole":{"p":1.488,"d":"2026-07-14"},"SP95":{"p":1.498,"d":"2026-07-14"}},"brand":"Carcedoil","h24":true},{"id":100005518,"lat":42.34125,"lng":-3.612222,"addr":"CARRETERA N-120 KM. 106","city":"CARDEÑAJIMENO","cp":"09193","fuels":{"Gazole":{"p":1.605,"d":"2026-07-14"},"SP95":{"p":1.639,"d":"2026-07-14"},"SP98":{"p":1.809,"d":"2026-07-14"}},"brand":"Repsol"},{"id":100006071,"lat":41.648417,"lng":-3.78275,"addr":"CARRETERA N-122 KM. 278,160","city":"CASTRILLO DE LA VEGA","cp":"09391","fuels":{"Gazole":{"p":1.629,"d":"2026-07-14"},"SP95":{"p":1.639,"d":"2026-07-14"}},"brand":"Cepsa"},{"id":100005515,"lat":42.286667,"lng":-4.141333,"addr":"CARRETERA BU-P-4013 KM. 1","city":"CASTROJERIZ","cp":"09110","fuels":{"Gazole":{"p":1.649,"d":"2026-07-14"},"SP95":{"p":1.679,"d":"2026-07-14"}},"brand":"Petronor","h24":true},{"id":100009235,"lat":42.286833,"lng":-4.145472,"addr":"CAMINO HERAS, S/N","city":"CASTROJERIZ","cp":"09110","fuels":{"Gazole":{"p":1.589,"d":"2026-07-14"},"SP95":{"p":1.619,"d":"2026-07-14"}},"brand":"Biesa"},{"id":100011691,"lat":41.929778,"lng":-3.763361,"addr":"AUTOVIA A-1 KM. 189,9","city":"CILLERUELO DE ABAJO","cp":"09349","fuels":{"Gazole":{"p":1.635,"d":"2026-07-14"},"SP95":{"p":1.629,"d":"2026-07-14"},"SP98":{"p":1.769,"d":"2026-07-14"}},"brand":"BP","h24":true},{"id":100012207,"lat":42.722944,"lng":-2.696139,"addr":"POLIGONO POLIGONO 517 PARCELA 19, S/N","city":"ARMENTIA","cp":"09215","fuels":{"Gazole":{"p":1.498,"d":"2026-07-14"},"SP95":{"p":1.494,"d":"2026-07-14"}},"brand":"An Energeticos - Ventas De Armentia","h24":true},{"id":100004944,"lat":42.733694,"lng":-2.750194,"addr":"CARRETERA MIRANDA DE EBRO KM. 38","city":"TREVIÑO","cp":"09215","fuels":{"Gazole":{"p":1.639,"d":"2026-07-14"},"SP95":{"p":1.628,"d":"2026-07-14"}},"brand":"Gasolinera Treviño"},{"id":100011947,"lat":43.075361,"lng":-3.542806,"addr":"CALLE ESTACION, S/N","city":"ESPINOSA DE LOS MONTEROS","cp":"09560","fuels":{"Gazole":{"p":1.595,"d":"2026-07-14"},"SP95":{"p":1.635,"d":"2026-07-14"},"SP98":{"p":1.845,"d":"2026-07-14"}},"brand":"A.S. La Estacion De Espinosa"},{"id":100004970,"lat":42.278444,"lng":-3.89175,"addr":"CARRETERA NACIONAL 620 KM. 20","city":"ESTEPAR","cp":"09230","fuels":{"Gazole":{"p":1.499,"d":"2026-07-14"},"SP95":{"p":1.539,"d":"2026-07-14"}},"brand":"Beroil","h24":true},{"id":100008034,"lat":42.275278,"lng":-3.897222,"addr":"N-620 km 22","city":"ESTEPAR","cp":"09230","fuels":{"Gazole":{"p":1.649,"d":"2026-07-14"},"SP95":{"p":1.589,"d":"2026-07-14"}},"brand":"Valcarce","h24":true},{"id":100008403,"lat":41.930556,"lng":-3.759889,"addr":"AUTV.A-1 km 190","city":"FONTIOSO","cp":"09349","fuels":{"Gazole":{"p":1.639,"d":"2026-07-14"},"SP95":{"p":1.649,"d":"2026-07-14"},"SP98":{"p":1.799,"d":"2026-07-14"}},"brand":"Shell","h24":true},{"id":100005054,"lat":41.916222,"lng":-3.751139,"addr":"CARRETERA A-1 KM. 187,800","city":"FONTIOSO","cp":"09349","fuels":{"Gazole":{"p":1.609,"d":"2026-07-14"},"SP95":{"p":1.629,"d":"2026-07-14"}},"brand":"Repsol"},{"id":100005975,"lat":42.294444,"lng":-3.8465,"addr":"AUTOVIA A-62 KM. 16,7","city":"FRANDOVINEZ","cp":"09230","fuels":{"Gazole":{"p":1.619,"d":"2026-07-14"},"SP95":{"p":1.615,"d":"2026-07-14"},"SP98":{"p":1.745,"d":"2026-07-14"}},"brand":"Repsol"},{"id":100013254,"lat":41.626083,"lng":-3.878722,"addr":"CARRETERA N122 KM286 KM. 286","city":"FUENTECEN","cp":"09315","fuels":{"Gazole":{"p":1.499,"d":"2026-07-14"},"SP95":{"p":1.539,"d":"2026-07-14"}},"brand":"Beroil","h24":true},{"id":100005059,"lat":41.616306,"lng":-3.684833,"addr":"A-1 km 152,8","city":"FUENTESPINA","cp":"09471","fuels":{"Gazole":{"p":1.599,"d":"2026-07-14"},"SP95":{"p":1.629,"d":"2026-07-14"},"SP98":{"p":1.806,"d":"2026-07-14"}},"brand":"Cepsa"},{"id":100006011,"lat":41.78025,"lng":-3.695667,"addr":"AUTOVIA A-1 KM. 171","city":"GUMIEL DE IZAN","cp":"09370","fuels":{"Gazole":{"p":1.609,"d":"2026-07-14"},"SP95":{"p":1.629,"d":"2026-07-14"},"SP98":{"p":1.799,"d":"2026-07-14"}},"brand":"Petronor"},{"id":100006054,"lat":41.835056,"lng":-3.345889,"addr":"CARRETERA C-111 (ARANDA DE DUERO - SALAS) KM. 40,9","city":"HUERTA DEL REY","cp":"09430","fuels":{"Gazole":{"p":1.605,"d":"2026-07-14"},"SP95":{"p":1.615,"d":"2026-07-14"}},"brand":"Repsol"},{"id":100010631,"lat":42.037389,"lng":-3.753889,"addr":"CARRETERA CTRA. LERMA/VILLALMANZO S/N KM. S/N","city":"LERMA","cp":"09340","fuels":{"Gazole":{"p":1.599,"d":"2026-07-14"},"SP95":{"p":1.599,"d":"2026-07-14"}},"brand":"Ez Energy","h24":true},{"id":100009008,"lat":42.0375,"lng":-3.766778,"addr":"CALLE GALERNA  EN  LERMA, 6","city":"LERMA","cp":"09340","fuels":{"Gazole":{"p":1.639,"d":"2026-07-14"},"SP95":{"p":1.659,"d":"2026-07-14"}},"brand":"Bv-Carburantes / \" Dto %\"","h24":true},{"id":100005002,"lat":42.132361,"lng":-3.716806,"addr":"AUTOVIA A-1 KM. 214,1","city":"MADRIGALEJO DEL MONTE","cp":"09330","fuels":{"Gazole":{"p":1.655,"d":"2026-07-14"},"SP95":{"p":1.659,"d":"2026-07-14"}},"brand":"Cepsa"},{"id":100012449,"lat":42.943167,"lng":-3.485278,"addr":"POLIGONO NAVAS, 1","city":"MEDINA DE POMAR","cp":"09500","fuels":{"Gazole":{"p":1.499,"d":"2026-07-14"},"SP95":{"p":1.529,"d":"2026-07-14"}},"brand":"Avia","h24":true},{"id":100006004,"lat":42.945,"lng":-3.483,"addr":"CARRETERA N-629 KM. 25,300","city":"MEDINA DE POMAR","cp":"09500","fuels":{"Gazole":{"p":1.639,"d":"2026-07-14"},"SP95":{"p":1.659,"d":"2026-07-14"},"SP98":{"p":1.859,"d":"2026-07-14"}},"brand":"Repsol"},{"id":100012606,"lat":42.401528,"lng":-4.245167,"addr":"CALLE FERNAN GONZALEZ, 1","city":"MELGAR DE FERNAMENTAL","cp":"09100","fuels":{"Gazole":{"p":1.589,"d":"2026-07-14"}},"brand":"Biesa"},{"id":100005991,"lat":42.403056,"lng":-4.238167,"addr":"CR N-120, 162","city":"MELGAR DE FERNAMENTAL","cp":"09100","fuels":{"Gazole":{"p":1.645,"d":"2026-07-14"},"SP95":{"p":1.635,"d":"2026-07-14"},"SP98":{"p":1.826,"d":"2026-07-14"}},"brand":"Moeve"},{"id":100006018,"lat":43.080083,"lng":-3.458333,"addr":"CR C-629, 60","city":"BERCEDO","cp":"09569","fuels":{"Gazole":{"p":1.635,"d":"2026-07-14"},"SP95":{"p":1.655,"d":"2026-07-14"},"SP98":{"p":1.875,"d":"2026-07-14"}},"brand":"Repsol"},{"id":100015021,"lat":43.059139,"lng":-3.476417,"addr":"CALLE CAMINO REAL  EN  VILLASANTE, S/N","city":"VILLASANTE","cp":"09569","fuels":{"Gazole":{"p":1.499,"d":"2026-07-14"},"SP95":{"p":1.525,"d":"2026-07-14"}},"brand":"Tenergy","h24":true},{"id":100004938,"lat":42.637028,"lng":-3.623861,"addr":"CARRETERA CL-629 KM. 35","city":"CERNEGULA","cp":"09141","fuels":{"Gazole":{"p":1.429,"d":"2026-07-14"},"SP95":{"p":1.469,"d":"2026-07-14"}},"brand":"E.S. Las Brujas - Cernegula"},{"id":100004959,"lat":43.04575,"lng":-3.68825,"addr":"CARRETERA BU526 KM. 22","city":"VALLEJO","cp":"09568","fuels":{"Gazole":{"p":1.599,"d":"2026-07-14"},"SP95":{"p":1.618,"d":"2026-07-14"}},"brand":"Avia","h24":true},{"id":100005041,"lat":41.593833,"lng":-3.697222,"addr":"AUTOVIA A-1 KM. 149,3","city":"MILAGROS","cp":"09460","fuels":{"Gazole":{"p":1.649,"d":"2026-07-14"},"SP95":{"p":1.652,"d":"2026-07-14"}},"brand":"Cepsa"},{"id":100004753,"lat":42.6955,"lng":-2.95175,"addr":"CARRETERA DE BILBAO (C.C. LECLERC) km S/N","city":"MIRANDA DE EBRO","cp":"09200","fuels":{"Gazole":{"p":1.54,"d":"2026-07-14"},"SP95":{"p":1.56,"d":"2026-07-14"}},"brand":"Leclerc","h24":true},{"id":100006041,"lat":42.692944,"lng":-2.9375,"addr":"CTRA NACIONAL 1 KM 318,8,","city":"MIRANDA DE EBRO","cp":"09200","fuels":{"Gazole":{"p":1.635,"d":"2026-07-14"},"SP95":{"p":1.659,"d":"2026-07-14"},"SP98":{"p":1.819,"d":"2026-07-14"}},"brand":"Repsol"},{"id":100005984,"lat":42.688833,"lng":-2.95275,"addr":"CARRETERA MADRID-IRUN KM. 318","city":"MIRANDA DE EBRO","cp":"09200","fuels":{"Gazole":{"p":1.635,"d":"2026-07-14"},"SP95":{"p":1.655,"d":"2026-07-14"},"SP98":{"p":1.775,"d":"2026-07-14"}},"brand":"Repsol"},{"id":100005983,"lat":42.688306,"lng":-2.952944,"addr":"CARRETERA MADRID-IRUN KM. 318","city":"MIRANDA DE EBRO","cp":"09200","fuels":{"Gazole":{"p":1.635,"d":"2026-07-14"},"SP95":{"p":1.655,"d":"2026-07-14"},"GPLc":{"p":1.095,"d":"2026-07-14"}},"brand":"Repsol"},{"id":100012425,"lat":42.686333,"lng":-2.961472,"addr":"CARRETERA NACIONAL 1 MADRID IRUN KM. 318","city":"MIRANDA DE EBRO","cp":"09200","fuels":{"Gazole":{"p":1.639,"d":"2026-07-14"},"SP95":{"p":1.649,"d":"2026-07-14"},"SP98":{"p":1.791,"d":"2026-07-14"}},"brand":"Bp Via Norte","h24":true},{"id":100005037,"lat":42.68575,"lng":-2.932667,"addr":"CTRA. DE LOGROÑO, 70","city":"MIRANDA DE EBRO","cp":"09200","fuels":{"Gazole":{"p":1.624,"d":"2026-07-14"},"SP95":{"p":1.644,"d":"2026-07-14"},"SP98":{"p":1.784,"d":"2026-07-14"}},"brand":"Galp"},{"id":100013372,"lat":42.696583,"lng":-2.91525,"addr":"POLIGONO P. INDUSTRIAL BAYAS 146 PARCELAS 58, 146","city":"MIRANDA DE EBRO","cp":"09200","fuels":{"Gazole":{"p":1.469,"d":"2026-07-14"},"SP95":{"p":1.479,"d":"2026-07-14"}},"brand":"Beroil","h24":true},{"id":100015267,"lat":42.692972,"lng":-2.9505,"addr":"CARRETERA BILBAO  EN  MIRANDA DE EBRO KM. 40","city":"MIRANDA DE EBRO","cp":"09200","fuels":{"Gazole":{"p":1.539,"d":"2026-07-14"},"SP95":{"p":1.559,"d":"2026-07-14"}},"brand":"Plenergy","h24":true},{"id":100006028,"lat":41.781611,"lng":-3.929972,"addr":"CR BU-619, 26,1","city":"OLMEDILLO DE ROA","cp":"09311","fuels":{"Gazole":{"p":1.615,"d":"2026-07-14"},"SP95":{"p":1.615,"d":"2026-07-14"}},"brand":"Repsol"},{"id":100004920,"lat":42.734833,"lng":-3.414722,"addr":"CARRETERA LOGROÑO SANTANDER KM. 508","city":"OÑA","cp":"09530","fuels":{"Gazole":{"p":1.599,"d":"2026-07-14"},"SP95":{"p":1.599,"d":"2026-07-14"}},"brand":"Avia"},{"id":100005036,"lat":41.824917,"lng":-3.703972,"addr":"AUTOVIA A-2 KM. 176,6","city":"OQUILLAS","cp":"09350","fuels":{"Gazole":{"p":1.589,"d":"2026-07-14"},"SP95":{"p":1.609,"d":"2026-07-14"}},"brand":"Galp"},{"id":100013038,"lat":41.978583,"lng":-3.142333,"addr":"POLIGONO POLIGONO INDUSTRIAL LAS ERAS ALTO DE LA PALOMERA, 5","city":"PALACIOS DE LA SIERRA","cp":"09680","fuels":{"Gazole":{"p":1.449,"d":"2026-07-14"},"SP95":{"p":1.479,"d":"2026-07-14"}},"brand":"Es Hermanos Olalla"},{"id":100005007,"lat":41.573639,"lng":-3.7055,"addr":"AUTOVIA A-1 KM. 146,7","city":"PARDILLA","cp":"09462","fuels":{"Gazole":{"p":1.649,"d":"2026-07-14"},"SP95":{"p":1.652,"d":"2026-07-14"}},"brand":"Cepsa"},{"id":100005078,"lat":42.404111,"lng":-3.549583,"addr":"AU AP-1  (DCHA), 12","city":"QUINTANAPALLA","cp":"09290","fuels":{"Gazole":{"p":1.609,"d":"2026-07-14"},"SP95":{"p":1.629,"d":"2026-07-14"},"SP98":{"p":1.749,"d":"2026-07-14"},"GPLc":{"p":1.119,"d":"2026-07-14"}},"brand":"Repsol","h24":true},{"id":100005079,"lat":42.40475,"lng":-3.549556,"addr":"AU AP-1   (IZDA), 12","city":"QUINTANAPALLA","cp":"09290","fuels":{"Gazole":{"p":1.619,"d":"2026-07-14"},"SP95":{"p":1.629,"d":"2026-07-14"},"SP98":{"p":1.749,"d":"2026-07-14"},"GPLc":{"p":1.095,"d":"2026-07-14"}},"brand":"Repsol","h24":true},{"id":100005038,"lat":41.972694,"lng":-3.041972,"addr":"CTRA. DE SORIA, S/N (CRTA. DE SORIA, S/N)","city":"QUINTANAR DE LA SIERRA","cp":"09670","fuels":{"Gazole":{"p":1.529,"d":"2026-07-14"},"SP95":{"p":1.629,"d":"2026-07-14"}},"brand":"Galp"},{"id":100004918,"lat":42.426861,"lng":-3.681639,"addr":"CARRETERA N-623 KM. 10","city":"VIVAR DEL CID","cp":"09140","fuels":{"Gazole":{"p":1.659,"d":"2026-07-14"},"SP95":{"p":1.655,"d":"2026-07-14"}},"brand":"Cepsa"},{"id":100016072,"lat":42.366583,"lng":-3.843667,"addr":"CARRETERA A-231\t\t\t KM. 152","city":"QUINTANILLAS (LAS)","cp":"09131","fuels":{"Gazole":{"p":1.609,"d":"2026-07-14"},"SP95":{"p":1.639,"d":"2026-07-14"},"SP98":{"p":1.799,"d":"2026-07-14"}},"brand":"Repsol"},{"id":100010164,"lat":42.027639,"lng":-3.322972,"addr":"CARRETERA BURGOS-SAGUNTO KM. S/N","city":"REVILLA (LA)","cp":"09613","fuels":{"Gazole":{"p":1.545,"d":"2026-07-14"},"SP95":{"p":1.596,"d":"2026-07-14"}},"brand":"Pinaroil S.L."},{"id":100006042,"lat":41.6985,"lng":-3.923194,"addr":"CARRETERA BU-111 CTRA. LERMA-S.MARIN RUBIALES KM. 28,500","city":"ROA","cp":"09300","fuels":{"Gazole":{"p":1.609,"d":"2026-07-14"},"SP95":{"p":1.619,"d":"2026-07-14"},"SP98":{"p":1.789,"d":"2026-07-14"}},"brand":"Repsol"},{"id":100009215,"lat":41.690528,"lng":-3.925778,"addr":"CARRETERA SAN MARTIN DE RUBIALES KM. 1","city":"ROA","cp":"09300","fuels":{"Gazole":{"p":1.543,"d":"2026-07-14"},"SP95":{"p":1.599,"d":"2026-07-14"}},"brand":"Coridu"},{"id":100004908,"lat":42.37675,"lng":-3.590833,"addr":"N-I km 249","city":"RUBENA","cp":"09199","fuels":{"Gazole":{"p":1.499,"d":"2026-07-14"},"SP95":{"p":1.539,"d":"2026-07-14"}},"brand":"Beroil, S.L.","h24":true},{"id":100005998,"lat":42.023583,"lng":-3.29225,"addr":"CARRETERA N-234 KM. 437","city":"SALAS DE LOS INFANTES","cp":"09600","fuels":{"Gazole":{"p":1.599,"d":"2026-07-14"},"SP95":{"p":1.659,"d":"2026-07-14"},"SP98":{"p":1.829,"d":"2026-07-14"}},"brand":"Repsol"},{"id":100008405,"lat":42.226389,"lng":-3.70725,"addr":"AUTV.A-1 (N-234) km 225,5","city":"SARRACIN","cp":"09620","fuels":{"Gazole":{"p":1.639,"d":"2026-07-14"},"SP95":{"p":1.649,"d":"2026-07-14"}},"brand":"Shell"},{"id":100005028,"lat":42.245333,"lng":-3.705972,"addr":"CARRETERA N-I KM. 228,3","city":"SARRACIN","cp":"09620","fuels":{"Gazole":{"p":1.619,"d":"2026-07-14"},"SP95":{"p":1.644,"d":"2026-07-14"}},"brand":"Galp","h24":true},{"id":100005074,"lat":42.245833,"lng":-3.703139,"addr":"CARRETERA N-I KM. 228,4","city":"SARRACIN","cp":"09620","fuels":{"Gazole":{"p":1.674,"d":"2026-07-14"},"SP95":{"p":1.684,"d":"2026-07-14"}},"brand":"Galp","h24":true},{"id":100015368,"lat":42.399444,"lng":-4.038056,"addr":"CARRETERA NACIONAL 120 LOGROÑO  -VIGO KM. 145","city":"OLMILLOS DE SASAMON","cp":"09123","fuels":{"Gazole":{"p":1.618,"d":"2026-07-14"},"SP95":{"p":1.678,"d":"2026-07-14"},"SP98":{"p":1.798,"d":"2026-07-14"}},"brand":"Repsol"},{"id":100012607,"lat":42.5565,"lng":-4.203167,"addr":"CARRETERA A BARRIO DE SAN FELICES  EN  SOTRESGUDO KM. 1","city":"SOTRESGUDO","cp":"09135","fuels":{"Gazole":{"p":1.579,"d":"2026-07-14"},"SP95":{"p":1.589,"d":"2026-07-14"}},"brand":"Biesa"},{"id":100009284,"lat":42.806222,"lng":-3.390056,"addr":"CTRA. N-629 OÑA-SANTOÑA, KM. 7,7","city":"TRESPADERNE","cp":"09540","fuels":{"Gazole":{"p":1.578,"d":"2026-07-14"},"SP95":{"p":1.599,"d":"2026-07-14"},"SP98":{"p":1.699,"d":"2026-07-14"}},"brand":"E.S. Basurto, S.L.","h24":true},{"id":100005545,"lat":41.633528,"lng":-3.578028,"addr":"CR N-122, 257","city":"VADOCONDES","cp":"09491","fuels":{"Gazole":{"p":1.605,"d":"2026-07-14"},"SP95":{"p":1.619,"d":"2026-07-14"},"SP98":{"p":1.789,"d":"2026-07-14"}},"brand":"Repsol"},{"id":100005043,"lat":42.978611,"lng":-3.222722,"addr":"CARRETERA BU-550 KM. 27","city":"QUINCOCES DE YUSO","cp":"09510","fuels":{"Gazole":{"p":1.639,"d":"2026-07-14"},"SP95":{"p":1.629,"d":"2026-07-14"}},"brand":"Galp"},{"id":100006046,"lat":43.111639,"lng":-3.266222,"addr":"CARRETERA C-6318 KM. 43,4","city":"ENTRAMBASAGUAS","cp":"09585","fuels":{"Gazole":{"p":1.605,"d":"2026-07-14"},"SP95":{"p":1.615,"d":"2026-07-14"}},"brand":"Petronor"},{"id":100006052,"lat":43.166972,"lng":-3.229222,"addr":"CR C-6318, 34","city":"SANTA CRUZ DE MENA","cp":"09585","fuels":{"Gazole":{"p":1.609,"d":"2026-07-14"},"SP95":{"p":1.625,"d":"2026-07-14"}},"brand":"Repsol"},{"id":100013638,"lat":43.158583,"lng":-3.235833,"addr":"POLIGONO POLIGONO INDUSTRIAL PARCELA 9A, 9","city":"SANTECILLA","cp":"09585","fuels":{"Gazole":{"p":1.469,"d":"2026-07-14"},"SP95":{"p":1.499,"d":"2026-07-14"}},"brand":"Beroil","h24":true},{"id":100010980,"lat":42.790083,"lng":-3.264778,"addr":"CARRETERA BU-530 KM. 11,800","city":"QUINTANA MARTIN GALINDEZ","cp":"09210","fuels":{"Gazole":{"p":1.797,"d":"2026-07-14"},"SP95":{"p":1.747,"d":"2026-07-14"}},"brand":"Tobalinoil"},{"id":100004940,"lat":42.970556,"lng":-3.849417,"addr":"CTRA N-623  BURGOS-SANTANDER  KM 83,","city":"CILLERUELO DE BEZANA","cp":"09572","fuels":{"Gazole":{"p":1.599,"d":"2026-07-14"},"SP95":{"p":1.618,"d":"2026-07-14"},"SP98":{"p":1.738,"d":"2026-07-14"}},"brand":"Avia"},{"id":100005056,"lat":42.739889,"lng":-4.141444,"addr":"CARRETERA NACIONAL 627 KM. 66,150","city":"FUENCALIENTE DE LUCIO","cp":"09127","fuels":{"Gazole":{"p":1.499,"d":"2026-07-14"},"SP95":{"p":1.539,"d":"2026-07-14"}},"brand":"Beroil"},{"id":100005019,"lat":42.512111,"lng":-4.010778,"addr":"C-627 km 39,5","city":"VILLADIEGO","cp":"09120","fuels":{"Gazole":{"p":1.629,"d":"2026-07-14"},"SP95":{"p":1.639,"d":"2026-07-14"},"SP98":{"p":1.829,"d":"2026-07-14"}},"brand":"Cepsa"},{"id":100005994,"lat":42.290333,"lng":-3.704944,"addr":"CARRETERA NACIONAL A-1 KM. 232,8","city":"VILLAGONZALO PEDERNALES","cp":"09195","fuels":{"Gazole":{"p":1.649,"d":"2026-07-14"},"SP95":{"p":1.659,"d":"2026-07-14"},"SP98":{"p":1.799,"d":"2026-07-14"}},"brand":"Repsol"},{"id":100008406,"lat":42.306722,"lng":-3.73225,"addr":"CTRA.N-620 km 6,6","city":"VILLAGONZALO PEDERNALES","cp":"09195","fuels":{"Gazole":{"p":1.639,"d":"2026-07-14"},"SP95":{"p":1.649,"d":"2026-07-14"},"SP98":{"p":1.789,"d":"2026-07-14"}},"brand":"Shell","h24":true},{"id":100013236,"lat":42.308861,"lng":-3.702722,"addr":"CARRETERA MADRID IRUN KM. 243","city":"VILLAGONZALO PEDERNALES","cp":"09195","fuels":{"Gazole":{"p":1.499,"d":"2026-07-14"},"SP95":{"p":1.539,"d":"2026-07-14"}},"brand":"Beroil","h24":true},{"id":100005076,"lat":42.309056,"lng":-3.723556,"addr":"CR A-62, 5,7","city":"VILLAGONZALO PEDERNALES","cp":"09195","fuels":{"Gazole":{"p":1.615,"d":"2026-07-14"},"SP95":{"p":1.655,"d":"2026-07-14"},"SP98":{"p":1.775,"d":"2026-07-14"}},"brand":"Repsol","h24":true},{"id":100005993,"lat":42.290056,"lng":-3.703306,"addr":"CARRETERA MADRID-IRUN KM. 232,8","city":"VILLAGONZALO PEDERNALES","cp":"09195","fuels":{"Gazole":{"p":1.649,"d":"2026-07-14"},"SP95":{"p":1.659,"d":"2026-07-14"},"SP98":{"p":1.799,"d":"2026-07-14"}},"brand":"Repsol"},{"id":100006008,"lat":42.340889,"lng":-3.767,"addr":"CARRETERA CARRETERA NACIONAL 120 KM. 119","city":"VILLALBILLA DE BURGOS","cp":"09197","fuels":{"Gazole":{"p":1.629,"d":"2026-07-14"},"SP95":{"p":1.639,"d":"2026-07-14"},"SP98":{"p":1.789,"d":"2026-07-14"}},"brand":"Repsol"},{"id":100009306,"lat":42.043611,"lng":-3.750306,"addr":"CARRETERA MADRID-IRUN  EN  VILLALMANZO KM. 203,8","city":"VILLALMANZO","cp":"09390","fuels":{"Gazole":{"p":1.577,"d":"2026-07-14"},"SP95":{"p":1.569,"d":"2026-07-14"}},"brand":"Coop. Arlanza"},{"id":100006026,"lat":42.040694,"lng":-3.752778,"addr":"CARRETERA CRTA A-1,  MADRID-BURGOS KM. 203","city":"VILLALMANZO","cp":"09390","fuels":{"Gazole":{"p":1.699,"d":"2026-07-14"},"SP95":{"p":1.695,"d":"2026-07-14"},"SP98":{"p":1.809,"d":"2026-07-14"}},"brand":"Repsol","h24":true},{"id":100006025,"lat":42.041028,"lng":-3.751667,"addr":"CARRETERA A-1, MADRID-BURGOS KM. 203,000","city":"VILLALMANZO","cp":"09390","fuels":{"Gazole":{"p":1.699,"d":"2026-07-14"},"SP95":{"p":1.695,"d":"2026-07-14"},"SP98":{"p":1.809,"d":"2026-07-14"}},"brand":"Repsol","h24":true},{"id":100004750,"lat":42.379861,"lng":-3.928167,"addr":"LOGROÑO-VIGO km 134,5","city":"VILLANUEVA DE ARGAÑO","cp":"09130","fuels":{"Gazole":{"p":1.469,"d":"2026-07-14"},"SP95":{"p":1.499,"d":"2026-07-14"},"SP98":{"p":1.59,"d":"2026-07-14"}},"brand":"E.S.Saiz"},{"id":100005024,"lat":42.219944,"lng":-3.999139,"addr":"CARRETERA N-620A KM. 32,3","city":"VILLANUEVA DE LAS CARRETAS","cp":"09226","fuels":{"Gazole":{"p":1.619,"d":"2026-07-14"},"SP95":{"p":1.609,"d":"2026-07-14"},"SP98":{"p":1.759,"d":"2026-07-14"}},"brand":"Cepsa","h24":true},{"id":100004737,"lat":42.920389,"lng":-3.581222,"addr":"C-629 (POLÍGONO LAS MERINDADES) km 62KMS","city":"VILLARCAYO","cp":"09550","fuels":{"Gazole":{"p":1.519,"d":"2026-07-14"},"SP95":{"p":1.529,"d":"2026-07-14"}},"brand":"Avia"},{"id":100004934,"lat":42.940389,"lng":-3.570556,"addr":"CALLE CALLE SAN ROQUE (CARRETERA BURGOS-VILLARCAYO), 13","city":"VILLARCAYO","cp":"09556","fuels":{"Gazole":{"p":1.399,"d":"2026-07-14"},"SP95":{"p":1.499,"d":"2026-07-14"}},"brand":"E.S. Rivera"},{"id":100005039,"lat":42.189111,"lng":-4.036889,"addr":"AUTOVIA A-62 KM. 34","city":"VILLAZOPEQUE","cp":"09226","fuels":{"Gazole":{"p":1.639,"d":"2026-07-14"},"SP95":{"p":1.619,"d":"2026-07-14"},"SP98":{"p":1.729,"d":"2026-07-14"}},"brand":"BP"}]