[{"id":100010241,"lat":37.14475,"lng":-2.772778,"addr":"CARRETERA CARRETERA NACIONAL 324 KM. 268,1","city":"ABLA","cp":"04510","fuels":{"Gazole":{"p":1.629,"d":"2026-07-14"},"SP95":{"p":1.619,"d":"2026-07-14"},"SP98":{"p":1.849,"d":"2026-07-14"}},"brand":"Cepsa"},{"id":100012113,"lat":36.765444,"lng":-2.985778,"addr":"AUTOVIA A-7 KM. 391","city":"ADRA","cp":"04770","fuels":{"Gazole":{"p":1.649,"d":"2026-07-14"},"SP95":{"p":1.659,"d":"2026-07-14"}},"brand":"Cepsa","h24":true},{"id":100011926,"lat":36.756139,"lng":-3.001889,"addr":"CARRETERA LA ALQUERIA Nº125 SALIDA AUTOVIA 389 KM. 389","city":"ADRA","cp":"04770","fuels":{"Gazole":{"p":1.649,"d":"2026-07-14"},"SP95":{"p":1.659,"d":"2026-07-14"}},"brand":"Repsol","h24":true},{"id":100005797,"lat":36.748056,"lng":-3.003944,"addr":"CARRETERA N-340 KM. 389,6","city":"ADRA","cp":"04770","fuels":{"Gazole":{"p":1.649,"d":"2026-07-14"},"SP95":{"p":1.625,"d":"2026-07-14"},"SP98":{"p":1.745,"d":"2026-07-14"}},"brand":"Repsol"},{"id":100012462,"lat":36.761639,"lng":-2.983028,"addr":"CALLE BARCELONA, 2","city":"PUENTE DEL RIO","cp":"04779","fuels":{"Gazole":{"p":1.408,"d":"2026-07-14"},"SP95":{"p":1.384,"d":"2026-07-14"}},"brand":"E.S Campoejido Adra","h24":true},{"id":100011826,"lat":36.758889,"lng":-2.983333,"addr":"AVENIDA LEGION ESPAÑOLA, 2","city":"PUENTE DEL RIO","cp":"04779","fuels":{"Gazole":{"p":1.384,"d":"2026-07-14"},"SP95":{"p":1.392,"d":"2026-07-14"}},"brand":"Campoadra","h24":true},{"id":100006673,"lat":37.292667,"lng":-2.181194,"addr":"CARRETERA AL-3325, 15,2 KM. 15,2","city":"ALBANCHEZ","cp":"04857","fuels":{"Gazole":{"p":1.529,"d":"2026-07-14"},"SP95":{"p":1.569,"d":"2026-07-14"}},"brand":"Carburantes Filabres"},{"id":100006937,"lat":37.379556,"lng":-2.1355,"addr":"CR HUERCAL-OVERA-VILLAC. KM  70,1","city":"ALBOX","cp":"04800","fuels":{"Gazole":{"p":1.668,"d":"2026-07-14"},"SP95":{"p":1.609,"d":"2026-07-14"},"SP98":{"p":1.748,"d":"2026-07-14"}},"brand":"Bp San Jose","h24":true},{"id":100014442,"lat":37.378139,"lng":-2.133194,"addr":"CARRETERA LORCA- BAZA, PARAJE LOS CHORLITOS, PARC. 426, POL. 41 KM. 426","city":"ALBOX","cp":"04800","fuels":{"Gazole":{"p":1.508,"d":"2026-07-14"},"SP95":{"p":1.501,"d":"2026-07-14"},"GPLc":{"p":0.987,"d":"2026-07-14"}},"brand":"Raspa-Oil (serv. Atendido)","h24":true},{"id":100010382,"lat":37.384472,"lng":-2.176278,"addr":"POLIGONO INDUSTRIAL ALBOX, APARTADO 148, S/N","city":"ALBOX","cp":"04800","fuels":{"Gazole":{"p":1.489,"d":"2026-07-14"},"SP95":{"p":1.459,"d":"2026-07-14"}},"brand":"E.S.Terdiguera"},{"id":100011829,"lat":37.369472,"lng":-2.121083,"addr":"CARRETERA A-334 KM. 72,300","city":"ALBOX","cp":"04800","fuels":{"Gazole":{"p":1.489,"d":"2026-07-14"},"SP95":{"p":1.43,"d":"2026-07-14"}},"brand":"Carburantes Almanzora Sl","h24":true},{"id":100008944,"lat":36.949944,"lng":-2.555722,"addr":"CARRETERA A-348 KM. 138,830","city":"ALHAMA DE ALMERIA","cp":"04400","fuels":{"Gazole":{"p":1.639,"d":"2026-07-14"},"SP95":{"p":1.629,"d":"2026-07-14"},"SP98":{"p":1.759,"d":"2026-07-14"}},"brand":"Repsol"},{"id":100005641,"lat":36.829444,"lng":-2.492667,"addr":"CARRETERA N-340A KM. 438,5","city":"ALMERIA","cp":"04002","fuels":{"Gazole":{"p":1.385,"d":"2026-07-14"},"SP95":{"p":1.379,"d":"2026-07-14"}},"brand":"Ballenoil","h24":true},{"id":100014916,"lat":36.867972,"lng":-2.441389,"addr":"CALLE ROSITA, 25","city":"ALMERIA","cp":"04001","fuels":{"Gazole":{"p":1.439,"d":"2026-07-14"},"SP95":{"p":1.439,"d":"2026-07-14"}},"brand":"Sectoroil"},{"id":100014598,"lat":36.843556,"lng":-2.436333,"addr":"CARRETERA NIJAR LOS MOLINOS KM. 396","city":"ALMERIA","cp":"04001","fuels":{"Gazole":{"p":1.385,"d":"2026-07-14"},"SP95":{"p":1.379,"d":"2026-07-14"}},"brand":"Plenergy","h24":true},{"id":100014876,"lat":36.836222,"lng":-2.448361,"addr":"CALLE OLULA DEL RIO, 1","city":"ALMERIA","cp":"04008","fuels":{"Gazole":{"p":1.385,"d":"2026-07-14"},"SP95":{"p":1.379,"d":"2026-07-14"}},"brand":"Plenergy","h24":true},{"id":100006964,"lat":36.852083,"lng":-2.467333,"addr":"AVENIDA FEDERICO GARCIA LORCA, S/N","city":"ALMERIA","cp":"04008","fuels":{"Gazole":{"p":1.669,"d":"2026-07-14"},"SP95":{"p":1.629,"d":"2026-07-14"},"SP98":{"p":1.749,"d":"2026-07-14"},"GPLc":{"p":1.105,"d":"2026-07-14"}},"brand":"Repsol","h24":true},{"id":100016019,"lat":36.854611,"lng":-2.469694,"addr":"ZONA NORTE DE LA RAMBLA CALLE JOSÉ MANUEL GÓMEZ ANGULO, S/N","city":"ALMERIA","cp":"04008","fuels":{"Gazole":{"p":1.395,"d":"2026-07-14"},"SP95":{"p":1.389,"d":"2026-07-14"}},"brand":"Plenergy","h24":true},{"id":100014879,"lat":36.837778,"lng":-2.447139,"addr":"AVENIDA MEDITERRANEO, 184","city":"ALMERIA","cp":"04008","fuels":{"Gazole":{"p":1.385,"d":"2026-07-14"},"SP95":{"p":1.379,"d":"2026-07-14"}},"brand":"Plenergy","h24":true},{"id":100015129,"lat":36.854333,"lng":-2.420194,"addr":"CARRETERA AL-3117 - AL-3110 KM. 0+925","city":"ALMERIA","cp":"04120","fuels":{"Gazole":{"p":1.385,"d":"2026-07-14"},"SP95":{"p":1.379,"d":"2026-07-14"}},"brand":"Petroprix","h24":true},{"id":100012615,"lat":36.843083,"lng":-2.422972,"addr":"CARRETERA AL-12 KM. 3.6","city":"ALMERIA","cp":"04120","fuels":{"Gazole":{"p":1.685,"d":"2026-07-14"},"SP95":{"p":1.635,"d":"2026-07-14"},"SP98":{"p":1.837,"d":"2026-07-14"},"GPLc":{"p":1.166,"d":"2026-07-14"}},"brand":"Moeve"},{"id":100006524,"lat":36.840833,"lng":-2.419722,"addr":"CARRETERA CARRETERA ALMERIA KM. 201","city":"ALMERIA","cp":"04120","fuels":{"Gazole":{"p":1.689,"d":"2026-07-14"},"SP95":{"p":1.639,"d":"2026-07-14"},"SP98":{"p":1.779,"d":"2026-07-14"}},"brand":"Bp Los Partidores"},{"id":100005620,"lat":36.857778,"lng":-2.447278,"addr":"CARRETERA N-340A KM. 444","city":"ALMERIA","cp":"04009","fuels":{"Gazole":{"p":1.695,"d":"2026-07-14"},"SP95":{"p":1.645,"d":"2026-07-14"},"SP98":{"p":1.836,"d":"2026-07-14"}},"brand":"Cepsa"},{"id":100005806,"lat":36.853639,"lng":-2.420722,"addr":"CARRETERA ALP 201 KM. 1,60","city":"ALMERIA","cp":"04009","fuels":{"Gazole":{"p":1.719,"d":"2026-07-14"},"SP95":{"p":1.669,"d":"2026-07-14"},"SP98":{"p":1.859,"d":"2026-07-14"}},"brand":"Repsol"},{"id":100016467,"lat":36.851222,"lng":-2.452167,"addr":"CARRETERA DEL MAMI KM 0,4 AL-3117 KM. 0,4","city":"ALMERIA","cp":"04009","fuels":{"Gazole":{"p":1.385,"d":"2026-07-14"},"SP95":{"p":1.379,"d":"2026-07-14"},"GPLc":{"p":0.9,"d":"2026-07-14"}},"brand":"Raspaoil Almeria"},{"id":100010168,"lat":36.845861,"lng":-2.450111,"addr":"CALLE CARRETERA DE NIJAR, S/N","city":"ALMERIA","cp":"04009","fuels":{"Gazole":{"p":1.669,"d":"2026-07-14"},"SP95":{"p":1.625,"d":"2026-07-14"},"SP98":{"p":1.789,"d":"2026-07-14"}},"brand":"Cepsa"},{"id":100010829,"lat":36.865528,"lng":-2.448639,"addr":"CALLE CUESTA DE LOS CALLEJONES, 0","city":"ALMERIA","cp":"04009","fuels":{"Gazole":{"p":1.665,"d":"2026-07-14"},"SP95":{"p":1.609,"d":"2026-07-14"},"SP98":{"p":1.749,"d":"2026-07-14"}},"brand":"Bp Rambla Iniesta","h24":true},{"id":100015821,"lat":36.865139,"lng":-2.449472,"addr":"CAMINO LOS ALMENDROS, 18","city":"ALMERIA","cp":"04009","fuels":{"Gazole":{"p":1.395,"d":"2026-07-14"},"SP95":{"p":1.389,"d":"2026-07-14"}},"brand":"Plenergy","h24":true},{"id":100013023,"lat":36.85325,"lng":-2.431333,"addr":"CALLE COBRE, 26","city":"ALMERIA","cp":"04009","fuels":{"Gazole":{"p":1.439,"d":"2026-07-14"},"SP95":{"p":1.439,"d":"2026-07-14"},"GPLc":{"p":1.089,"d":"2026-07-14"}},"brand":"Sectoroil"},{"id":100015440,"lat":36.854778,"lng":-2.432556,"addr":"CALLE MICA, 62","city":"ALMERIA","cp":"04009","fuels":{"Gazole":{"p":1.498,"d":"2026-07-14"},"SP95":{"p":1.42,"d":"2026-07-14"},"GPLc":{"p":0.899,"d":"2026-07-14"}},"brand":"Ciudad Del Taxi","h24":true},{"id":100015729,"lat":36.863833,"lng":-2.448917,"addr":"CARRETERA DE GRANADA, 2 TRAMOS 55.57 KM. S/N","city":"ALMERIA","cp":"04009","fuels":{"Gazole":{"p":1.395,"d":"2026-07-14"},"SP95":{"p":1.389,"d":"2026-07-14"}},"brand":"Plenergy","h24":true},{"id":100006826,"lat":36.839444,"lng":-2.446722,"addr":"CL PADRE MENDEZ, S.N.","city":"ALMERIA","cp":"04006","fuels":{"Gazole":{"p":1.665,"d":"2026-07-14"},"SP95":{"p":1.619,"d":"2026-07-14"},"SP98":{"p":1.789,"d":"2026-07-14"}},"brand":"Repsol"},{"id":100009131,"lat":36.852444,"lng":-2.446806,"addr":"AVENIDA DEL MEDITERRANEO, S/N","city":"ALMERIA","cp":"04006","fuels":{"Gazole":{"p":1.425,"d":"2026-07-14"},"SP95":{"p":1.419,"d":"2026-07-14"},"SP98":{"p":1.581,"d":"2026-07-14"}},"brand":"Alcampo","h24":true},{"id":100012812,"lat":36.842167,"lng":-2.442972,"addr":"CALLE JORGE GUILLEN, S/N","city":"ALMERIA","cp":"04006","fuels":{"Gazole":{"p":1.539,"d":"2026-07-14"},"SP95":{"p":1.539,"d":"2026-07-14"},"SP98":{"p":1.729,"d":"2026-07-14"}},"brand":"Carrefour"},{"id":100010433,"lat":36.840028,"lng":-2.445611,"addr":"CALLE MONSERRAT, 0","city":"ALMERIA","cp":"04006","fuels":{"Gazole":{"p":1.665,"d":"2026-07-14"},"SP95":{"p":1.609,"d":"2026-07-14"},"SP98":{"p":1.749,"d":"2026-07-14"}},"brand":"Bp Montserrat  Almeria","h24":true},{"id":100015858,"lat":36.838694,"lng":-2.444528,"addr":"AVENIDA NUESTRA SEÑORA DE MONTSERRAT, 160","city":"ALMERIA","cp":"04006","fuels":{"Gazole":{"p":1.385,"d":"2026-07-14"},"SP95":{"p":1.379,"d":"2026-07-14"}},"brand":"Petroprix","h24":true},{"id":100011493,"lat":36.827333,"lng":-2.445028,"addr":"AVENIDA MEDITERRANEO, S/N","city":"ALMERIA","cp":"04007","fuels":{"Gazole":{"p":1.665,"d":"2026-07-14"},"SP95":{"p":1.619,"d":"2026-07-14"},"SP98":{"p":1.789,"d":"2026-07-14"}},"brand":"Repsol"},{"id":100014241,"lat":36.841972,"lng":-2.439056,"addr":"AVENIDA SIERRA ALHAMILLA, 310","city":"ALMERIA","cp":"04007","fuels":{"Gazole":{"p":1.459,"d":"2026-07-14"},"SP95":{"p":1.436,"d":"2026-07-14"}},"brand":"La Torre","h24":true},{"id":100005746,"lat":36.816083,"lng":-2.432944,"addr":"AVENIDA CABO DE GATA, 280","city":"ALMERIA","cp":"04007","fuels":{"Gazole":{"p":1.739,"d":"2026-07-14"},"SP95":{"p":1.689,"d":"2026-07-14"},"SP98":{"p":1.849,"d":"2026-07-14"}},"brand":"Repsol"},{"id":100005619,"lat":36.8335,"lng":-2.462528,"addr":"AVENIDA CABO DE GATA, 4","city":"ALMERIA","cp":"04007","fuels":{"Gazole":{"p":1.695,"d":"2026-07-14"},"SP95":{"p":1.655,"d":"2026-07-14"}},"brand":"Cepsa"},{"id":100005618,"lat":36.845,"lng":-2.390944,"addr":"CARRETERA NIJAR (ALQUIAN) KM. 6,9","city":"CAÑADA DE SAN URBANO (LA)","cp":"04120","fuels":{"Gazole":{"p":1.695,"d":"2026-07-14"},"SP95":{"p":1.635,"d":"2026-07-14"}},"brand":"Moeve"},{"id":100012687,"lat":36.875028,"lng":-2.336444,"addr":"AUTOVIA A7 KM. 460,000","city":"ALQUIAN (EL)","cp":"04130","fuels":{"Gazole":{"p":1.679,"d":"2026-07-14"},"SP95":{"p":1.629,"d":"2026-07-14"},"SP98":{"p":1.819,"d":"2026-07-14"}},"brand":"Repsol","h24":true},{"id":100013518,"lat":36.850889,"lng":-2.371972,"addr":"CARRETERA NIJAR-LA CAÑADA KM. 7,500","city":"ALQUIAN (EL)","cp":"04130","fuels":{"Gazole":{"p":1.609,"d":"2026-07-14"},"SP95":{"p":1.569,"d":"2026-07-14"}},"brand":"E.S. Alvamar"},{"id":100014026,"lat":36.813056,"lng":-2.234194,"addr":"CARRETERA SAN JOSÉ KM. 0,000","city":"RUESCAS","cp":"04150","fuels":{"Gazole":{"p":1.669,"d":"2026-07-14"},"SP95":{"p":1.609,"d":"2026-07-14"},"SP98":{"p":1.749,"d":"2026-07-14"}},"brand":"Bp Cabo De Gata","h24":true},{"id":100009665,"lat":36.868389,"lng":-2.23,"addr":"CARRETERA E-15/N-340 KM. 471","city":"RETAMAR","cp":"04130","fuels":{"Gazole":{"p":1.659,"d":"2026-07-14"},"SP95":{"p":1.619,"d":"2026-07-14"},"SP98":{"p":1.759,"d":"2026-07-14"}},"brand":"Jcarrion","h24":true},{"id":100011553,"lat":36.851806,"lng":-2.311194,"addr":"CARRETERA NIJAR A RETAMAR (DISEMINADO) (DE) KM. 0","city":"RETAMAR","cp":"04131","fuels":{"Gazole":{"p":1.699,"d":"2026-07-14"},"SP95":{"p":1.639,"d":"2026-07-14"},"SP98":{"p":1.769,"d":"2026-07-14"}},"brand":"Galp"},{"id":100015831,"lat":37.270556,"lng":-1.922472,"addr":"CARRETERA NACIONAL 340 KM. 537","city":"ANTAS","cp":"04628","fuels":{"Gazole":{"p":1.522,"d":"2026-07-14"},"SP95":{"p":1.447,"d":"2026-07-14"}},"brand":"Isabel Alonso","h24":true},{"id":100009462,"lat":37.260306,"lng":-1.900306,"addr":"POLIGONO P.I. EL REAL, S/N","city":"ANTAS","cp":"04628","fuels":{"Gazole":{"p":1.669,"d":"2026-07-14"},"SP95":{"p":1.629,"d":"2026-07-14"},"SP98":{"p":1.759,"d":"2026-07-14"}},"brand":"Cepsa-Moeve"},{"id":100008869,"lat":37.266222,"lng":-1.913639,"addr":"CARRETERA NACIONAL 340 KM. 436","city":"ANTAS","cp":"04628","fuels":{"Gazole":{"p":1.559,"d":"2026-07-14"},"SP95":{"p":1.499,"d":"2026-07-14"}},"brand":"Hnos.Martinez"},{"id":100006438,"lat":37.285833,"lng":-1.934556,"addr":"AUTOVIA MURCIA-ALMERIA SALIDA 537 KM. 537","city":"ANTAS","cp":"04628","fuels":{"Gazole":{"p":1.669,"d":"2026-07-14"},"SP95":{"p":1.629,"d":"2026-07-14"},"SP98":{"p":1.789,"d":"2026-07-14"},"GPLc":{"p":1.109,"d":"2026-07-14"}},"brand":"BP"},{"id":100012261,"lat":37.21375,"lng":-1.898028,"addr":"AUTOVIA AUTOVIA DEL MEDITERRANEO KM. 529","city":"ANTAS","cp":"04628","fuels":{"Gazole":{"p":1.639,"d":"2026-07-14"},"SP95":{"p":1.578,"d":"2026-07-14"},"GPLc":{"p":1.15,"d":"2026-07-14"}},"brand":"Shell","h24":true},{"id":100013896,"lat":37.353056,"lng":-2.096806,"addr":"POLIGONO LOS LLANOS, 17","city":"ARBOLEAS","cp":"04660","fuels":{"Gazole":{"p":1.489,"d":"2026-07-14"},"SP95":{"p":1.399,"d":"2026-07-14"}},"brand":"E.S.Arboleas","h24":true},{"id":100014066,"lat":37.354,"lng":-2.094778,"addr":"POLIGONO SERVICIO LOS LLANOS (LL), 34","city":"ARBOLEAS","cp":"04660","fuels":{"Gazole":{"p":1.489,"d":"2026-07-14"},"SP95":{"p":1.399,"d":"2026-07-14"}},"brand":"Mora Oil","h24":true},{"id":100006856,"lat":36.924639,"lng":-2.461556,"addr":"CARRERA A-92 KM.391, 40","city":"BENAHADUX","cp":"04410","fuels":{"Gazole":{"p":1.599,"d":"2026-07-14"},"SP95":{"p":1.579,"d":"2026-07-14"},"SP98":{"p":1.669,"d":"2026-07-14"}},"brand":"Repsol","h24":true},{"id":100011701,"lat":36.831889,"lng":-2.959944,"addr":"CAMINO OLIVO GORDO, S/N","city":"BERJA","cp":"04760","fuels":{"Gazole":{"p":1.619,"d":"2026-07-14"},"SP95":{"p":1.509,"d":"2026-07-14"},"SP98":{"p":1.599,"d":"2026-07-14"}},"brand":"BP"},{"id":100013161,"lat":36.83325,"lng":-2.9275,"addr":"CALLE LOS IBEROS, 13","city":"BERJA","cp":"04760","fuels":{"Gazole":{"p":1.5,"d":"2026-07-14"},"SP95":{"p":1.5,"d":"2026-07-14"}},"brand":"Es Vefruber","h24":true},{"id":100005764,"lat":36.834389,"lng":-2.930361,"addr":"CARRETERA A-358 KM. 3","city":"BERJA","cp":"04760","fuels":{"Gazole":{"p":1.449,"d":"2026-07-14"},"SP95":{"p":1.399,"d":"2026-07-14"}},"brand":"Truckstop"},{"id":100006954,"lat":36.841667,"lng":-2.945833,"addr":"AVENIDA JOSE BARRIONUEVO PEÑA, S/N","city":"BERJA","cp":"04760","fuels":{"Gazole":{"p":1.645,"d":"2026-07-14"},"SP95":{"p":1.585,"d":"2026-07-14"},"SP98":{"p":1.755,"d":"2026-07-14"}},"brand":"Repsol"},{"id":100011825,"lat":37.001583,"lng":-2.713944,"addr":"CARRETERA A-348 KM. 105,500","city":"CANJAYAR","cp":"04450","fuels":{"Gazole":{"p":1.609,"d":"2026-07-14"},"SP95":{"p":1.679,"d":"2026-07-14"},"SP98":{"p":1.899,"d":"2026-07-14"}},"brand":"Agla"},{"id":100013828,"lat":37.358833,"lng":-2.20225,"addr":"DISEMINADO EL LLANO, 1","city":"CANTORIA","cp":"04850","fuels":{"Gazole":{"p":1.465,"d":"2026-07-14"}},"brand":"Carburantes De Cantoria"},{"id":100012138,"lat":37.374167,"lng":-2.20575,"addr":"POLIGONO INDUSTRIAL S/N, 1","city":"HOJILLA (LA)","cp":"04850","fuels":{"Gazole":{"p":1.459,"d":"2026-07-14"},"SP95":{"p":1.399,"d":"2026-07-14"}},"brand":"Indapak Logistics","h24":true},{"id":100006852,"lat":36.987694,"lng":-1.909861,"addr":"PLAZA POLIGONO INDUSTRIAL, 16","city":"CARBONERAS","cp":"04140","fuels":{"Gazole":{"p":1.665,"d":"2026-07-14"},"SP95":{"p":1.609,"d":"2026-07-14"},"SP98":{"p":1.749,"d":"2026-07-14"}},"brand":"Bp Oil España"},{"id":100011569,"lat":37.595778,"lng":-2.281028,"addr":"AUTOVIA A-92 KM. 385","city":"CHIRIVEL","cp":"04825","fuels":{"Gazole":{"p":1.629,"d":"2026-07-14"},"SP95":{"p":1.599,"d":"2026-07-14"},"SP98":{"p":1.699,"d":"2026-07-14"}},"brand":"Repsol"},{"id":100005638,"lat":37.292556,"lng":-1.878833,"addr":"AVENIDA DE ATRALES, 34","city":"CUEVAS DEL ALMANZORA","cp":"04610","fuels":{"Gazole":{"p":1.67,"d":"2026-07-14"},"SP95":{"p":1.621,"d":"2026-07-14"}},"brand":"Cepsa"},{"id":100009257,"lat":37.296361,"lng":-1.823944,"addr":"CARRETERA A-332 KM. 11","city":"CUEVAS DEL ALMANZORA","cp":"04610","fuels":{"Gazole":{"p":1.789,"d":"2026-07-14"},"SP95":{"p":1.499,"d":"2026-07-14"}},"brand":"Es Borja - E.S.Sobrado De Picato, S.L.U"},{"id":100014554,"lat":37.289139,"lng":-1.877417,"addr":"AVENIDA A-332 CARLOS HERRERA, 10","city":"CUEVAS DEL ALMANZORA","cp":"04610","fuels":{"Gazole":{"p":1.589,"d":"2026-07-14"},"SP95":{"p":1.529,"d":"2026-07-14"}},"brand":"Plenergy","h24":true},{"id":100005644,"lat":37.234389,"lng":-1.79825,"addr":"CR ALP-118, 58,4","city":"PALOMARES","cp":"04618","fuels":{"Gazole":{"p":1.665,"d":"2026-07-14"},"SP95":{"p":1.595,"d":"2026-07-14"},"SP98":{"p":1.725,"d":"2026-07-14"}},"brand":"Repsol"},{"id":100006692,"lat":37.307444,"lng":-1.770222,"addr":"BARRIADA LOS LOBOS, 1","city":"LOBOS (LOS)","cp":"04619","fuels":{"Gazole":{"p":1.669,"d":"2026-07-14"},"SP95":{"p":1.619,"d":"2026-07-14"}},"brand":"Repsol"},{"id":100012273,"lat":37.347278,"lng":-1.778194,"addr":"AVENIDA ANDALUCIA,","city":"GUAZAMARA","cp":"04647","fuels":{"Gazole":{"p":1.599,"d":"2026-07-14"},"SP95":{"p":1.589,"d":"2026-07-14"},"SP98":{"p":1.799,"d":"2026-07-14"}},"brand":"A.S. El Artinero"},{"id":100009740,"lat":36.81125,"lng":-2.863444,"addr":"CTRA. EL EJIDO-BERJA km 10,200","city":"DALIAS","cp":"04750","fuels":{"Gazole":{"p":1.449,"d":"2026-07-14"},"SP95":{"p":1.399,"d":"2026-07-14"},"SP98":{"p":1.599,"d":"2026-07-14"}},"brand":"Truck Stop Dalias","h24":true},{"id":100010926,"lat":36.814722,"lng":-2.868306,"addr":"AVENIDA DE LAS ALPUJARRAS, S/N","city":"DALIAS","cp":"04750","fuels":{"Gazole":{"p":1.408,"d":"2026-07-14"},"SP95":{"p":1.384,"d":"2026-07-14"}},"brand":"E.S. Campejido Dalias"},{"id":100014743,"lat":36.737778,"lng":-2.816667,"addr":"DISEMINADO LOS MAJALES, 39","city":"EJIDO (EL)","cp":"04700","fuels":{"Gazole":{"p":1.48,"d":"2026-07-14"},"SP95":{"p":1.47,"d":"2026-07-14"}},"brand":"Estacion De Servicio Vicasol S.L."},{"id":100006872,"lat":36.754056,"lng":-2.806056,"addr":"CARRETERA ALMERIMAR KM. S/N","city":"EJIDO (EL)","cp":"04700","fuels":{"Gazole":{"p":1.469,"d":"2026-07-14"},"SP95":{"p":1.489,"d":"2026-07-14"}},"brand":"Hafesa","h24":true},{"id":100013415,"lat":36.769278,"lng":-2.827583,"addr":"CALLE CAMINO DE ADRA S/N ESQUINA CALLE LA PARRA, 0","city":"EJIDO (EL)","cp":"04700","fuels":{"Gazole":{"p":1.562,"d":"2026-07-14"},"SP95":{"p":1.547,"d":"2026-07-14"}},"brand":"Bp El Ejido - Coop Santa Maria","h24":true},{"id":100005621,"lat":36.78425,"lng":-2.834417,"addr":"CARRETERA CARRETERA DE BERJA KM. 16","city":"EJIDO (EL)","cp":"04700","fuels":{"Gazole":{"p":1.408,"d":"2026-07-14"},"SP95":{"p":1.384,"d":"2026-07-14"},"GPLc":{"p":0.984,"d":"2026-07-14"}},"brand":"Campoejido"},{"id":100005622,"lat":36.780778,"lng":-2.831333,"addr":"CARRETERA CARRETERA DE BERJA KM. 16","city":"EJIDO (EL)","cp":"04700","fuels":{"Gazole":{"p":1.408,"d":"2026-07-14"},"SP95":{"p":1.384,"d":"2026-07-14"},"SP98":{"p":1.563,"d":"2026-07-14"}},"brand":"Campoejido"},{"id":100010910,"lat":36.768917,"lng":-2.831861,"addr":"CALLE CUATRO VIENTOS 228, S/N","city":"EJIDO (EL)","cp":"04700","fuels":{"Gazole":{"p":1.408,"d":"2026-07-14"},"SP95":{"p":1.384,"d":"2026-07-14"}},"brand":"E.S Campoejido Las Peñas","h24":true},{"id":100005623,"lat":36.727361,"lng":-2.802194,"addr":"CARRETERA DE ALMERIMAR KM. 3","city":"EJIDO (EL)","cp":"04700","fuels":{"Gazole":{"p":1.408,"d":"2026-07-14"},"SP95":{"p":1.384,"d":"2026-07-14"}},"brand":"E.S. Campoejido Ctra Almerimar","h24":true},{"id":100008985,"lat":36.778167,"lng":-2.772639,"addr":"CALLE CAMINO DE ROQUETAS, 6","city":"EJIDO (EL)","cp":"04700","fuels":{"Gazole":{"p":1.419,"d":"2026-07-14"},"SP95":{"p":1.388,"d":"2026-07-14"}},"brand":"E.S. Coop Santa Maria Del Aguila - El Ejido","h24":true},{"id":100008919,"lat":36.768306,"lng":-2.828556,"addr":"PARAJE DERRAMADERO DE CABRILES","city":"EJIDO (EL)","cp":"04700","fuels":{"Gazole":{"p":1.549,"d":"2026-07-14"},"SP95":{"p":1.509,"d":"2026-07-14"},"SP98":{"p":1.649,"d":"2026-07-14"}},"brand":"Ejido Oeste","h24":true},{"id":100008918,"lat":36.757417,"lng":-2.748222,"addr":"CRA DE LA MOJONERA NORIAS 155","city":"EJIDO (EL)","cp":"04700","fuels":{"Gazole":{"p":1.549,"d":"2026-07-14"},"SP95":{"p":1.509,"d":"2026-07-14"},"SP98":{"p":1.639,"d":"2026-07-14"}},"brand":"Es Norias"},{"id":100005605,"lat":36.720917,"lng":-2.799917,"addr":"CARRERA ALMERIMAR, 5","city":"EJIDO (EL)","cp":"04700","fuels":{"Gazole":{"p":1.549,"d":"2026-07-14"},"SP95":{"p":1.509,"d":"2026-07-14"},"SP98":{"p":1.639,"d":"2026-07-14"}},"brand":"Bahia De Almerimar"},{"id":100006838,"lat":36.777611,"lng":-2.792222,"addr":"AVENIDA DEL TREINTA, 121","city":"EJIDO (EL)","cp":"04700","fuels":{"Gazole":{"p":1.639,"d":"2026-07-14"},"SP95":{"p":1.599,"d":"2026-07-14"}},"brand":"Repsol"},{"id":100010562,"lat":36.797944,"lng":-2.727306,"addr":"RAMBLA BERNAL, 19","city":"EJIDO (EL)","cp":"04700","fuels":{"Gazole":{"p":1.529,"d":"2026-07-14"}},"brand":"Transportes Bearca S.L."},{"id":100005765,"lat":36.771278,"lng":-2.826111,"addr":"CALLE BULEVAR, 74","city":"EJIDO (EL)","cp":"04700","fuels":{"Gazole":{"p":1.639,"d":"2026-07-14"},"SP95":{"p":1.589,"d":"2026-07-14"}},"brand":"Repsol La Costa"},{"id":100016414,"lat":36.758083,"lng":-2.800389,"addr":"CALLE JUAN DE LA CIERVA, 1","city":"EJIDO (EL)","cp":"04700","fuels":{"Gazole":{"p":1.379,"d":"2026-07-14"},"SP95":{"p":1.359,"d":"2026-07-14"}},"brand":"Beroil","h24":true},{"id":100005561,"lat":36.774722,"lng":-2.802306,"addr":"CALLE Avellano, 492","city":"EJIDO (EL)","cp":"04700","fuels":{"Gazole":{"p":1.444,"d":"2026-07-14"},"SP95":{"p":1.409,"d":"2026-07-14"}},"brand":"Gasolinera El Ejido"},{"id":100012661,"lat":36.788611,"lng":-2.825111,"addr":"PARAJE LOS ALJIBILLOS, S/N","city":"EJIDO (EL)","cp":"04700","fuels":{"Gazole":{"p":1.7,"d":"2026-07-14"},"SP95":{"p":1.6,"d":"2026-07-14"}},"brand":"Indasol"},{"id":100010925,"lat":36.723944,"lng":-2.795139,"addr":"CARRETERA AL-9008 KM. 4,593","city":"EJIDO (EL)","cp":"04700","fuels":{"Gazole":{"p":1.408,"d":"2026-07-14"},"SP95":{"p":1.384,"d":"2026-07-14"}},"brand":"E.S Campoejido Tierras Almeria"},{"id":100011783,"lat":36.773889,"lng":-2.802,"addr":"PASEO PEDRO PONCE, 105","city":"EJIDO (EL)","cp":"04700","fuels":{"Gazole":{"p":1.699,"d":"2026-07-14"},"SP95":{"p":1.699,"d":"2026-07-14"}},"brand":"Splash","h24":true},{"id":100013874,"lat":36.782944,"lng":-2.756139,"addr":"CALLE MARSELLA, S/N","city":"EJIDO (EL)","cp":"04700","fuels":{"Gazole":{"p":1.617,"d":"2026-07-14"},"SP95":{"p":1.578,"d":"2026-07-14"}},"brand":"Agroponiente"},{"id":100014955,"lat":36.776889,"lng":-2.794083,"addr":"CALLE SIERRA DE ATALAYA, 2","city":"EJIDO (EL)","cp":"04700","fuels":{"Gazole":{"p":1.429,"d":"2026-07-14"},"SP95":{"p":1.409,"d":"2026-07-14"}},"brand":"Plenergy","h24":true},{"id":100005795,"lat":36.758556,"lng":-2.805444,"addr":"AVENIDA OASIS, 260","city":"EJIDO (EL)","cp":"04700","fuels":{"Gazole":{"p":1.649,"d":"2026-07-14"},"SP95":{"p":1.659,"d":"2026-07-14"},"SP98":{"p":1.755,"d":"2026-07-14"},"GPLc":{"p":1.199,"d":"2026-07-14"}},"brand":"Repsol"},{"id":100011807,"lat":36.758028,"lng":-2.801167,"addr":"CALLE ARQUIMEDES, S/N","city":"EJIDO (EL)","cp":"04700","fuels":{"Gazole":{"p":1.45,"d":"2026-07-14"}},"brand":"Ciudad Ejido,s.L"},{"id":100010005,"lat":36.780444,"lng":-2.748806,"addr":"CARRETERA IRYDA POLIG. IND. LA REDONDA KM. S/N","city":"SANTA MARIA DEL AGUILA","cp":"04710","fuels":{"Gazole":{"p":1.629,"d":"2026-07-14"},"SP95":{"p":1.639,"d":"2026-07-14"}},"brand":"Moeve - Parking La Redonda","h24":true},{"id":100012543,"lat":36.775,"lng":-2.752222,"addr":"CAMINO CAMINO DE ROQUETAS, 77","city":"SANTA MARIA DEL AGUILA","cp":"04710","fuels":{"Gazole":{"p":1.408,"d":"2026-07-14"},"SP95":{"p":1.384,"d":"2026-07-14"}},"brand":"E.S.Campoejido-La Aldeilla"},{"id":100009742,"lat":36.782917,"lng":-2.756222,"addr":"CARRETERA N 340 KM. 413","city":"SANTA MARIA DEL AGUILA","cp":"04710","fuels":{"Gazole":{"p":1.449,"d":"2026-07-14"},"SP95":{"p":1.399,"d":"2026-07-14"},"SP98":{"p":1.599,"d":"2026-07-14"}},"brand":"Truck Stop Del Poniente"},{"id":100009738,"lat":36.775278,"lng":-2.78225,"addr":"CARRETERA DE LA MOJONERA KM. 0,300","city":"SANTA MARIA DEL AGUILA","cp":"04710","fuels":{"Gazole":{"p":1.449,"d":"2026-07-14"},"SP95":{"p":1.399,"d":"2026-07-14"},"SP98":{"p":1.599,"d":"2026-07-14"}},"brand":"Truck Stop El Ejido S.L.","h24":true},{"id":100010952,"lat":36.74775,"lng":-2.735917,"addr":"LOMA DEL VIENTO,  Nº 78","city":"NORIAS (LAS)","cp":"04716","fuels":{"Gazole":{"p":1.339,"d":"2026-07-14"},"SP95":{"p":1.299,"d":"2026-07-14"}},"brand":"Econorias"},{"id":100016001,"lat":36.771611,"lng":-2.754139,"addr":"CARRETERA PUESTO RUBIO KM. 66","city":"NORIAS (LAS)","cp":"04716","fuels":{"Gazole":{"p":1.629,"d":"2026-07-14"},"E10":{"p":1.589,"d":"2026-07-14"}},"brand":"Repsol"},{"id":100015761,"lat":36.752833,"lng":-2.704167,"addr":"CARRETERA A-1050 KM. 7,2","city":"NORIAS (LAS)","cp":"04716","fuels":{"Gazole":{"p":1.5,"d":"2026-07-14"},"SP95":{"p":1.5,"d":"2026-07-14"}},"brand":"Es Fepsa  La Palma","h24":true},{"id":100015480,"lat":36.759806,"lng":-2.757,"addr":"CALLE FRAILE, 18","city":"NORIAS (LAS)","cp":"04716","fuels":{"Gazole":{"p":1.499,"d":"2026-07-14"},"SP95":{"p":1.548,"d":"2026-07-14"}},"brand":"Norias Vilo,s.L"},{"id":100010155,"lat":36.782167,"lng":-2.787444,"addr":"CARRETERA AL-3303 KM. 1","city":"SANTA MARIA DEL AGUILA","cp":"04700","fuels":{"Gazole":{"p":1.562,"d":"2026-07-14"},"SP95":{"p":1.544,"d":"2026-07-14"},"SP98":{"p":1.604,"d":"2026-07-14"}},"brand":"Bp Santa Maria Del Aguila"},{"id":100013428,"lat":36.709667,"lng":-2.691417,"addr":"CALLE AGUA, 60","city":"SAN AGUSTIN","cp":"04716","fuels":{"Gazole":{"p":1.422,"d":"2026-07-14"},"SP95":{"p":1.449,"d":"2026-07-14"}},"brand":"Cohorsan Sca"},{"id":100006427,"lat":36.714472,"lng":-2.700944,"addr":"CARRETERA 223 KM. 29","city":"SAN AGUSTIN","cp":"04700","fuels":{"Gazole":{"p":1.549,"d":"2026-07-14"},"SP95":{"p":1.549,"d":"2026-07-14"},"SP98":{"p":1.649,"d":"2026-07-14"}},"brand":"Agla"},{"id":100015465,"lat":36.770722,"lng":-2.797944,"addr":"CARRETERA MATAGORDA - GUARDIAS VIEJAS S/N KM. S/N","city":"MATAGORDA","cp":"04715","fuels":{"Gazole":{"p":1.449,"d":"2026-07-14"},"SP95":{"p":1.429,"d":"2026-07-14"}},"brand":"Gasoleos Sotomontes,s.L."},{"id":100010571,"lat":36.733306,"lng":-2.884444,"addr":"AVENIDA LA REDONDA S/N, S/N","city":"BALERMA","cp":"04712","fuels":{"Gazole":{"p":1.449,"d":"2026-07-14"},"SP95":{"p":1.439,"d":"2026-07-14"}},"brand":"E.S.Balermamar S.C.A"},{"id":100016199,"lat":36.759278,"lng":-2.806444,"addr":"CALLE PÉRGOLA, S/N","city":"BALERMA","cp":"04700","fuels":{"Gazole":{"p":1.429,"d":"2026-07-14"},"SP95":{"p":1.409,"d":"2026-07-14"}},"brand":"Plenergy","h24":true},{"id":100010396,"lat":36.759667,"lng":-2.863306,"addr":"CR N-340; SALIDA BALERMA 6.50","city":"BALERMA","cp":"04700","fuels":{"Gazole":{"p":1.377,"d":"2026-07-14"},"SP95":{"p":1.409,"d":"2026-07-14"}},"brand":"La Tarambana","h24":true},{"id":100015462,"lat":36.785444,"lng":-2.742972,"addr":"POLIGONO INDUSTRIAL LA REDONDA S/N, S/N","city":"EJIDO (EL)","cp":"04710","fuels":{"Gazole":{"p":1.449,"d":"2026-07-14"}},"brand":"Gasoleos Vilomore,s.L."},{"id":100005624,"lat":37.160889,"lng":-2.832778,"addr":"A-92A km 333","city":"FIÑANA","cp":"04500","fuels":{"Gazole":{"p":1.629,"d":"2026-07-14"},"SP95":{"p":1.619,"d":"2026-07-14"},"SP98":{"p":1.849,"d":"2026-07-14"}},"brand":"Cepsa"},{"id":100013560,"lat":37.363417,"lng":-2.266972,"addr":"CALLE ARGENTINA (CAÑ), 34","city":"CAÑADA DE LAS CRUCES (LA)","cp":"04869","fuels":{"Gazole":{"p":1.459,"d":"2026-07-14"},"SP95":{"p":1.399,"d":"2026-07-14"}},"brand":"Gonzalez Cañabate Carburantes","h24":true},{"id":100013771,"lat":37.358167,"lng":-2.282472,"addr":"PARAJE MOJON. POLIGONO 5. PARCELA, 44","city":"ESTACION (LA)","cp":"04869","fuels":{"Gazole":{"p":1.459,"d":"2026-07-14"},"SP95":{"p":1.399,"d":"2026-07-14"}},"brand":"Suimasa","h24":true},{"id":100012695,"lat":37.363194,"lng":-2.268139,"addr":"CARRETERA DE BAZA A HUERCAL OVERA KM. 58,000","city":"FINES","cp":"04869","fuels":{"Gazole":{"p":1.669,"d":"2026-07-14"},"SP95":{"p":1.619,"d":"2026-07-14"}},"brand":"Repsol"},{"id":100010711,"lat":37.364889,"lng":-2.266167,"addr":"POLIGONO LAS CRUCES,, 4","city":"FINES","cp":"04869","fuels":{"Gazole":{"p":1.399,"d":"2026-07-14"}},"brand":"Coop. Tracomar"},{"id":100005625,"lat":36.945361,"lng":-2.475083,"addr":"BARRIO RUINI, 16","city":"GADOR","cp":"04560","fuels":{"Gazole":{"p":1.685,"d":"2026-07-14"},"SP95":{"p":1.645,"d":"2026-07-14"}},"brand":"Cepsa"},{"id":100006865,"lat":37.168139,"lng":-1.932611,"addr":"CARRETERA CTRA. NACIONAL 340 KM. 520,700","city":"GALLARDOS (LOS)","cp":"04280","fuels":{"Gazole":{"p":1.659,"d":"2026-07-14"},"SP95":{"p":1.619,"d":"2026-07-14"}},"brand":"Repsol"},{"id":100015365,"lat":37.169917,"lng":-1.9305,"addr":"CARRETERA NACIONAL 340 POLIGONO INDUSTRIAL EL APOLO KM. S/N","city":"GALLARDOS (LOS)","cp":"04280","fuels":{"Gazole":{"p":1.43,"d":"2026-07-14"}},"brand":"Coaltrans S Coop And","h24":true},{"id":100016079,"lat":37.184694,"lng":-1.825583,"addr":"AVENIDA ANDALUCIA, S/N","city":"GARRUCHA","cp":"04630","fuels":{"Gazole":{"p":1.589,"d":"2026-07-14"},"SP95":{"p":1.529,"d":"2026-07-14"}},"brand":"Plenergy","h24":true},{"id":100005653,"lat":37.116917,"lng":-2.561278,"addr":"AUTOVIA A92 SUR KM. 358","city":"GERGAL","cp":"04550","fuels":{"Gazole":{"p":1.659,"d":"2026-07-14"},"SP95":{"p":1.609,"d":"2026-07-14"},"SP98":{"p":1.769,"d":"2026-07-14"}},"brand":"BP"},{"id":100014985,"lat":36.866694,"lng":-2.440944,"addr":"CARRETERA TORRECÁRDENAS Nº 167 KM. 8","city":"HUERCAL DE ALMERIA","cp":"04230","fuels":{"Gazole":{"p":1.395,"d":"2026-07-14"},"SP95":{"p":1.389,"d":"2026-07-14"}},"brand":"Plenergy","h24":true},{"id":100006861,"lat":36.874972,"lng":-2.444778,"addr":"CARRETERA N-340 KM. 446","city":"HUERCAL DE ALMERIA","cp":"04230","fuels":{"Gazole":{"p":1.679,"d":"2026-07-14"},"SP95":{"p":1.615,"d":"2026-07-14"},"SP98":{"p":1.735,"d":"2026-07-14"},"GPLc":{"p":1.109,"d":"2026-07-14"}},"brand":"Repsol"},{"id":100013892,"lat":36.898972,"lng":-2.445167,"addr":"CARRETERA NACIONAL 340, PARAJE ZAMARULA KM. 449","city":"HUERCAL DE ALMERIA","cp":"04230","fuels":{"Gazole":{"p":1.645,"d":"2026-07-14"},"SP95":{"p":1.625,"d":"2026-07-14"}},"brand":"Cepsa"},{"id":100016143,"lat":36.865194,"lng":-2.442806,"addr":"CARRETERA TORRECÁRDENAS KM. 16","city":"HUERCAL DE ALMERIA","cp":"04230","fuels":{"Gazole":{"p":1.395,"d":"2026-07-14"},"SP95":{"p":1.389,"d":"2026-07-14"}},"brand":"Plenergy","h24":true},{"id":100005639,"lat":37.416778,"lng":-1.876222,"addr":"CARRETERA A-350 KM. 5,100","city":"HUERCAL-OVERA","cp":"04600","fuels":{"Gazole":{"p":1.559,"d":"2026-07-14"},"SP95":{"p":1.519,"d":"2026-07-14"}},"brand":"E.S H8 Energys"},{"id":100005634,"lat":37.315833,"lng":-1.96375,"addr":"CARRETERA N-340 KM. 542,4","city":"HUERCAL-OVERA","cp":"04600","fuels":{"Gazole":{"p":1.699,"d":"2026-07-14"},"SP95":{"p":1.699,"d":"2026-07-14"}},"brand":"Cepsa"},{"id":100006848,"lat":37.401306,"lng":-1.938639,"addr":"CARRETERA NACIONAL 340 KM. 555","city":"HUERCAL-OVERA","cp":"04600","fuels":{"Gazole":{"p":1.669,"d":"2026-07-14"},"SP95":{"p":1.625,"d":"2026-07-14"},"SP98":{"p":1.789,"d":"2026-07-14"}},"brand":"Cepsa"},{"id":100006535,"lat":37.481194,"lng":-1.870111,"addr":"CR AUTOVIA DEL MEDITERRANEO KM","city":"HUERCAL-OVERA","cp":"04600","fuels":{"Gazole":{"p":1.598,"d":"2026-07-14"},"SP95":{"p":1.598,"d":"2026-07-14"},"SP98":{"p":1.689,"d":"2026-07-14"}},"brand":"Andamur \"el Limite\"","h24":true},{"id":100014754,"lat":37.399,"lng":-1.951444,"addr":"CARRETERA ESTACIÓN KM. 159","city":"HUERCAL-OVERA","cp":"04600","fuels":{"Gazole":{"p":1.559,"d":"2026-07-14"},"SP95":{"p":1.519,"d":"2026-07-14"}},"brand":"Plenergy","h24":true},{"id":100011110,"lat":37.411111,"lng":-1.963028,"addr":"CARRERA A-327, 32","city":"HUERCAL-OVERA","cp":"04600","fuels":{"Gazole":{"p":1.599,"d":"2026-07-14"},"SP95":{"p":1.559,"d":"2026-07-14"}},"brand":"Oil Huercal-Overa"},{"id":100006945,"lat":37.386194,"lng":-1.940889,"addr":"CARRETERA CARRETERA NACIONAL 340 KM. 554,1","city":"HUERCAL-OVERA","cp":"04600","fuels":{"Gazole":{"p":1.639,"d":"2026-07-14"},"SP95":{"p":1.589,"d":"2026-07-14"},"SP98":{"p":1.759,"d":"2026-07-14"}},"brand":"Repsol"},{"id":100013417,"lat":37.415528,"lng":-1.967222,"addr":"CALLE MIGUEL URIBE GÓMEZ, 4","city":"HUERCAL-OVERA","cp":"04600","fuels":{"Gazole":{"p":1.609,"d":"2026-07-14"},"SP95":{"p":1.549,"d":"2026-07-14"}},"brand":"Oil Jcj","h24":true},{"id":100013182,"lat":37.434583,"lng":-1.910667,"addr":"AUTOVIA A7 SALIDA 559 KM. 559","city":"HUERCAL-OVERA","cp":"04662","fuels":{"Gazole":{"p":1.669,"d":"2026-07-14"},"SP95":{"p":1.629,"d":"2026-07-14"},"SP98":{"p":1.729,"d":"2026-07-14"}},"brand":"Cepsa","h24":true},{"id":100006869,"lat":37.352056,"lng":-1.970917,"addr":"AUTOVIA MURCIA - ALMERIA E15 SALIDA 682 KM.","city":"HUERCAL-OVERA","cp":"04662","fuels":{"Gazole":{"p":1.639,"d":"2026-07-14"},"SP95":{"p":1.609,"d":"2026-07-14"},"SP98":{"p":1.799,"d":"2026-07-14"}},"brand":"Repsol","h24":true},{"id":100006827,"lat":36.988611,"lng":-2.911278,"addr":"CARRETERA ORGIVA-AGADOR KM. 96","city":"LAUJAR DE ANDARAX","cp":"04470","fuels":{"Gazole":{"p":1.629,"d":"2026-07-14"},"SP95":{"p":1.579,"d":"2026-07-14"}},"brand":"Repsol"},{"id":100013702,"lat":37.219444,"lng":-2.064417,"addr":"POLIGONO LA REDONDA, 1","city":"LUBRIN","cp":"04271","fuels":{"Gazole":{"p":1.529,"d":"2026-07-14"},"SP95":{"p":1.479,"d":"2026-07-14"}},"brand":"Iniciativas Rumial","h24":true},{"id":100006437,"lat":37.333306,"lng":-2.299139,"addr":"CARRETERA CTRA. DE TAHAL KM. 3","city":"MACAEL","cp":"04867","fuels":{"Gazole":{"p":1.459,"d":"2026-07-14"},"SP95":{"p":1.399,"d":"2026-07-14"}},"brand":"Ntra Sra Del Rosario"},{"id":100011939,"lat":37.341167,"lng":-2.294583,"addr":"CARRETERA OLULA-MACAEL KM. 1,7","city":"MACAEL","cp":"04867","fuels":{"Gazole":{"p":1.459,"d":"2026-07-14"},"SP95":{"p":1.399,"d":"2026-07-14"}},"brand":"Suimasa"},{"id":100006685,"lat":37.707972,"lng":-2.168333,"addr":"CALLE CAMINO REAL, SN","city":"MARIA","cp":"04838","fuels":{"Gazole":{"p":1.552,"d":"2026-07-14"},"SP95":{"p":1.576,"d":"2026-07-14"},"SP98":{"p":1.7,"d":"2026-07-14"}},"brand":"Repsol"},{"id":100005631,"lat":37.138583,"lng":-1.840083,"addr":"PARAJE LOS GURULLOS, S/N","city":"MOJACAR","cp":"04638","fuels":{"Gazole":{"p":1.659,"d":"2026-07-14"},"SP95":{"p":1.619,"d":"2026-07-14"},"SP98":{"p":1.749,"d":"2026-07-14"}},"brand":"Cepsa"},{"id":100006944,"lat":37.169056,"lng":-1.824028,"addr":"CR AL-118, 0,6","city":"MOJACAR","cp":"04638","fuels":{"Gazole":{"p":1.659,"d":"2026-07-14"},"SP95":{"p":1.589,"d":"2026-07-14"},"SP98":{"p":1.719,"d":"2026-07-14"}},"brand":"Repsol"},{"id":100006966,"lat":36.796056,"lng":-2.686917,"addr":"N-340 km 420,7","city":"MOJONERA (LA)","cp":"04745","fuels":{"Gazole":{"p":1.659,"d":"2026-07-14"},"SP95":{"p":1.619,"d":"2026-07-14"},"SP98":{"p":1.739,"d":"2026-07-14"}},"brand":"Repsol","h24":true},{"id":100008569,"lat":36.790778,"lng":-2.706361,"addr":"CARRETERA N-340 KM. 418","city":"MOJONERA (LA)","cp":"04745","fuels":{"Gazole":{"p":1.629,"d":"2026-07-14"},"SP95":{"p":1.599,"d":"2026-07-14"},"SP98":{"p":1.739,"d":"2026-07-14"}},"brand":"Shell"},{"id":100014975,"lat":36.751667,"lng":-2.695389,"addr":"CALLE ALHONDIGA, S/N","city":"MOJONERA (LA)","cp":"04745","fuels":{"Gazole":{"p":1.599,"d":"2026-07-14"},"SP95":{"p":1.55,"d":"2026-07-14"}},"brand":"Agla E.S. Cruce Los Palos","h24":true},{"id":100016034,"lat":36.79625,"lng":-2.687917,"addr":"AVENIDA DE LAS CANTINAS, S/N","city":"MOJONERA (LA)","cp":"04745","fuels":{"Gazole":{"p":1.475,"d":"2026-07-14"},"SP95":{"p":1.475,"d":"2026-07-14"}},"brand":"Plenergy","h24":true},{"id":100008568,"lat":36.791667,"lng":-2.706861,"addr":"CARRETERA N-340 KM. 418","city":"MOJONERA (LA)","cp":"04279","fuels":{"Gazole":{"p":1.629,"d":"2026-07-14"},"SP95":{"p":1.599,"d":"2026-07-14"},"SP98":{"p":1.739,"d":"2026-07-14"}},"brand":"Shell"},{"id":100006718,"lat":37.112528,"lng":-2.618361,"addr":"PARAJE LOS NAVARROS, S/N","city":"NACIMIENTO","cp":"04540","fuels":{"Gazole":{"p":1.635,"d":"2026-07-14"},"SP95":{"p":1.585,"d":"2026-07-14"},"SP98":{"p":1.755,"d":"2026-07-14"}},"brand":"Repsol"},{"id":100009494,"lat":36.993861,"lng":-2.067056,"addr":"AUTOVIA ALMERIA  MURCIA SALIDA 494 KM.","city":"NIJAR","cp":"04100","fuels":{"Gazole":{"p":1.669,"d":"2026-07-14"},"SP95":{"p":1.609,"d":"2026-07-14"},"SP98":{"p":1.769,"d":"2026-07-14"}},"brand":"Bp Venta Del Pobre"},{"id":100006864,"lat":36.94925,"lng":-2.205833,"addr":"CARRETERA AL-340 ALMERIA-NIJAR KM. 30","city":"NIJAR","cp":"04100","fuels":{"Gazole":{"p":1.649,"d":"2026-07-14"},"SP95":{"p":1.619,"d":"2026-07-14"}},"brand":"Bp Nijar"},{"id":100005613,"lat":36.869083,"lng":-2.229556,"addr":"AUTOVIA AUTOVIA DEL MEDITERRANEO SAL.471 KM. 471","city":"NIJAR","cp":"04100","fuels":{"Gazole":{"p":1.669,"d":"2026-07-14"},"SP95":{"p":1.609,"d":"2026-07-14"},"SP98":{"p":1.769,"d":"2026-07-14"}},"brand":"Bp Estacion De Servicio El 21"},{"id":100010574,"lat":36.992,"lng":-2.062944,"addr":"N-341 (NIJAR-CARBONERAS) km 0,5","city":"NIJAR","cp":"04100","fuels":{"Gazole":{"p":1.659,"d":"2026-07-14"},"SP95":{"p":1.609,"d":"2026-07-14"},"SP98":{"p":1.749,"d":"2026-07-14"}},"brand":"Shell"},{"id":100005798,"lat":36.955639,"lng":-2.127806,"addr":"AUTOVIA A7  E15   SALIDA 742  NIJAR KM. 742","city":"NIJAR","cp":"04100","fuels":{"Gazole":{"p":1.649,"d":"2026-07-14"},"SP95":{"p":1.629,"d":"2026-07-14"},"SP98":{"p":1.799,"d":"2026-07-14"},"GPLc":{"p":1.095,"d":"2026-07-14"}},"brand":"Repsol","h24":true},{"id":100012783,"lat":36.922972,"lng":-2.149167,"addr":"CARRETERA IRYDA (CH) KM. 5","city":"SAN ISIDRO DE NIJAR","cp":"04117","fuels":{"Gazole":{"p":1.539,"d":"2026-07-14"},"SP95":{"p":1.479,"d":"2026-07-14"}},"brand":"Hortofrucoop S.C.A."},{"id":100014559,"lat":36.911806,"lng":-2.166361,"addr":"CALLE BRUSELAS, 60","city":"SAN ISIDRO DE NIJAR","cp":"04117","fuels":{"Gazole":{"p":1.605,"d":"2026-07-14"},"SP95":{"p":1.525,"d":"2026-07-14"}},"brand":"Plenergy","h24":true},{"id":100006824,"lat":36.898083,"lng":-2.186444,"addr":"CARRETERA DE IRYDA KM. 5200","city":"SAN ISIDRO DE NIJAR","cp":"04117","fuels":{"Gazole":{"p":1.635,"d":"2026-07-14"},"SP95":{"p":1.609,"d":"2026-07-14"},"SP98":{"p":1.779,"d":"2026-07-14"}},"brand":"Repsol"},{"id":100014712,"lat":36.896111,"lng":-2.157222,"addr":"PARAJE LOS TRANCES. POLÍGONO 205 PARCELAS 9-10, S/N","city":"SAN ISIDRO DE NIJAR","cp":"04117","fuels":{"Gazole":{"p":1.405,"d":"2026-07-14"}},"brand":"Litoral De Nijar"},{"id":100006517,"lat":36.904333,"lng":-2.178361,"addr":"CRTA. DE YRIDA km 27","city":"SAN ISIDRO DE NIJAR","cp":"04117","fuels":{"Gazole":{"p":1.635,"d":"2026-07-14"},"SP95":{"p":1.609,"d":"2026-07-14"}},"brand":"Estacion De Servicio Repsol ** Casi **"},{"id":100014181,"lat":36.920917,"lng":-2.172417,"addr":"PARAJE CAÑADA MENA, PARCELAS 10-11, 10","city":"SAN ISIDRO DE NIJAR","cp":"04117","fuels":{"Gazole":{"p":1.603,"d":"2026-07-14"},"SP95":{"p":1.523,"d":"2026-07-14"}},"brand":"Coprohnijar S.C.A."},{"id":100008788,"lat":36.940667,"lng":-2.138694,"addr":"CARRETERA DE LAS NEGRAS KM. 149","city":"CAMPOHERMOSO","cp":"04110","fuels":{"Gazole":{"p":1.629,"d":"2026-07-14"},"SP95":{"p":1.599,"d":"2026-07-14"},"SP98":{"p":1.789,"d":"2026-07-14"}},"brand":"Eni"},{"id":100005640,"lat":36.927306,"lng":-2.143667,"addr":"CARRETERA IRIDA KM. 15,6","city":"CAMPOHERMOSO","cp":"04110","fuels":{"Gazole":{"p":1.669,"d":"2026-07-14"},"SP95":{"p":1.619,"d":"2026-07-14"},"SP98":{"p":1.789,"d":"2026-07-14"}},"brand":"Cepsa"},{"id":100014538,"lat":36.925778,"lng":-2.143944,"addr":"CALLE VILLA MARIA SURTIDOR, S/N","city":"CAMPOHERMOSO","cp":"04110","fuels":{"Gazole":{"p":1.605,"d":"2026-07-14"},"SP95":{"p":1.525,"d":"2026-07-14"}},"brand":"Petroprix","h24":true},{"id":100014870,"lat":36.935694,"lng":-2.133694,"addr":"CARRETERA LOS GALLARDOS KM. 40","city":"CAMPOHERMOSO","cp":"04110","fuels":{"Gazole":{"p":1.605,"d":"2026-07-14"},"SP95":{"p":1.525,"d":"2026-07-14"}},"brand":"Plenergy","h24":true},{"id":100006919,"lat":36.815778,"lng":-2.160972,"addr":"CARRETERA AL-3201 KM. 6,5","city":"BARRANQUETE (EL)","cp":"04117","fuels":{"Gazole":{"p":1.679,"d":"2026-07-14"},"SP95":{"p":1.629,"d":"2026-07-14"}},"brand":"Repsol"},{"id":100006520,"lat":37.356667,"lng":-2.2975,"addr":"AVENIDA AVDA. ALMANZORA, 45","city":"OLULA DEL RIO","cp":"04860","fuels":{"Gazole":{"p":1.459,"d":"2026-07-14"},"SP95":{"p":1.399,"d":"2026-07-14"}},"brand":"Ee.Ss. San Sebastian"},{"id":100005633,"lat":37.485,"lng":-2.287528,"addr":"AVENIDA ANDALUCIA, 62","city":"ORIA","cp":"04810","fuels":{"Gazole":{"p":1.629,"d":"2026-07-14"},"SP95":{"p":1.599,"d":"2026-07-14"}},"brand":"Cepsa"},{"id":100012881,"lat":37.383472,"lng":-1.749139,"addr":"POLIGONO S-LF1, 1","city":"PULPI","cp":"04640","fuels":{"Gazole":{"p":1.649,"d":"2026-07-14"},"SP95":{"p":1.589,"d":"2026-07-14"},"GPLc":{"p":1.159,"d":"2026-07-14"}},"brand":"Europulpi","h24":true},{"id":100012150,"lat":37.393194,"lng":-1.760833,"addr":"POLIGONO POLIGONO INDUSTRIAL PULPI, S/N","city":"PULPI","cp":"04640","fuels":{"Gazole":{"p":1.599,"d":"2026-07-14"},"SP95":{"p":1.519,"d":"2026-07-14"}},"brand":"E.S. Aquacenter"},{"id":100006911,"lat":37.3945,"lng":-1.752083,"addr":"CALLE LA GASOLINERA 5,","city":"PULPI","cp":"04640","fuels":{"Gazole":{"p":1.665,"d":"2026-07-14"},"SP95":{"p":1.599,"d":"2026-07-14"}},"brand":"Repsol"},{"id":100015608,"lat":37.361361,"lng":-1.66425,"addr":"URBANIZACIÓN PARCELA T2, SECTOR S-RTU 5 ?CALAS DE PINAR?, S/N","city":"SAN JUAN DE TERREROS","cp":"04640","fuels":{"Gazole":{"p":1.695,"d":"2026-07-14"},"SP95":{"p":1.625,"d":"2026-07-14"}},"brand":"Moeve"},{"id":100005763,"lat":37.35825,"lng":-2.339556,"addr":"CR A-334, 50.9 (A-334 km 50,9)","city":"PURCHENA","cp":"04870","fuels":{"Gazole":{"p":1.459,"d":"2026-07-14"},"SP95":{"p":1.399,"d":"2026-07-14"}},"brand":"Suimasa"},{"id":100005769,"lat":36.96075,"lng":-2.466583,"addr":"CR A-92, 386","city":"RIOJA","cp":"04260","fuels":{"Gazole":{"p":1.665,"d":"2026-07-14"},"SP95":{"p":1.625,"d":"2026-07-14"},"SP98":{"p":1.745,"d":"2026-07-14"}},"brand":"Repsol"},{"id":100008954,"lat":36.757167,"lng":-2.642528,"addr":"CAMINO DE LOS MERCADOS, S/N","city":"ROQUETAS DE MAR","cp":"04740","fuels":{"Gazole":{"p":1.537,"d":"2026-07-14"},"SP95":{"p":1.489,"d":"2026-07-14"},"SP98":{"p":1.673,"d":"2026-07-14"}},"brand":"Costa De Almeria"},{"id":100015736,"lat":36.762167,"lng":-2.63275,"addr":"CARRETERA LA MOJONERA KM. 142","city":"ROQUETAS DE MAR","cp":"04740","fuels":{"Gazole":{"p":1.407,"d":"2026-07-14"},"SP95":{"p":1.379,"d":"2026-07-14"}},"brand":"Plenergy","h24":true},{"id":100005630,"lat":36.759611,"lng":-2.645694,"addr":"CARRETERA MOJONERA (MO) KM. 37","city":"ROQUETAS DE MAR","cp":"04740","fuels":{"Gazole":{"p":1.407,"d":"2026-07-14"},"SP95":{"p":1.379,"d":"2026-07-14"}},"brand":"Ballenoil","h24":true},{"id":100015497,"lat":36.749444,"lng":-2.636944,"addr":"CAMINO A-1051, 10","city":"ROQUETAS DE MAR","cp":"04740","fuels":{"Gazole":{"p":1.655,"d":"2026-07-14"},"SP95":{"p":1.605,"d":"2026-07-14"},"SP98":{"p":1.745,"d":"2026-07-14"}},"brand":"Bp Roquetas","h24":true},{"id":100008386,"lat":36.761111,"lng":-2.636944,"addr":"CARRETERA DE LA MOJONERA KM. 285","city":"ROQUETAS DE MAR","cp":"04740","fuels":{"Gazole":{"p":1.408,"d":"2026-07-14"},"SP95":{"p":1.384,"d":"2026-07-14"}},"brand":"E.S. Campoejido Roquetas"},{"id":100012965,"lat":36.773194,"lng":-2.629694,"addr":"CARRETERA ALMERIA 9029 KM. 1","city":"ROQUETAS DE MAR","cp":"04740","fuels":{"Gazole":{"p":1.599,"d":"2026-07-14"},"SP95":{"p":1.579,"d":"2026-07-14"},"SP98":{"p":1.699,"d":"2026-07-14"},"GPLc":{"p":1.109,"d":"2026-07-14"}},"brand":"E.S Pacocalcula","h24":true},{"id":100005574,"lat":36.769972,"lng":-2.613417,"addr":"AVENIDA DE ALICUN, 23 (A-391 km 0,5)","city":"ROQUETAS DE MAR","cp":"04740","fuels":{"Gazole":{"p":1.679,"d":"2026-07-14"},"SP95":{"p":1.629,"d":"2026-07-14"},"SP98":{"p":1.809,"d":"2026-07-14"},"GPLc":{"p":1.199,"d":"2026-07-14"}},"brand":"Cepsa"},{"id":100005629,"lat":36.741306,"lng":-2.616861,"addr":"CARRETERA SABINAL KM. 337","city":"ROQUETAS DE MAR","cp":"04740","fuels":{"Gazole":{"p":1.719,"d":"2026-07-14"},"SP95":{"p":1.659,"d":"2026-07-14"},"SP98":{"p":1.849,"d":"2026-07-14"}},"brand":"Cepsa"},{"id":100005573,"lat":36.77175,"lng":-2.613361,"addr":"AVENIDA ALICUN, 62","city":"ROQUETAS DE MAR","cp":"04740","fuels":{"Gazole":{"p":1.679,"d":"2026-07-14"},"SP95":{"p":1.629,"d":"2026-07-14"},"SP98":{"p":1.809,"d":"2026-07-14"}},"brand":"Cepsa","h24":true},{"id":100005802,"lat":36.798722,"lng":-2.602111,"addr":"CARRETERA ALICUN KM. 5,05","city":"ROQUETAS DE MAR","cp":"04740","fuels":{"Gazole":{"p":1.679,"d":"2026-07-14"},"SP95":{"p":1.629,"d":"2026-07-14"},"SP98":{"p":1.809,"d":"2026-07-14"}},"brand":"Repsol"},{"id":100005801,"lat":36.798611,"lng":-2.601222,"addr":"CTRA. ALICUN KM 5.05 (A-391 km 3,8)","city":"ROQUETAS DE MAR","cp":"04740","fuels":{"Gazole":{"p":1.679,"d":"2026-07-14"},"SP95":{"p":1.629,"d":"2026-07-14"},"SP98":{"p":1.809,"d":"2026-07-14"}},"brand":"Repsol"},{"id":100005572,"lat":36.776111,"lng":-2.611944,"addr":"CARRETERA CRTA. ALICUN KM. S/N","city":"ROQUETAS DE MAR","cp":"04740","fuels":{"Gazole":{"p":1.549,"d":"2026-07-14"},"SP95":{"p":1.529,"d":"2026-07-14"},"SP98":{"p":1.749,"d":"2026-07-14"}},"brand":"Carrefour","h24":true},{"id":100010971,"lat":36.751385,"lng":-2.637818,"addr":"CAMINO DE LAS MERCADOS Nº 50","city":"ROQUETAS DE MAR","cp":"04740","fuels":{"Gazole":{"p":1.445,"d":"2026-07-14"},"SP95":{"p":1.435,"d":"2026-07-14"}},"brand":"Consumomar S.C.A."},{"id":100010860,"lat":36.819917,"lng":-2.597167,"addr":"CR  E-15  ,P.K. 429  (N-340 SALIDA","city":"ROQUETAS DE MAR","cp":"04740","fuels":{"Gazole":{"p":1.655,"d":"2026-07-14"},"SP95":{"p":1.619,"d":"2026-07-14"},"SP98":{"p":1.739,"d":"2026-07-14"},"GPLc":{"p":1.115,"d":"2026-07-14"}},"brand":"Repsol"},{"id":100005627,"lat":36.809278,"lng":-2.592917,"addr":"AVENIDA CALOS III, 82","city":"AGUADULCE","cp":"04720","fuels":{"Gazole":{"p":1.649,"d":"2026-07-14"},"SP95":{"p":1.609,"d":"2026-07-14"},"SP98":{"p":1.729,"d":"2026-07-14"},"GPLc":{"p":1.149,"d":"2026-07-14"}},"brand":"Cepsa","h24":true},{"id":100011946,"lat":36.822694,"lng":-2.582556,"addr":"CALLE JOSE MARIA MOLINA, S/N","city":"AGUADULCE","cp":"04720","fuels":{"Gazole":{"p":1.635,"d":"2026-07-14"},"SP95":{"p":1.609,"d":"2026-07-14"},"SP98":{"p":1.729,"d":"2026-07-14"}},"brand":"Repsol"},{"id":100006926,"lat":36.811083,"lng":-2.584861,"addr":"AVENIDA CARLOS III (AS), 305","city":"AGUADULCE","cp":"04720","fuels":{"Gazole":{"p":1.655,"d":"2026-07-14"},"SP95":{"p":1.604,"d":"2026-07-14"},"SP98":{"p":1.745,"d":"2026-07-14"}},"brand":"Bp Aguadulce","h24":true},{"id":100015994,"lat":36.962778,"lng":-2.537194,"addr":"CARRETERA A1075 KM. 1","city":"SANTA FE DE MONDUJAR","cp":"04420","fuels":{"Gazole":{"p":1.669,"d":"2026-07-14"},"SP95":{"p":1.619,"d":"2026-07-14"},"SP98":{"p":1.819,"d":"2026-07-14"}},"brand":"Bp E.S. Los Millares"},{"id":100015919,"lat":37.360417,"lng":-2.508722,"addr":"CALLE MINA LEONA 1, 1","city":"CLAVEROS (LOS)","cp":"04890","fuels":{"Gazole":{"p":1.459,"d":"2026-07-14"},"SP95":{"p":1.469,"d":"2026-07-14"}},"brand":"Hafesa"},{"id":100006445,"lat":37.0975,"lng":-2.121306,"addr":"CARRETERA A-316 UBEDA-CABRA  PK. 169 KM. S/N","city":"SORBAS","cp":"04270","fuels":{"Gazole":{"p":1.639,"d":"2026-07-14"},"SP95":{"p":1.619,"d":"2026-07-14"}},"brand":"E/s  San Javier"},{"id":100010205,"lat":37.169833,"lng":-2.128694,"addr":"BO EL PUNTAL, SN","city":"SORBAS","cp":"04270","fuels":{"Gazole":{"p":1.549,"d":"2026-07-14"},"SP95":{"p":1.499,"d":"2026-07-14"}},"brand":"Los Filabres Sca"},{"id":100015491,"lat":37.095667,"lng":-2.119944,"addr":"PARAJE EL COLLAICO, S/N","city":"SORBAS","cp":"04270","fuels":{"Gazole":{"p":1.429,"d":"2026-07-14"}},"brand":"Citrasor, Sca"},{"id":100016358,"lat":37.067806,"lng":-2.367361,"addr":"PARAJE CAÑADA LOS ALBARDINALES, S/N","city":"TABERNAS","cp":"04200","fuels":{"Gazole":{"p":1.799,"d":"2026-07-14"}},"brand":"Desert Truckers"},{"id":100006839,"lat":37.057278,"lng":-2.387556,"addr":"AVENIDA RICARDO FABREGA, 81","city":"TABERNAS","cp":"04200","fuels":{"Gazole":{"p":1.699,"d":"2026-07-14"},"SP95":{"p":1.639,"d":"2026-07-14"},"SP98":{"p":1.789,"d":"2026-07-14"}},"brand":"Bp La Era Tabernas"},{"id":100011971,"lat":37.08475,"lng":-2.308667,"addr":"CARRETERA N-340A KM. 479","city":"TABERNAS","cp":"04200","fuels":{"Gazole":{"p":1.729,"d":"2026-07-14"},"SP95":{"p":1.719,"d":"2026-07-14"},"SP98":{"p":1.829,"d":"2026-07-14"}},"brand":"Repsol"},{"id":100005647,"lat":37.016417,"lng":-2.446056,"addr":"AUTOVIA CR A 92 KM. 379","city":"TABERNAS","cp":"04200","fuels":{"Gazole":{"p":1.737,"d":"2026-07-14"},"SP95":{"p":1.725,"d":"2026-07-14"}},"brand":"Repsol"},{"id":100005642,"lat":37.463389,"lng":-2.071556,"addr":"CARRETERA HUERCAL-OVERA KM. 19400","city":"TABERNO","cp":"04692","fuels":{"Gazole":{"p":1.605,"d":"2026-07-14"},"SP95":{"p":1.555,"d":"2026-07-14"}},"brand":"Cepsa"},{"id":100005637,"lat":37.231111,"lng":-2.296194,"addr":"CARRETERA A-349 KM. 26,6","city":"TAHAL","cp":"04275","fuels":{"Gazole":{"p":1.599,"d":"2026-07-14"},"SP95":{"p":1.599,"d":"2026-07-14"}},"brand":"Cepsa"},{"id":100006698,"lat":37.347722,"lng":-2.432222,"addr":"AVENIDA AVD.  JOSE ANTONIO, 18","city":"TIJOLA","cp":"04880","fuels":{"Gazole":{"p":1.665,"d":"2026-07-14"},"SP95":{"p":1.585,"d":"2026-07-14"},"SP98":{"p":1.755,"d":"2026-07-14"}},"brand":"Repsol"},{"id":100015265,"lat":37.347917,"lng":-2.427,"addr":"POLIGONO INDUSTRIAL, CL. LEONARDO DA VINCCI SECTOR TI4, 4","city":"TIJOLA","cp":"04880","fuels":{"Gazole":{"p":1.459,"d":"2026-07-14"},"SP95":{"p":1.399,"d":"2026-07-14"}},"brand":"Volacan"},{"id":100016027,"lat":37.151556,"lng":-1.895944,"addr":"CALLE CABRERA, 0","city":"TURRE","cp":"04369","fuels":{"Gazole":{"p":1.639,"d":"2026-07-14"},"SP95":{"p":1.598,"d":"2026-07-14"},"GPLc":{"p":1.15,"d":"2026-07-14"}},"brand":"Shell"},{"id":100007985,"lat":37.681861,"lng":-2.095889,"addr":"CARRETERA A-317 KM. 161","city":"VELEZ-BLANCO","cp":"04830","fuels":{"Gazole":{"p":1.529,"d":"2026-07-14"},"SP95":{"p":1.499,"d":"2026-07-14"},"SP98":{"p":1.719,"d":"2026-07-14"}},"brand":"Anroroil"},{"id":100010919,"lat":37.678111,"lng":-2.090333,"addr":"CARRETERA C-321, PJE.CAÑADA DE NAVARRO KM 000000 KM. 162","city":"VELEZ-BLANCO","cp":"04830","fuels":{"Gazole":{"p":1.529,"d":"2026-07-14"}},"brand":"Anroroil"},{"id":100006705,"lat":37.859639,"lng":-2.22675,"addr":"CARRETERA VELEZ BLANCO KM. 26","city":"TOPARES","cp":"04839","fuels":{"Gazole":{"p":1.429,"d":"2026-07-14"},"SP95":{"p":1.419,"d":"2026-07-14"}},"brand":"Topfuel"},{"id":100012484,"lat":37.644861,"lng":-2.10075,"addr":"POLIGONO LA FORJA, 79/80","city":"VELEZ-RUBIO","cp":"04820","fuels":{"Gazole":{"p":1.79,"d":"2026-07-14"},"SP95":{"p":1.59,"d":"2026-07-14"}},"brand":"Inv"},{"id":100006873,"lat":37.64675,"lng":-2.070389,"addr":"AV ANDALUCIA 41","city":"VELEZ-RUBIO","cp":"04820","fuels":{"Gazole":{"p":1.558,"d":"2026-07-14"},"SP95":{"p":1.506,"d":"2026-07-14"},"SP98":{"p":1.608,"d":"2026-07-14"}},"brand":"Estacion De Servicio Velez Rubio","h24":true},{"id":100016040,"lat":37.645306,"lng":-2.069528,"addr":"AVENIDA DE ANDALUCIA, 2","city":"VELEZ-RUBIO","cp":"04820","fuels":{"Gazole":{"p":1.529,"d":"2026-07-14"},"SP95":{"p":1.498,"d":"2026-07-14"}},"brand":"Las Pepas","h24":true},{"id":100006521,"lat":37.234583,"lng":-1.850611,"addr":"CARRETERA 337 KM 1,8 KM. 1,8","city":"VERA","cp":"04620","fuels":{"Gazole":{"p":1.599,"d":"2026-07-14"},"SP95":{"p":1.559,"d":"2026-07-14"},"SP98":{"p":1.719,"d":"2026-07-14"},"GPLc":{"p":1.099,"d":"2026-07-14"}},"brand":"Estacion Servicio Bp Vera","h24":true},{"id":100006857,"lat":37.249083,"lng":-1.872667,"addr":"CL ANCHA, S.N.","city":"VERA","cp":"04620","fuels":{"Gazole":{"p":1.645,"d":"2026-07-14"},"SP95":{"p":1.595,"d":"2026-07-14"},"SP98":{"p":1.765,"d":"2026-07-14"}},"brand":"Repsol"},{"id":100013407,"lat":37.237806,"lng":-1.854528,"addr":"CARRETERA C-3327 KM. 1","city":"VERA","cp":"04620","fuels":{"Gazole":{"p":1.599,"d":"2026-07-14"},"SP95":{"p":1.539,"d":"2026-07-14"}},"brand":"Vulco","h24":true},{"id":100005713,"lat":37.220833,"lng":-1.836806,"addr":"CR AL-3327, 3,8","city":"VERA","cp":"04620","fuels":{"Gazole":{"p":1.659,"d":"2026-07-14"},"SP95":{"p":1.605,"d":"2026-07-14"},"SP98":{"p":1.775,"d":"2026-07-14"},"GPLc":{"p":1.099,"d":"2026-07-14"}},"brand":"Repsol"},{"id":100014338,"lat":37.252778,"lng":-1.881333,"addr":"CARRETERA CRTA. NAC 340A KM. 533","city":"VERA","cp":"04620","fuels":{"Gazole":{"p":1.569,"d":"2026-07-14"},"SP95":{"p":1.509,"d":"2026-07-14"},"SP98":{"p":1.825,"d":"2026-07-14"}},"brand":"Baraza+","h24":true},{"id":100014240,"lat":37.251333,"lng":-1.871778,"addr":"CALLE CARRETERA DE CUEVAS, 1","city":"VERA","cp":"04620","fuels":{"Gazole":{"p":1.589,"d":"2026-07-14"},"SP95":{"p":1.529,"d":"2026-07-14"}},"brand":"Plenergy","h24":true},{"id":100011928,"lat":37.239444,"lng":-1.868778,"addr":"CARRETERA DE RONDA KM. 97","city":"VERA","cp":"04620","fuels":{"Gazole":{"p":1.599,"d":"2026-07-14"},"SP95":{"p":1.539,"d":"2026-07-14"}},"brand":"Veradiesel"},{"id":100011278,"lat":36.876639,"lng":-2.409389,"addr":"PARAJE PISAICA DE LA VIRGEN S/N","city":"VIATOR","cp":"04240","fuels":{"Gazole":{"p":1.43,"d":"2026-07-14"},"SP95":{"p":1.4,"d":"2026-07-14"},"GPLc":{"p":0.85,"d":"2026-07-14"}},"brand":"S.A.T. Pisaica De La Virgen"},{"id":100005799,"lat":36.878167,"lng":-2.423139,"addr":"CARRETERA VIATOR - EL ALQUIAN KM. 8,5","city":"VIATOR","cp":"04240","fuels":{"Gazole":{"p":1.669,"d":"2026-07-14"},"SP95":{"p":1.639,"d":"2026-07-14"},"SP98":{"p":1.779,"d":"2026-07-14"}},"brand":"BP"},{"id":100008276,"lat":36.884611,"lng":-2.419472,"addr":"CALLE SIERRA DE CAZORLA, 23 (P.I. LA JUAIDA), 23","city":"VIATOR","cp":"04240","fuels":{"Gazole":{"p":1.619,"d":"2026-07-14"},"SP95":{"p":1.599,"d":"2026-07-14"},"SP98":{"p":1.759,"d":"2026-07-14"}},"brand":"Eni"},{"id":100016149,"lat":36.880333,"lng":-2.42325,"addr":"CALLE SIERRA NEVADA, 90","city":"VIATOR","cp":"04240","fuels":{"Gazole":{"p":1.415,"d":"2026-07-14"},"SP95":{"p":1.389,"d":"2026-07-14"},"SP98":{"p":1.459,"d":"2026-07-14"}},"brand":"Gonzalez Cañabate, S.L."},{"id":100015456,"lat":36.879306,"lng":-2.422972,"addr":"CALLE SIERRA   ATALAYA, 6","city":"VIATOR","cp":"04240","fuels":{"Gazole":{"p":1.409,"d":"2026-07-14"},"SP95":{"p":1.389,"d":"2026-07-14"}},"brand":"Energy Carburantes"},{"id":100013591,"lat":36.883306,"lng":-2.420694,"addr":"POLIGONO SIERRA DE CAZORLA, S7N","city":"JUAIDA (LA)","cp":"04230","fuels":{"Gazole":{"p":1.749,"d":"2026-07-14"},"SP95":{"p":1.759,"d":"2026-07-14"}},"brand":"Repsol","h24":true},{"id":100011934,"lat":36.803278,"lng":-2.625167,"addr":"AVENIDA SIERRA DE GADOR, 6","city":"GANGOSA (LA)","cp":"04738","fuels":{"Gazole":{"p":1.439,"d":"2026-07-14"},"SP95":{"p":1.439,"d":"2026-07-14"}},"brand":"Campo Roquetas","h24":true},{"id":100011046,"lat":36.799468,"lng":-2.653568,"addr":"CTRA. NACIONAL 340","city":"VICAR","cp":"04738","fuels":{"Gazole":{"p":1.475,"d":"2026-07-14"},"SP95":{"p":1.465,"d":"2026-07-14"},"SP98":{"p":1.585,"d":"2026-07-14"}},"brand":"Consumomar","h24":true},{"id":100014715,"lat":36.804333,"lng":-2.623361,"addr":"AVENIDA BULEVAR CIUDAD DE VÍCAR, 715","city":"VICAR","cp":"04738","fuels":{"Gazole":{"p":1.475,"d":"2026-07-14"},"SP95":{"p":1.475,"d":"2026-07-14"}},"brand":"Plenergy","h24":true},{"id":100005614,"lat":36.807389,"lng":-2.609389,"addr":"BULEVAR BULEVAR CIUDAD DE VICAR, 300","city":"VICAR","cp":"04738","fuels":{"Gazole":{"p":1.655,"d":"2026-07-14"},"SP95":{"p":1.604,"d":"2026-07-14"},"SP98":{"p":1.745,"d":"2026-07-14"}},"brand":"Bp Vicar"},{"id":100011515,"lat":36.831444,"lng":-2.642722,"addr":"CARRETERA ROQUETAS KM. 9","city":"VICAR","cp":"04738","fuels":{"Gazole":{"p":1.655,"d":"2026-07-14"},"SP95":{"p":1.605,"d":"2026-07-14"},"SP98":{"p":1.745,"d":"2026-07-14"}},"brand":"Bp Viapark","h24":true},{"id":100006841,"lat":36.804778,"lng":-2.621028,"addr":"BULEVAR CIUDAD DE VICAR, 659","city":"VICAR","cp":"04738","fuels":{"Gazole":{"p":1.659,"d":"2026-07-14"},"SP95":{"p":1.609,"d":"2026-07-14"},"SP98":{"p":1.779,"d":"2026-07-14"}},"brand":"Repsol"},{"id":100012670,"lat":36.782806,"lng":-2.675944,"addr":"PARAJE EL VIZCONDE CARRETERA IRYDA SECTOR IV, S/N","city":"VICAR","cp":"04738","fuels":{"Gazole":{"p":1.48,"d":"2026-07-14"},"SP95":{"p":1.47,"d":"2026-07-14"}},"brand":"E.S.Vicasol"},{"id":100006428,"lat":36.737694,"lng":-2.661,"addr":"CARRETERA MOJONERA AL SOLANILLO KM. S/N","city":"VICAR","cp":"04738","fuels":{"Gazole":{"p":1.549,"d":"2026-07-14"},"SP95":{"p":1.549,"d":"2026-07-14"},"SP98":{"p":1.649,"d":"2026-07-14"}},"brand":"Agla","h24":true},{"id":100014814,"lat":36.831444,"lng":-2.641889,"addr":"DISEMINADO CARRETERA ZAMORA 2702, 2702","city":"VICAR","cp":"04738","fuels":{"Gazole":{"p":1.393,"d":"2026-07-14"}},"brand":"E.S. Coop Santa Maria-Vicar-Murgiverde"},{"id":100014462,"lat":37.361889,"lng":-2.044917,"addr":"AVENIDA ANDALUCIA, S/N","city":"ALFOQUIA (LA)","cp":"04661","fuels":{"Gazole":{"p":1.489,"d":"2026-07-14"},"SP95":{"p":1.399,"d":"2026-07-14"}},"brand":"Oil Barol Sl"}]