[{"id":100014209,"lat":42.842917,"lng":-2.519194,"addr":"CALLE GASTEIZBIDEA, 59","city":"ALEGRIA-DULANTZI","cp":"01240","fuels":{"Gazole":{"p":1.689,"d":"2026-07-14"},"SP95":{"p":1.649,"d":"2026-07-14"}},"brand":"Es Dulantzi Repsol"},{"id":100015918,"lat":43.044944,"lng":-3.000889,"addr":"CALLE MASKURIBAI KALEA, 14","city":"AMURRIO","cp":"01470","fuels":{"Gazole":{"p":1.513,"d":"2026-07-14"},"SP95":{"p":1.499,"d":"2026-07-14"}},"brand":"Ballenoil","h24":true},{"id":100013543,"lat":43.044333,"lng":-2.989111,"addr":"POLIGONO ZANKUETA, 0","city":"LARRINBE","cp":"01468","fuels":{"Gazole":{"p":1.499,"d":"2026-07-14"},"SP95":{"p":1.499,"d":"2026-07-14"},"SP98":{"p":1.599,"d":"2026-07-14"}},"brand":"Estaciones Gb","h24":true},{"id":100000045,"lat":43.031889,"lng":-2.967611,"addr":"CARRETERA A-624 KM. 37,8","city":"LEZAMA","cp":"01450","fuels":{"Gazole":{"p":1.684,"d":"2026-07-14"},"SP95":{"p":1.649,"d":"2026-07-14"},"SP98":{"p":1.793,"d":"2026-07-14"}},"brand":"Moeve"},{"id":100008060,"lat":42.753194,"lng":-2.477917,"addr":"CARRETERA A-132 VITORIA-ESTELLA KM. 23","city":"MAEZTU/MAESTU","cp":"01120","fuels":{"Gazole":{"p":1.54,"d":"2026-07-14"},"SP95":{"p":1.54,"d":"2026-07-14"},"SP98":{"p":1.66,"d":"2026-07-14"}},"brand":"(sin Rótulo)"},{"id":100000043,"lat":42.941417,"lng":-2.639528,"addr":"N-240-B km 11,8","city":"LUKO","cp":"01510","fuels":{"Gazole":{"p":1.719,"d":"2026-07-14"},"SP95":{"p":1.679,"d":"2026-07-14"},"SP98":{"p":1.909,"d":"2026-07-14"}},"brand":"Cepsa"},{"id":100000016,"lat":42.876861,"lng":-2.616361,"addr":"AUTOVIA N-1 km 358","city":"ZURBANO","cp":"01520","fuels":{"Gazole":{"p":1.675,"d":"2026-07-14"},"SP95":{"p":1.645,"d":"2026-07-14"},"SP98":{"p":1.815,"d":"2026-07-14"}},"brand":"Repsol"},{"id":100000005,"lat":43.123361,"lng":-3.122528,"addr":"AVENIDA GARAY, 23","city":"ARTZINIEGA","cp":"01474","fuels":{"Gazole":{"p":1.685,"d":"2026-07-14"},"SP95":{"p":1.635,"d":"2026-07-14"},"SP98":{"p":1.815,"d":"2026-07-14"}},"brand":"Avia"},{"id":100012441,"lat":42.870861,"lng":-2.312056,"addr":"CALLE DEIDA, 6","city":"ARAIA","cp":"01250","fuels":{"Gazole":{"p":1.669,"d":"2026-07-14"}},"brand":"Ads","h24":true},{"id":100000114,"lat":42.670222,"lng":-2.357278,"addr":"CARRETERA CTRA.VITORIA-ESTELLA KM. 38","city":"SANTA CRUZ CAMPEZO","cp":"01110","fuels":{"Gazole":{"p":1.6,"d":"2026-07-14"},"SP95":{"p":1.62,"d":"2026-07-14"}},"brand":"Petronor"},{"id":100000100,"lat":42.878556,"lng":-2.518167,"addr":"CARRETERA N-1 KM. 364,4","city":"ELBURGO/BURGELU","cp":"01192","fuels":{"Gazole":{"p":1.675,"d":"2026-07-14"},"SP95":{"p":1.645,"d":"2026-07-14"},"GPLc":{"p":1.069,"d":"2026-07-14"}},"brand":"Repsol"},{"id":100011732,"lat":42.823778,"lng":-2.77225,"addr":"CALLE TRATADO DE PARIS, 6","city":"NANCLARES DE LA OCA","cp":"01230","fuels":{"Gazole":{"p":1.399,"d":"2026-07-14"},"SP95":{"p":1.45,"d":"2026-07-14"},"GPLc":{"p":1.099,"d":"2026-07-14"}},"brand":"Eurocam","h24":true},{"id":100013757,"lat":42.82525,"lng":-2.77475,"addr":"CALLE TRATADO DE MAASTRICH, 1","city":"NANCLARES DE LA OCA","cp":"01230","fuels":{"Gazole":{"p":1.389,"d":"2026-07-14"}},"brand":"Gerantisan"},{"id":100000051,"lat":42.635194,"lng":-2.849833,"addr":"CARRETERA N-124 KM. 35","city":"SALINILLAS DE BURADON","cp":"01212","fuels":{"Gazole":{"p":1.659,"d":"2026-07-14"},"SP95":{"p":1.635,"d":"2026-07-14"},"SP98":{"p":1.805,"d":"2026-07-14"}},"brand":"Repsol"},{"id":100000083,"lat":42.547639,"lng":-2.578806,"addr":"CARRETERA A-124 KM. 65","city":"LAGUARDIA","cp":"01300","fuels":{"Gazole":{"p":1.659,"d":"2026-07-14"},"SP95":{"p":1.639,"d":"2026-07-14"}},"brand":"Repsol"},{"id":100000024,"lat":42.755583,"lng":-3.04575,"addr":"CARRETERA A-2122 KM. 11","city":"PUENTELARRÁ/LARRAZUBI","cp":"01423","fuels":{"Gazole":{"p":1.539,"d":"2026-07-14"},"SP95":{"p":1.54,"d":"2026-07-14"}},"brand":"Avia"},{"id":100000032,"lat":43.138,"lng":-2.968,"addr":"AVENIDA ZUMALACARREGUI (C.C. EROSKI), S/N","city":"LAUDIO/LLODIO","cp":"01400","fuels":{"Gazole":{"p":1.449,"d":"2026-07-14"},"SP95":{"p":1.479,"d":"2026-07-14"}},"brand":"Eroski"},{"id":100000088,"lat":43.148639,"lng":-2.951361,"addr":"CL ARETA, 2","city":"LAUDIO/LLODIO","cp":"01400","fuels":{"Gazole":{"p":1.669,"d":"2026-07-14"},"SP95":{"p":1.635,"d":"2026-07-14"},"SP98":{"p":1.765,"d":"2026-07-14"}},"brand":"Petronor"},{"id":100012419,"lat":42.490611,"lng":-2.432278,"addr":"CARRETERA LOGROÑO KM. 10","city":"OYON-OION","cp":"01320","fuels":{"Gazole":{"p":1.476,"d":"2026-07-14"},"SP95":{"p":1.478,"d":"2026-07-14"}},"brand":"Gugas","h24":true},{"id":100000148,"lat":42.81125,"lng":-2.901944,"addr":"ACCESO A2622, 0","city":"POBES","cp":"01420","fuels":{"Gazole":{"p":1.719,"d":"2026-07-14"},"SP95":{"p":1.689,"d":"2026-07-14"}},"brand":"E.S. Tocalu"},{"id":100000106,"lat":42.743111,"lng":-2.913306,"addr":"AU AP-68, 63  D","city":"IGAY","cp":"01213","fuels":{"Gazole":{"p":1.655,"d":"2026-07-14"},"SP95":{"p":1.649,"d":"2026-07-14"},"SP98":{"p":1.769,"d":"2026-07-14"}},"brand":"Petronor","h24":true},{"id":100000107,"lat":42.741361,"lng":-2.913222,"addr":"AU AP-68, 63,5","city":"IGAY","cp":"01213","fuels":{"Gazole":{"p":1.665,"d":"2026-07-14"},"SP95":{"p":1.649,"d":"2026-07-14"},"SP98":{"p":1.769,"d":"2026-07-14"}},"brand":"Petronor","h24":true},{"id":100008374,"lat":42.710639,"lng":-2.906944,"addr":"CARRETERA N-I KM. 323","city":"RIBABELLOSA","cp":"01213","fuels":{"Gazole":{"p":1.674,"d":"2026-07-14"},"SP95":{"p":1.669,"d":"2026-07-14"},"GPLc":{"p":1.029,"d":"2026-07-14"}},"brand":"Shell","h24":true},{"id":100000033,"lat":42.704639,"lng":-2.917639,"addr":"POLIGONO SUI 1, (C.C. EROSKI), 1","city":"RIBABELLOSA","cp":"01213","fuels":{"Gazole":{"p":1.52,"d":"2026-07-14"},"SP95":{"p":1.54,"d":"2026-07-14"}},"brand":"Eroski"},{"id":100011651,"lat":42.692917,"lng":-2.920667,"addr":"AVENIDA ALAVA, 12","city":"RIBABELLOSA","cp":"01213","fuels":{"Gazole":{"p":1.639,"d":"2026-07-14"},"SP95":{"p":1.655,"d":"2026-07-14"},"SP98":{"p":1.779,"d":"2026-07-14"}},"brand":"Eess Dyneff","h24":true},{"id":100000066,"lat":42.848944,"lng":-2.394583,"addr":"CARRETERA ANTIGUA NACIONAL I KM. 375","city":"SALVATIERRA O AGURAIN","cp":"01200","fuels":{"Gazole":{"p":1.494,"d":"2026-07-14"},"SP95":{"p":1.524,"d":"2026-07-14"}},"brand":"Galp"},{"id":100014323,"lat":42.849361,"lng":-2.402028,"addr":"CALLE ARIKRUZ, 6","city":"SALVATIERRA O AGURAIN","cp":"01200","fuels":{"Gazole":{"p":1.629,"d":"2026-07-14"}},"brand":"Onroad24","h24":true},{"id":100012644,"lat":42.863583,"lng":-2.324083,"addr":"CALLE POLIGONO OKITURRI, 4","city":"DURRUMA/SAN ROMAN DE SAN","cp":"01207","fuels":{"Gazole":{"p":1.642,"d":"2026-07-14"},"SP95":{"p":1.649,"d":"2026-07-14"}},"brand":"Moeve","h24":true},{"id":100016165,"lat":42.863722,"lng":-2.32275,"addr":"POLIGONO PG OKITURRI PARCELA A2, 38","city":"DURRUMA/SAN ROMAN DE SAN","cp":"01207","fuels":{"Gazole":{"p":1.629,"d":"2026-07-14"}},"brand":"Andamur","h24":true},{"id":100000011,"lat":42.8635,"lng":-2.320361,"addr":"POLIGONO OKITURRI, S/N","city":"DURRUMA/SAN ROMAN DE SAN","cp":"01207","fuels":{"Gazole":{"p":1.629,"d":"2026-07-14"},"SP95":{"p":1.648,"d":"2026-07-14"},"SP98":{"p":1.769,"d":"2026-07-14"}},"brand":"Andamur \"san Roman\"","h24":true},{"id":100012266,"lat":42.871167,"lng":-2.314083,"addr":"CALLE DEIDA, 4","city":"DURRUMA/SAN ROMAN DE SAN","cp":"01207","fuels":{"Gazole":{"p":1.649,"d":"2026-07-14"}},"brand":"Valcarce","h24":true},{"id":100000142,"lat":42.849778,"lng":-2.648306,"addr":"CL PORTAL DE ELORRIAGA,17","city":"VITORIA-GASTEIZ","cp":"01002","fuels":{"Gazole":{"p":1.689,"d":"2026-07-14"},"SP95":{"p":1.649,"d":"2026-07-14"},"SP98":{"p":1.769,"d":"2026-07-14"},"GPLc":{"p":1.085,"d":"2026-07-14"}},"brand":"Repsol"},{"id":100015588,"lat":42.836472,"lng":-2.701028,"addr":"CALLE ALTO DE ARMENTIA, 23","city":"VITORIA-GASTEIZ","cp":"01007","fuels":{"Gazole":{"p":1.499,"d":"2026-07-14"},"SP95":{"p":1.519,"d":"2026-07-14"}},"brand":"Ballenoil","h24":true},{"id":100000026,"lat":42.836778,"lng":-2.698917,"addr":"CALLE ALTO DE ARMENTIA, 2","city":"VITORIA-GASTEIZ","cp":"01007","fuels":{"Gazole":{"p":1.669,"d":"2026-07-14"},"SP95":{"p":1.689,"d":"2026-07-14"},"SP98":{"p":1.869,"d":"2026-07-14"}},"brand":"Repsol"},{"id":100013064,"lat":42.837111,"lng":-2.700972,"addr":"CALLE ALTO DE ARMENTIA, 10","city":"VITORIA-GASTEIZ","cp":"01007","fuels":{"SP95":{"p":1.529,"d":"2026-07-14"}},"brand":"Armentia","h24":true},{"id":100000133,"lat":42.842833,"lng":-2.682278,"addr":"CALLE PORTAL DE CASTILLA, 32","city":"VITORIA-GASTEIZ","cp":"01008","fuels":{"Gazole":{"p":1.695,"d":"2026-07-14"},"SP95":{"p":1.649,"d":"2026-07-14"},"SP98":{"p":1.769,"d":"2026-07-14"}},"brand":"Repsol"},{"id":100012416,"lat":42.863778,"lng":-2.712722,"addr":"CALLE URARTEA, 23","city":"VITORIA-GASTEIZ","cp":"01010","fuels":{"Gazole":{"p":1.685,"d":"2026-07-14"},"SP95":{"p":1.649,"d":"2026-07-14"},"SP98":{"p":1.769,"d":"2026-07-14"},"GPLc":{"p":1.05,"d":"2026-07-14"}},"brand":"Avia"},{"id":100011010,"lat":42.852417,"lng":-2.709972,"addr":"CALLE DUSSELDORF, 1","city":"VITORIA-GASTEIZ","cp":"01010","fuels":{"Gazole":{"p":1.704,"d":"2026-07-14"},"SP95":{"p":1.669,"d":"2026-07-14"},"SP98":{"p":1.672,"d":"2026-07-14"},"GPLc":{"p":1.111,"d":"2026-07-14"}},"brand":"Moeve"},{"id":100000022,"lat":42.864944,"lng":-2.7105,"addr":"CALLE ALIBARRA, 34","city":"VITORIA-GASTEIZ","cp":"01010","fuels":{"Gazole":{"p":1.448,"d":"2026-07-14"},"SP95":{"p":1.459,"d":"2026-07-14"}},"brand":"Alibarra Low-Cost","h24":true},{"id":100012105,"lat":42.857194,"lng":-2.716389,"addr":"AVENIDA AVDA. DE LOS HUETOS, 56","city":"VITORIA-GASTEIZ","cp":"01010","fuels":{"Gazole":{"p":1.409,"d":"2026-07-14"},"SP95":{"p":1.457,"d":"2026-07-14"},"SP98":{"p":1.569,"d":"2026-07-14"}},"brand":"Ona Lowcost"},{"id":100008125,"lat":42.849028,"lng":-2.693722,"addr":"AVENIDA MEDITERRANEO, 7","city":"VITORIA-GASTEIZ","cp":"01010","fuels":{"Gazole":{"p":1.649,"d":"2026-07-14"},"SP95":{"p":1.629,"d":"2026-07-14"}},"brand":"Cepsa"},{"id":100012997,"lat":42.854694,"lng":-2.708611,"addr":"CALLE BREMEN, 6","city":"VITORIA-GASTEIZ","cp":"01010","fuels":{"Gazole":{"p":1.439,"d":"2026-07-14"},"SP95":{"p":1.479,"d":"2026-07-14"}},"brand":"Eroski","h24":true},{"id":100014478,"lat":42.857667,"lng":-2.717833,"addr":"AVENIDA DE LOS HUETOS, 64","city":"VITORIA-GASTEIZ","cp":"01010","fuels":{"Gazole":{"p":1.409,"d":"2026-07-14"},"SP95":{"p":1.449,"d":"2026-07-14"},"SP98":{"p":1.569,"d":"2026-07-14"}},"brand":"Gm Oil","h24":true},{"id":100000056,"lat":42.836833,"lng":-2.658222,"addr":"CALLE VENTA DE LA ESTRELLA, 3","city":"VITORIA-GASTEIZ","cp":"01006","fuels":{"Gazole":{"p":1.649,"d":"2026-07-14"},"SP95":{"p":1.629,"d":"2026-07-14"},"SP98":{"p":1.817,"d":"2026-07-14"}},"brand":"Cepsa"},{"id":100014280,"lat":42.836667,"lng":-2.66,"addr":"CALLE JOSE MARIA IPARRAGUIRRE, 19","city":"VITORIA-GASTEIZ","cp":"01006","fuels":{"Gazole":{"p":1.629,"d":"2026-07-14"},"SP95":{"p":1.689,"d":"2026-07-14"},"SP98":{"p":1.839,"d":"2026-07-14"},"GPLc":{"p":1.109,"d":"2026-07-14"}},"brand":"Repsol"},{"id":100015771,"lat":42.833611,"lng":-2.666889,"addr":"CALLE CAMPO DE LOS PALACIOS, 12","city":"VITORIA-GASTEIZ","cp":"01006","fuels":{"Gazole":{"p":1.499,"d":"2026-07-14"},"SP95":{"p":1.519,"d":"2026-07-14"}},"brand":"Ballenoil","h24":true},{"id":100000047,"lat":42.838722,"lng":-2.6645,"addr":"CL TRIANAS, 17","city":"VITORIA-GASTEIZ","cp":"01006","fuels":{"Gazole":{"p":1.679,"d":"2026-07-14"},"SP95":{"p":1.655,"d":"2026-07-14"},"SP98":{"p":1.795,"d":"2026-07-14"}},"brand":"Repsol"},{"id":100014685,"lat":42.837083,"lng":-2.657611,"addr":"CALLE VENTA DE LA ESTRELLA, 5","city":"VITORIA-GASTEIZ","cp":"01006","fuels":{"Gazole":{"p":1.494,"d":"2026-07-14"},"SP95":{"p":1.494,"d":"2026-07-14"}},"brand":"Euskadilowcost","h24":true},{"id":100007983,"lat":42.855,"lng":-2.672944,"addr":"CALLE REYES CATOLICOS, 2","city":"VITORIA-GASTEIZ","cp":"01013","fuels":{"Gazole":{"p":1.704,"d":"2026-07-14"},"SP95":{"p":1.669,"d":"2026-07-14"},"SP98":{"p":1.826,"d":"2026-07-14"}},"brand":"Cepsa"},{"id":100010163,"lat":42.864694,"lng":-2.653139,"addr":"CALLE PORTAL DE BERGARA, 2","city":"VITORIA-GASTEIZ","cp":"01013","fuels":{"Gazole":{"p":1.669,"d":"2026-07-14"},"SP95":{"p":1.639,"d":"2026-07-14"},"SP98":{"p":1.779,"d":"2026-07-14"}},"brand":"Shell"},{"id":100014335,"lat":42.872556,"lng":-2.658583,"addr":"CALLE PORTAL DE GAMARRA, 35","city":"VITORIA-GASTEIZ","cp":"01013","fuels":{"Gazole":{"p":1.409,"d":"2026-07-14"},"SP95":{"p":1.449,"d":"2026-07-14"}},"brand":"Petroprix","h24":true},{"id":100015568,"lat":42.871806,"lng":-2.675944,"addr":"CALLE AGIRRELANDA, 12","city":"VITORIA-GASTEIZ","cp":"01013","fuels":{"Gazole":{"p":1.409,"d":"2026-07-14"},"SP95":{"p":1.449,"d":"2026-07-14"},"SP98":{"p":1.549,"d":"2026-07-14"}},"brand":"Ona Lowcost","h24":true},{"id":100000141,"lat":42.864667,"lng":-2.660222,"addr":"AV AVENIDA DEL CANTABRICO,8 -(PG PO","city":"VITORIA-GASTEIZ","cp":"01013","fuels":{"Gazole":{"p":1.689,"d":"2026-07-14"},"SP95":{"p":1.659,"d":"2026-07-14"},"SP98":{"p":1.779,"d":"2026-07-14"}},"brand":"Repsol"},{"id":100000034,"lat":42.860306,"lng":-2.664278,"addr":"CALLE ZARAMAGA, 1","city":"VITORIA-GASTEIZ","cp":"01013","fuels":{"Gazole":{"p":1.429,"d":"2026-07-14"},"SP95":{"p":1.469,"d":"2026-07-14"}},"brand":"Eroski","h24":true},{"id":100011531,"lat":42.856194,"lng":-2.656861,"addr":"CALLE DEBA, 1","city":"VITORIA-GASTEIZ","cp":"01013","fuels":{"Gazole":{"p":1.629,"d":"2026-07-14"},"SP95":{"p":1.619,"d":"2026-07-14"},"SP98":{"p":1.759,"d":"2026-07-14"}},"brand":"Bp  Salburua","h24":true},{"id":100009927,"lat":42.865278,"lng":-2.661139,"addr":"CALLE PORTAL DE GAMARRA, 7","city":"VITORIA-GASTEIZ","cp":"01013","fuels":{"Gazole":{"p":1.409,"d":"2026-07-14"},"SP95":{"p":1.457,"d":"2026-07-14"},"SP98":{"p":1.569,"d":"2026-07-14"}},"brand":"Onaindia Lowcost","h24":true},{"id":100012104,"lat":42.868611,"lng":-2.678833,"addr":"CALLE PORTAL DE ARRIAGA, 66","city":"VITORIA-GASTEIZ","cp":"01013","fuels":{"Gazole":{"p":1.648,"d":"2026-07-14"},"SP95":{"p":1.627,"d":"2026-07-14"},"SP98":{"p":1.797,"d":"2026-07-14"}},"brand":"Onaindia"},{"id":100014739,"lat":42.872639,"lng":-2.658528,"addr":"CALLE PORTAL DE GAMARRA, 37","city":"VITORIA-GASTEIZ","cp":"01013","fuels":{"Gazole":{"p":1.409,"d":"2026-07-14"},"SP95":{"p":1.449,"d":"2026-07-14"},"SP98":{"p":1.549,"d":"2026-07-14"}},"brand":"Gamarra Low Cost","h24":true},{"id":100000059,"lat":42.859278,"lng":-2.661694,"addr":"CALLE BETOÑO, 1","city":"VITORIA-GASTEIZ","cp":"01013","fuels":{"Gazole":{"p":1.679,"d":"2026-07-14"},"SP95":{"p":1.655,"d":"2026-07-14"},"SP98":{"p":1.825,"d":"2026-07-14"}},"brand":"Petronor"},{"id":100000136,"lat":42.857472,"lng":-2.721583,"addr":"CL AVENIDA HUETOS, 81","city":"VITORIA-GASTEIZ","cp":"01195","fuels":{"Gazole":{"p":1.679,"d":"2026-07-14"},"SP95":{"p":1.665,"d":"2026-07-14"},"SP98":{"p":1.785,"d":"2026-07-14"}},"brand":"Petronor"},{"id":100015938,"lat":42.845722,"lng":-2.75375,"addr":"CALLE MASPARRA, 26","city":"VITORIA-GASTEIZ","cp":"01195","fuels":{"Gazole":{"p":1.44,"d":"2026-07-14"},"SP95":{"p":1.45,"d":"2026-07-14"}},"brand":"Norpetrol","h24":true},{"id":100015906,"lat":42.847528,"lng":-2.752139,"addr":"CALLE ZEARSOLOETA, 1","city":"VITORIA-GASTEIZ","cp":"01195","fuels":{"Gazole":{"p":1.429,"d":"2026-07-14"},"SP95":{"p":1.499,"d":"2026-07-14"}},"brand":"Beroil Gasteiz"},{"id":100015120,"lat":42.872389,"lng":-2.670833,"addr":"AVENIDA DEL ZADORRA, 144","city":"ABERASTURI","cp":"01193","fuels":{"Gazole":{"p":1.444,"d":"2026-07-14"},"SP95":{"p":1.484,"d":"2026-07-14"}},"brand":"Low Cost Euskadi Sl","h24":true},{"id":100000042,"lat":42.818944,"lng":-2.778694,"addr":"CARRETERA NACIONAL 1 KM. 341,8","city":"SUBIJANA DE ALAVA","cp":"01195","fuels":{"Gazole":{"p":1.719,"d":"2026-07-14"},"SP95":{"p":1.689,"d":"2026-07-14"}},"brand":"Cepsa"},{"id":100011090,"lat":42.845639,"lng":-2.741917,"addr":"POLIGONO P.I. JUNDIZ - C/ LERMANDABIDE, 8","city":"VITORIA-GASTEIZ","cp":"01015","fuels":{"Gazole":{"p":1.476,"d":"2026-07-14"},"SP95":{"p":1.478,"d":"2026-07-14"}},"brand":"Gugas","h24":true},{"id":100009121,"lat":42.843111,"lng":-2.747639,"addr":"CALLE MENDIGORRITXU, 50","city":"VITORIA-GASTEIZ","cp":"01015","fuels":{"Gazole":{"p":1.484,"d":"2026-07-14"},"SP95":{"p":1.434,"d":"2026-07-14"}},"brand":"N1jundiz","h24":true},{"id":100000041,"lat":42.829528,"lng":-2.722278,"addr":"VIAL CTRA. N102 KM347, N102","city":"ZUAZO DE VITORIA/ZUHATZU","cp":"01195","fuels":{"Gazole":{"p":1.519,"d":"2026-07-14"},"SP95":{"p":1.519,"d":"2026-07-14"}},"brand":"Ibaia Energy","h24":true},{"id":100000003,"lat":42.895667,"lng":-2.702278,"addr":"AUTOVIA VITORIA-ATUBE KM. 6","city":"ARANGUIZ","cp":"01196","fuels":{"Gazole":{"p":1.675,"d":"2026-07-14"},"SP95":{"p":1.669,"d":"2026-07-14"},"SP98":{"p":1.789,"d":"2026-07-14"}},"brand":"Repsol"},{"id":100000049,"lat":42.878694,"lng":-2.714472,"addr":"CR N-1, 350,5","city":"LOPIDANA","cp":"01196","fuels":{"Gazole":{"p":1.675,"d":"2026-07-14"},"SP95":{"p":1.669,"d":"2026-07-14"},"SP98":{"p":1.789,"d":"2026-07-14"},"GPLc":{"p":1.085,"d":"2026-07-14"}},"brand":"Repsol","h24":true},{"id":100000048,"lat":42.877139,"lng":-2.712472,"addr":"CR N-1, 350,5","city":"LOPIDANA","cp":"01196","fuels":{"Gazole":{"p":1.685,"d":"2026-07-14"},"SP95":{"p":1.669,"d":"2026-07-14"},"SP98":{"p":1.789,"d":"2026-07-14"}},"brand":"Repsol","h24":true},{"id":100000104,"lat":42.966111,"lng":-2.870083,"addr":"AU AP-68, 36","city":"ALTUBE","cp":"01139","fuels":{"Gazole":{"p":1.665,"d":"2026-07-14"},"SP95":{"p":1.659,"d":"2026-07-14"},"SP98":{"p":1.769,"d":"2026-07-14"},"GPLc":{"p":1.075,"d":"2026-07-14"}},"brand":"Petronor"},{"id":100000105,"lat":42.966472,"lng":-2.873583,"addr":"AU AP-68, 36","city":"ALTUBE","cp":"01139","fuels":{"Gazole":{"p":1.655,"d":"2026-07-14"},"SP95":{"p":1.649,"d":"2026-07-14"},"SP98":{"p":1.769,"d":"2026-07-14"}},"brand":"Repsol"},{"id":100000120,"lat":42.961583,"lng":-2.827722,"addr":"N-622 km 20,3","city":"MURGIA","cp":"01130","fuels":{"Gazole":{"p":1.719,"d":"2026-07-14"},"SP95":{"p":1.689,"d":"2026-07-14"},"E10":{"p":1.739,"d":"2026-07-14"},"SP98":{"p":1.859,"d":"2026-07-14"}},"brand":"Cepsa"}]