[{"id":100013718,"lat":40.357667,"lng":0.019528,"addr":"CARRER SANT JOAN, 132","city":"ALBOCASSER","cp":"12140","fuels":{"Gazole":{"p":1.609,"d":"2026-07-14"},"SP95":{"p":1.529,"d":"2026-07-14"}},"brand":"Coopnostra","h24":true},{"id":100003674,"lat":40.342611,"lng":-0.006333,"addr":"CR CS-800, 32,3","city":"ALBOCASSER","cp":"12140","fuels":{"Gazole":{"p":1.599,"d":"2026-07-14"},"SP95":{"p":1.619,"d":"2026-07-14"}},"brand":"Repsol"},{"id":100009027,"lat":40.309361,"lng":0.229361,"addr":"C/ BARON DE ALCAHALI, S/N","city":"ALCALA DE XIVERT","cp":"12570","fuels":{"Gazole":{"p":1.659,"d":"2026-07-14"},"SP95":{"p":1.595,"d":"2026-07-14"}},"brand":"Coop. San Isidro De Alcala","h24":true},{"id":100003648,"lat":40.296944,"lng":0.226333,"addr":"CARRETERA NACIONAL 340 KM. 1021","city":"ALCALA DE XIVERT","cp":"12570","fuels":{"Gazole":{"p":1.665,"d":"2026-07-14"},"SP95":{"p":1.599,"d":"2026-07-14"}},"brand":"Repsol","h24":true},{"id":100008967,"lat":40.256333,"lng":0.2445,"addr":"CARRETERA CV-142 KM. 1,5","city":"ALCOSSEBRE","cp":"12570","fuels":{"Gazole":{"p":1.601,"d":"2026-07-14"},"SP95":{"p":1.539,"d":"2026-07-14"}},"brand":"Castell Xivert"},{"id":100003618,"lat":40.07075,"lng":-0.204972,"addr":"CARRETERA DE CASTELLON,   60  (C-232) KM. 23,7","city":"ALCORA","cp":"12110","fuels":{"Gazole":{"p":1.639,"d":"2026-07-14"},"SP95":{"p":1.615,"d":"2026-07-14"},"SP98":{"p":1.755,"d":"2026-07-14"}},"brand":"Repsol"},{"id":100012561,"lat":40.046944,"lng":-0.166333,"addr":"CARRETERA CV16 PARCELA 142B KM. 10,5","city":"ALCORA","cp":"12110","fuels":{"Gazole":{"p":1.569,"d":"2026-07-14"},"SP95":{"p":1.579,"d":"2026-07-14"}},"brand":"L'Area","h24":true},{"id":100012912,"lat":40.069556,"lng":-0.198639,"addr":"CARRETERA CV-190 KM. 1","city":"ALCORA","cp":"12100","fuels":{"Gazole":{"p":1.497,"d":"2026-07-14"},"SP95":{"p":1.497,"d":"2026-07-14"}},"brand":"Gial","h24":true},{"id":100012198,"lat":40.070083,"lng":-0.183278,"addr":"CARRETERA CV 190A KM. 3,5","city":"ALCORA","cp":"12100","fuels":{"Gazole":{"p":1.569,"d":"2026-07-14"},"SP95":{"p":1.579,"d":"2026-07-14"},"SP98":{"p":1.739,"d":"2026-07-14"}},"brand":"L'Area"},{"id":100003537,"lat":39.94275,"lng":-0.0585,"addr":"CALLE MANUEL VIVANCO, 10","city":"ALMAZORA","cp":"12550","fuels":{"Gazole":{"p":1.609,"d":"2026-07-14"},"SP95":{"p":1.529,"d":"2026-07-14"}},"brand":"Galp"},{"id":100001946,"lat":39.955806,"lng":-0.076278,"addr":"CARRETERA CTRA. N-340-A KM. KM 970","city":"ALMAZORA","cp":"12550","fuels":{"Gazole":{"p":1.599,"d":"2026-07-14"},"SP95":{"p":1.539,"d":"2026-07-14"},"SP98":{"p":1.619,"d":"2026-07-14"}},"brand":"Q8","h24":true},{"id":100001886,"lat":39.951472,"lng":-0.05925,"addr":"AVENIDA CASTELLÓN, 65","city":"ALMAZORA","cp":"12550","fuels":{"Gazole":{"p":1.639,"d":"2026-07-14"},"SP95":{"p":1.589,"d":"2026-07-14"},"SP98":{"p":1.729,"d":"2026-07-14"}},"brand":"Bp Almazora Centro"},{"id":100003511,"lat":39.951556,"lng":-0.075222,"addr":"CALLE ALCORA, S/N","city":"ALMAZORA","cp":"12550","fuels":{"Gazole":{"p":1.639,"d":"2026-07-14"},"SP95":{"p":1.589,"d":"2026-07-14"},"SP98":{"p":1.729,"d":"2026-07-14"}},"brand":"Bp Almazorense"},{"id":100012510,"lat":39.973667,"lng":-0.133889,"addr":"CALLE GUERRER IBERIC, 12","city":"ALMAZORA","cp":"12550","fuels":{"Gazole":{"p":1.449,"d":"2026-07-14"},"SP95":{"p":1.409,"d":"2026-07-14"}},"brand":"Bdmed","h24":true},{"id":100016309,"lat":39.952722,"lng":-0.058639,"addr":"AVENIDA CASTELLÓN, 178","city":"ALMAZORA","cp":"12550","fuels":{"Gazole":{"p":1.469,"d":"2026-07-14"},"SP95":{"p":1.439,"d":"2026-07-14"}},"brand":"Plenergy","h24":true},{"id":100011314,"lat":39.973639,"lng":-0.135472,"addr":"POLIGONO PI CAMÍ FONDO , PARCELA M2 VIAL D 6, 1","city":"ALMAZORA","cp":"12550","fuels":{"Gazole":{"p":1.45,"d":"2026-07-14"},"SP95":{"p":1.39,"d":"2026-07-14"}},"brand":"Laytor"},{"id":100003463,"lat":39.758889,"lng":-0.227583,"addr":"CS-V-6011 km 1,2","city":"ALMENARA","cp":"12590","fuels":{"Gazole":{"p":1.509,"d":"2026-07-14"},"SP95":{"p":1.459,"d":"2026-07-14"}},"brand":"E.S. Almenara"},{"id":100013362,"lat":39.740389,"lng":-0.233333,"addr":"AUTOVIA A-7 KM. 293,000","city":"ALMENARA","cp":"12590","fuels":{"Gazole":{"p":1.655,"d":"2026-07-14"},"SP95":{"p":1.625,"d":"2026-07-14"},"SP98":{"p":1.795,"d":"2026-07-14"}},"brand":"Repsol"},{"id":100003666,"lat":39.897861,"lng":-0.120778,"addr":"CARRETERA N-340 KM. 963,7","city":"ALQUERIAS DEL NIÑO PERDIDO","cp":"12539","fuels":{"Gazole":{"p":1.635,"d":"2026-07-14"},"SP95":{"p":1.615,"d":"2026-07-14"}},"brand":"Cepsa"},{"id":100003667,"lat":39.897667,"lng":-0.121306,"addr":"CARRETERA N-340 KM. 963,7","city":"ALQUERIAS DEL NIÑO PERDIDO","cp":"12539","fuels":{"Gazole":{"p":1.635,"d":"2026-07-14"},"SP95":{"p":1.615,"d":"2026-07-14"}},"brand":"Cepsa"},{"id":100015845,"lat":39.897917,"lng":-0.124,"addr":"CALLE ARTANA, S/N","city":"ALQUERIAS DEL NIÑO PERDIDO","cp":"12539","fuels":{"Gazole":{"p":1.629,"d":"2026-07-14"},"SP95":{"p":1.585,"d":"2026-07-14"},"SP98":{"p":1.755,"d":"2026-07-14"}},"brand":"Repsol"},{"id":100015668,"lat":39.897167,"lng":-0.12125,"addr":"CAMI REAL, 61","city":"ALQUERIAS DEL NIÑO PERDIDO","cp":"12539","fuels":{"Gazole":{"p":1.428,"d":"2026-07-14"},"SP95":{"p":1.398,"d":"2026-07-14"}},"brand":"Búho Gas","h24":true},{"id":100016113,"lat":39.900306,"lng":-0.123778,"addr":"CALLE PONENTE, 1","city":"ALQUERIAS DEL NIÑO PERDIDO","cp":"12539","fuels":{"Gazole":{"p":1.527,"d":"2026-07-14"},"SP95":{"p":1.498,"d":"2026-07-14"}},"brand":"Lafuente","h24":true},{"id":100009025,"lat":39.847833,"lng":-0.510639,"addr":"AVDA. VALENCIA, Nº 47","city":"ALTURA","cp":"12410","fuels":{"Gazole":{"p":1.519,"d":"2026-07-14"},"SP95":{"p":1.499,"d":"2026-07-14"}},"brand":"Coop.Sagrado Corazon De Altura","h24":true},{"id":100003519,"lat":39.891083,"lng":-0.251139,"addr":"AVENIDA SIERRA DE ESPADAN, 1","city":"ARTANA","cp":"12527","fuels":{"Gazole":{"p":1.698,"d":"2026-07-14"},"SP95":{"p":1.615,"d":"2026-07-14"}},"brand":"Sin Rotulo"},{"id":100003596,"lat":40.219417,"lng":-0.170611,"addr":"AVENIDA MEANES (DE), 2","city":"ATZENETA DEL MAESTRAT","cp":"12132","fuels":{"Gazole":{"p":1.579,"d":"2026-07-14"},"SP95":{"p":1.539,"d":"2026-07-14"}},"brand":"Cooperativa Atzeneta","h24":true},{"id":100003506,"lat":40.016528,"lng":-0.696306,"addr":"CARRETERA N-234A KM. 62,8","city":"BARRACAS","cp":"12420","fuels":{"Gazole":{"p":1.665,"d":"2026-07-14"},"SP95":{"p":1.665,"d":"2026-07-14"},"SP98":{"p":1.815,"d":"2026-07-14"}},"brand":"Moeve"},{"id":100003497,"lat":39.910833,"lng":-0.7035,"addr":"CARRETERA ESTACION KM. S/N","city":"BEJIS","cp":"12430","fuels":{"Gazole":{"p":1.649,"d":"2026-07-14"},"SP95":{"p":1.619,"d":"2026-07-14"}},"brand":"Grupo Maicas Peiro"},{"id":100009338,"lat":40.379667,"lng":-0.1395,"addr":"CTRA. RAMAL A CULLA km 3,900","city":"BENASAL","cp":"12160","fuels":{"Gazole":{"p":1.599,"d":"2026-07-14"},"SP95":{"p":1.559,"d":"2026-07-14"}},"brand":"Carceller Royo S.L."},{"id":100009848,"lat":40.410417,"lng":0.425917,"addr":"AVDA. PAPA LUNA, 26","city":"BENICARLO","cp":"12580","fuels":{"Gazole":{"p":1.554,"d":"2026-07-14"},"SP95":{"p":1.554,"d":"2026-07-14"},"SP98":{"p":1.704,"d":"2026-07-14"}},"brand":"Ceeoil"},{"id":100003600,"lat":40.4235,"lng":0.427056,"addr":"CARRETERA N-340 KM. 1044,8","city":"BENICARLO","cp":"12580","fuels":{"Gazole":{"p":1.639,"d":"2026-07-14"},"SP95":{"p":1.589,"d":"2026-07-14"},"SP98":{"p":1.749,"d":"2026-07-14"}},"brand":"BP"},{"id":100001962,"lat":40.410222,"lng":0.394667,"addr":"CTRA NACIONAL 340 KM 133 - CENTRO COMERCIAL COSTA AZAHAR,","city":"BENICARLO","cp":"12580","fuels":{"Gazole":{"p":1.399,"d":"2026-07-14"},"SP95":{"p":1.399,"d":"2026-07-14"},"SP98":{"p":1.499,"d":"2026-07-14"}},"brand":"Fm","h24":true},{"id":100009868,"lat":40.435861,"lng":0.399111,"addr":"POL. IND. EL COLLET. PARC 511","city":"BENICARLO","cp":"12580","fuels":{"Gazole":{"p":1.629,"d":"2026-07-14"},"SP95":{"p":1.599,"d":"2026-07-14"},"SP98":{"p":1.809,"d":"2026-07-14"}},"brand":"Eurofuel"},{"id":100012233,"lat":40.43425,"lng":0.392417,"addr":"POLIGONO POLIGONO 22  PARCELA 77, 77","city":"BENICARLO","cp":"12580","fuels":{"Gazole":{"p":1.519,"d":"2026-07-14"},"SP95":{"p":1.529,"d":"2026-07-14"},"SP98":{"p":1.659,"d":"2026-07-14"}},"brand":"Benihort","h24":true},{"id":100003527,"lat":40.422139,"lng":0.4175,"addr":"CARRETERA N-340 KM. 1043,8","city":"BENICARLO","cp":"12580","fuels":{"Gazole":{"p":1.635,"d":"2026-07-14"},"SP95":{"p":1.585,"d":"2026-07-14"},"SP98":{"p":1.755,"d":"2026-07-14"}},"brand":"Repsol"},{"id":100003745,"lat":40.458167,"lng":0.4065,"addr":"AUTOPISTA AP-7 (MRG.IZDO.) KM. 358,2","city":"BENICARLO","cp":"12580","fuels":{"Gazole":{"p":1.615,"d":"2026-07-14"},"SP95":{"p":1.605,"d":"2026-07-14"},"GPLc":{"p":1.144,"d":"2026-07-14"}},"brand":"Cepsa","h24":true},{"id":100003736,"lat":40.459222,"lng":0.406056,"addr":"AP-7 (MRG.DCHO.) km 358,2","city":"BENICARLO","cp":"12580","fuels":{"Gazole":{"p":1.625,"d":"2026-07-14"},"SP95":{"p":1.615,"d":"2026-07-14"},"GPLc":{"p":1.144,"d":"2026-07-14"}},"brand":"Cepsa","h24":true},{"id":100003595,"lat":40.413833,"lng":0.404639,"addr":"CARRETERA N 340 KM. 1042,2","city":"BENICARLO","cp":"12580","fuels":{"Gazole":{"p":1.635,"d":"2026-07-14"},"SP95":{"p":1.585,"d":"2026-07-14"},"SP98":{"p":1.755,"d":"2026-07-14"},"GPLc":{"p":1.109,"d":"2026-07-14"}},"brand":"Repsol"},{"id":100014992,"lat":40.432583,"lng":0.436944,"addr":"CAMI CAMINO FOSA PASTOR, S/N","city":"BENICARLO","cp":"12530","fuels":{"Gazole":{"p":1.449,"d":"2026-07-14"},"SP95":{"p":1.419,"d":"2026-07-14"}},"brand":"3gs Combustibles","h24":true},{"id":100003627,"lat":40.0505,"lng":0.054167,"addr":"CARRETERA N-340 KM. 987","city":"BENICASIM","cp":"12560","fuels":{"Gazole":{"p":1.659,"d":"2026-07-14"},"SP95":{"p":1.615,"d":"2026-07-14"}},"brand":"Repsol Benicassim"},{"id":100003548,"lat":40.057778,"lng":0.065333,"addr":"CARRETERA NACIONAL 340 KM. 988","city":"BENICASIM","cp":"12560","fuels":{"Gazole":{"p":1.639,"d":"2026-07-14"},"SP95":{"p":1.609,"d":"2026-07-14"},"SP98":{"p":1.749,"d":"2026-07-14"}},"brand":"Bp Montecasim Md"},{"id":100003559,"lat":40.186583,"lng":0.044556,"addr":"CARRETERA CV 10 KM. 46,70","city":"BENLLOCH","cp":"12181","fuels":{"Gazole":{"p":1.759,"d":"2026-07-14"},"SP95":{"p":1.719,"d":"2026-07-14"}},"brand":"Repsol"},{"id":100009028,"lat":40.207423,"lng":0.030164,"addr":"C/ DEL MAR, 116","city":"BENLLOCH","cp":"12181","fuels":{"Gazole":{"p":1.58,"d":"2026-07-14"},"SP95":{"p":1.54,"d":"2026-07-14"}},"brand":"Coop. La Union De Benlloch","h24":true},{"id":100003496,"lat":39.923194,"lng":-0.184611,"addr":"CARRETERA C-223 KM. 6,350","city":"BETXI","cp":"12549","fuels":{"Gazole":{"p":1.649,"d":"2026-07-14"},"SP95":{"p":1.639,"d":"2026-07-14"}},"brand":"Galp"},{"id":100003676,"lat":39.931306,"lng":-0.196389,"addr":"CR CS-233, 2,8","city":"BETXI","cp":"12549","fuels":{"Gazole":{"p":1.625,"d":"2026-07-14"},"SP95":{"p":1.599,"d":"2026-07-14"},"SP98":{"p":1.769,"d":"2026-07-14"}},"brand":"Petronor"},{"id":100011521,"lat":39.934639,"lng":-0.192028,"addr":"POLIGONO MOLI DEN LLOP, PARCELA U-6, SN","city":"BETXI","cp":"12549","fuels":{"Gazole":{"p":1.529,"d":"2026-07-14"},"SP95":{"p":1.569,"d":"2026-07-14"}},"brand":"Cooperativa De Betxí","h24":true},{"id":100003493,"lat":40.041778,"lng":-0.073722,"addr":"AVENIDA ZARAGOZA S/N, S/N","city":"BORRIOL","cp":"12190","fuels":{"Gazole":{"p":1.625,"d":"2026-07-14"},"SP95":{"p":1.585,"d":"2026-07-14"}},"brand":"Repsol"},{"id":100003488,"lat":40.014278,"lng":-0.125833,"addr":"CARRETERA C.V 16 KM. 4,1","city":"BORRIOL","cp":"12190","fuels":{"Gazole":{"p":1.554,"d":"2026-07-14"},"SP95":{"p":1.564,"d":"2026-07-14"},"SP98":{"p":1.704,"d":"2026-07-14"}},"brand":"Galp"},{"id":100012356,"lat":40.02425,"lng":-0.0895,"addr":"CARRETERA ZARAGOZA KM. 6,700","city":"BORRIOL","cp":"12190","fuels":{"Gazole":{"p":1.605,"d":"2026-07-14"}},"brand":"Pañalon"},{"id":100016346,"lat":40.018944,"lng":-0.091472,"addr":"CARRETERA COMARCAL 238 KM. 12","city":"BORRIOL","cp":"12190","fuels":{"Gazole":{"p":1.625,"d":"2026-07-14"},"SP95":{"p":1.579,"d":"2026-07-14"}},"brand":"Global Hrv","h24":true},{"id":100003735,"lat":39.866139,"lng":-0.121361,"addr":"AUTOPISTA AP-7 (MRG.IZDO) KM. 445","city":"BURRIANA","cp":"12530","fuels":{"Gazole":{"p":1.669,"d":"2026-07-14"},"SP95":{"p":1.699,"d":"2026-07-14"},"SP98":{"p":1.809,"d":"2026-07-14"}},"brand":"Galp","h24":true},{"id":100003743,"lat":39.863833,"lng":-0.123889,"addr":"AUTOPISTA AP-7 (MRG.DCHO) KM. 445","city":"BURRIANA","cp":"12530","fuels":{"Gazole":{"p":1.669,"d":"2026-07-14"},"SP95":{"p":1.699,"d":"2026-07-14"},"SP98":{"p":1.809,"d":"2026-07-14"}},"brand":"Galp","h24":true},{"id":100009409,"lat":39.894167,"lng":-0.080111,"addr":"C-236 KM  0,300","city":"BURRIANA","cp":"12530","fuels":{"Gazole":{"p":1.599,"d":"2026-07-14"},"SP95":{"p":1.579,"d":"2026-07-14"},"SP98":{"p":1.759,"d":"2026-07-14"}},"brand":"Galp"},{"id":100003706,"lat":39.884611,"lng":-0.093556,"addr":"CAMINO DE NULES - RONDA SUR (CV-18 km 1)","city":"BURRIANA","cp":"12530","fuels":{"Gazole":{"p":1.629,"d":"2026-07-14"},"SP95":{"p":1.595,"d":"2026-07-14"},"SP98":{"p":1.729,"d":"2026-07-14"}},"brand":"Moeve-Garcibur"},{"id":100003658,"lat":39.895167,"lng":-0.096333,"addr":"CL CAMINO DE ONDA, 90","city":"BURRIANA","cp":"12530","fuels":{"Gazole":{"p":1.629,"d":"2026-07-14"},"SP95":{"p":1.585,"d":"2026-07-14"},"SP98":{"p":1.755,"d":"2026-07-14"}},"brand":"E.S. Hermanos Simo"},{"id":100003487,"lat":39.882778,"lng":-0.080611,"addr":"CL AVENIDA JAIME CHICHARRO, 6","city":"BURRIANA","cp":"12530","fuels":{"Gazole":{"p":1.629,"d":"2026-07-14"},"SP95":{"p":1.589,"d":"2026-07-14"},"SP98":{"p":1.759,"d":"2026-07-14"}},"brand":"Repsol"},{"id":100009031,"lat":39.88325,"lng":-0.08875,"addr":"AVDA. LLOMBAI, S/N","city":"BURRIANA","cp":"12530","fuels":{"Gazole":{"p":1.569,"d":"2026-07-14"},"SP95":{"p":1.589,"d":"2026-07-14"}},"brand":"Coop. San Jose De Burriana"},{"id":100016104,"lat":39.88075,"lng":-0.101944,"addr":"CALLE CORINDÓN, 1","city":"BURRIANA","cp":"12350","fuels":{"Gazole":{"p":1.428,"d":"2026-07-14"},"SP95":{"p":1.398,"d":"2026-07-14"}},"brand":"Ballenoil","h24":true},{"id":100013755,"lat":39.899333,"lng":-0.083111,"addr":"CARRETERA VILA-REAL BURRIANA CV-185 KM. 3,5","city":"BURRIANA","cp":"12350","fuels":{"Gazole":{"p":1.479,"d":"2026-07-14"},"SP95":{"p":1.439,"d":"2026-07-14"}},"brand":"Alsa Y Servi Oil Low Cost","h24":true},{"id":100003737,"lat":40.131806,"lng":0.138722,"addr":"AUTOPISTA AP-7 (MRG.DCHO) KM. 404","city":"CABANES","cp":"12180","fuels":{"Gazole":{"p":1.669,"d":"2026-07-14"},"SP95":{"p":1.679,"d":"2026-07-14"},"SP98":{"p":1.799,"d":"2026-07-14"},"GPLc":{"p":0.999,"d":"2026-07-14"}},"brand":"Eni","h24":true},{"id":100003746,"lat":40.13325,"lng":0.141111,"addr":"AUTOPISTA AP-7 (MRG.IZDO) KM. 404","city":"CABANES","cp":"12180","fuels":{"Gazole":{"p":1.669,"d":"2026-07-14"},"SP95":{"p":1.679,"d":"2026-07-14"},"SP98":{"p":1.799,"d":"2026-07-14"},"GPLc":{"p":0.999,"d":"2026-07-14"}},"brand":"Eni","h24":true},{"id":100012613,"lat":40.140833,"lng":0.033306,"addr":"AUTOVIA CV10 KM. 37,5","city":"CABANES","cp":"12180","fuels":{"Gazole":{"p":1.689,"d":"2026-07-14"},"SP95":{"p":1.679,"d":"2026-07-14"}},"brand":"Eess De Cabanes 40 Pies"},{"id":100009018,"lat":40.156278,"lng":0.039917,"addr":"CALLE CLARA CAMPOAMOR, 1","city":"CABANES","cp":"12180","fuels":{"Gazole":{"p":1.58,"d":"2026-07-14"},"SP95":{"p":1.5,"d":"2026-07-14"}},"brand":"Cooperativa Cabanes","h24":true},{"id":100010745,"lat":40.134694,"lng":0.149306,"addr":"CARRETERA NACIONAL 340 KM. 1000","city":"RIBERA DE CABANES, LA","cp":"12595","fuels":{"Gazole":{"p":1.655,"d":"2026-07-14"},"SP95":{"p":1.599,"d":"2026-07-14"},"SP98":{"p":1.719,"d":"2026-07-14"}},"brand":"La Ribera De Cabanes"},{"id":100003509,"lat":39.969139,"lng":-0.067972,"addr":"CARRETERA N-340 KM. 972,2","city":"CASTELLON DE LA PLANA","cp":"12006","fuels":{"Gazole":{"p":1.635,"d":"2026-07-14"},"SP95":{"p":1.615,"d":"2026-07-14"}},"brand":"Moeve"},{"id":100003510,"lat":39.969,"lng":-0.068694,"addr":"CARRETERA N-340 KM. 972,2","city":"CASTELLON DE LA PLANA","cp":"12006","fuels":{"Gazole":{"p":1.635,"d":"2026-07-14"},"SP95":{"p":1.615,"d":"2026-07-14"}},"brand":"Cepsa"},{"id":100010252,"lat":39.971528,"lng":-0.05375,"addr":"AVENIDA AENIDA VALENCIA, 125","city":"CASTELLON DE LA PLANA","cp":"12006","fuels":{"Gazole":{"p":1.649,"d":"2026-07-14"},"SP95":{"p":1.595,"d":"2026-07-14"},"SP98":{"p":1.745,"d":"2026-07-14"},"GPLc":{"p":1.109,"d":"2026-07-14"}},"brand":"Repsol"},{"id":100003604,"lat":39.9885,"lng":-0.066278,"addr":"AVINGUDA ALCORA 176,","city":"CASTELLON DE LA PLANA","cp":"12006","fuels":{"Gazole":{"p":1.645,"d":"2026-07-14"},"SP95":{"p":1.589,"d":"2026-07-14"},"SP98":{"p":1.729,"d":"2026-07-14"}},"brand":"Bp Riu Sec"},{"id":100011185,"lat":39.978889,"lng":-0.066444,"addr":"AV RONDA SUR ESQ. CL ENRIQUE GIMENO","city":"CASTELLON DE LA PLANA","cp":"12006","fuels":{"Gazole":{"p":1.645,"d":"2026-07-14"},"SP95":{"p":1.589,"d":"2026-07-14"},"SP98":{"p":1.729,"d":"2026-07-14"}},"brand":"Bp Ronda Sur"},{"id":100003538,"lat":39.993778,"lng":-0.057528,"addr":"CALLE CTRA. BORRIOL YB, 16","city":"CASTELLON DE LA PLANA","cp":"12006","fuels":{"Gazole":{"p":1.539,"d":"2026-07-14"},"SP95":{"p":1.499,"d":"2026-07-14"},"SP98":{"p":1.759,"d":"2026-07-14"}},"brand":"Bencinas Borriol","h24":true},{"id":100011011,"lat":39.979472,"lng":-0.065389,"addr":"ALCAMPO HIPERMERCADO ( CENTRO COMERCIAL SALERA ) (CARRETERA 340 km 64.500)","city":"CASTELLON DE LA PLANA","cp":"12006","fuels":{"Gazole":{"p":1.429,"d":"2026-07-14"},"SP95":{"p":1.399,"d":"2026-07-14"},"SP98":{"p":1.553,"d":"2026-07-14"}},"brand":"Alcampo","h24":true},{"id":100010261,"lat":39.979139,"lng":-0.067917,"addr":"CARRETERA RIBESALBES KM. S/N","city":"CASTELLON DE LA PLANA","cp":"12006","fuels":{"Gazole":{"p":1.429,"d":"2026-07-14"},"SP95":{"p":1.399,"d":"2026-07-14"}},"brand":"Ballenoil","h24":true},{"id":100016150,"lat":39.974944,"lng":-0.05925,"addr":"AVENIDA VILLARREAL, 98","city":"CASTELLON DE LA PLANA","cp":"12006","fuels":{"Gazole":{"p":1.429,"d":"2026-07-14"},"SP95":{"p":1.399,"d":"2026-07-14"}},"brand":"Ballenoil","h24":true},{"id":100014042,"lat":39.972556,"lng":-0.071389,"addr":"CALLE CUADRA LAIRON, 57","city":"CASTELLON DE LA PLANA","cp":"12006","fuels":{"Gazole":{"p":1.499,"d":"2026-07-14"},"SP95":{"p":1.439,"d":"2026-07-14"}},"brand":"Face Petroleum","h24":true},{"id":100012373,"lat":39.971722,"lng":-0.07575,"addr":"AVENIDA EUROPA ESQ. C/ BÉLGICA, 138","city":"CASTELLON DE LA PLANA","cp":"12006","fuels":{"Gazole":{"p":1.449,"d":"2026-07-14"},"SP95":{"p":1.409,"d":"2026-07-14"}},"brand":"Bdmed","h24":true},{"id":100016201,"lat":39.98225,"lng":-0.058417,"addr":"AVENIDA ENRIQUE GIMENO, 48","city":"CASTELLON DE LA PLANA","cp":"12006","fuels":{"Gazole":{"p":1.469,"d":"2026-07-14"},"SP95":{"p":1.439,"d":"2026-07-14"}},"brand":"Plenergy","h24":true},{"id":100012556,"lat":39.9945,"lng":-0.046944,"addr":"CARRETERA N- 340 KM. 66,7","city":"CASTELLON DE LA PLANA","cp":"12004","fuels":{"Gazole":{"p":1.459,"d":"2026-07-14"},"SP95":{"p":1.429,"d":"2026-07-14"}},"brand":"GasExpress","h24":true},{"id":100012624,"lat":40.000722,"lng":-0.028639,"addr":"RONDA NORTE ESTE, 242","city":"CASTELLON DE LA PLANA","cp":"12004","fuels":{"Gazole":{"p":1.645,"d":"2026-07-14"},"SP95":{"p":1.589,"d":"2026-07-14"},"SP98":{"p":1.729,"d":"2026-07-14"}},"brand":"Bp Ronda Norte","h24":true},{"id":100013063,"lat":39.999583,"lng":-0.041333,"addr":"AVENIDA BENICASIM, ESQ. CALLE CASAS DE LA BREVA, S/N","city":"CASTELLON DE LA PLANA","cp":"12004","fuels":{"Gazole":{"p":1.645,"d":"2026-07-14"},"SP95":{"p":1.589,"d":"2026-07-14"},"SP98":{"p":1.729,"d":"2026-07-14"}},"brand":"Bp Castello"},{"id":100003612,"lat":40.003417,"lng":-0.042889,"addr":"CR N-340, 976,7","city":"CASTELLON DE LA PLANA","cp":"12004","fuels":{"Gazole":{"p":1.659,"d":"2026-07-14"},"SP95":{"p":1.599,"d":"2026-07-14"},"SP98":{"p":1.739,"d":"2026-07-14"}},"brand":"Repsol"},{"id":100015985,"lat":40.000111,"lng":-0.039639,"addr":"AVENIDA BENICASIM, 24","city":"CASTELLON DE LA PLANA","cp":"12004","fuels":{"Gazole":{"p":1.459,"d":"2026-07-14"},"SP95":{"p":1.429,"d":"2026-07-14"}},"brand":"Plenergy","h24":true},{"id":100003462,"lat":40.031889,"lng":0.01325,"addr":"CR N-340, 981,8","city":"CASTELLON DE LA PLANA","cp":"12004","fuels":{"Gazole":{"p":1.659,"d":"2026-07-14"},"SP95":{"p":1.625,"d":"2026-07-14"},"SP98":{"p":1.785,"d":"2026-07-14"}},"brand":"Repsol"},{"id":100011059,"lat":39.9925,"lng":-0.054944,"addr":"CARRETERA BORRIOL YB 2 BIS KM.","city":"CASTELLON DE LA PLANA","cp":"12004","fuels":{"Gazole":{"p":1.777,"d":"2026-07-14"},"SP95":{"p":1.527,"d":"2026-07-14"}},"brand":"Autoil"},{"id":100003629,"lat":39.981861,"lng":-0.018583,"addr":"CALLE TORRALBA DEL PINAR, 16","city":"CASTELLON DE LA PLANA","cp":"12003","fuels":{"Gazole":{"p":1.635,"d":"2026-07-14"},"SP95":{"p":1.615,"d":"2026-07-14"}},"brand":"Moeve"},{"id":100011585,"lat":39.983306,"lng":-0.017972,"addr":"AVENIDA DEL MAR S/N, SIN NÚMERO","city":"CASTELLON DE LA PLANA","cp":"12003","fuels":{"Gazole":{"p":1.549,"d":"2026-07-14"},"SP95":{"p":1.519,"d":"2026-07-14"},"SP98":{"p":1.719,"d":"2026-07-14"}},"brand":"Carrefour","h24":true},{"id":100001945,"lat":39.981083,"lng":-0.023,"addr":"AVENIDA AVDA. HERMANOS BOU 203,","city":"CASTELLON DE LA PLANA","cp":"12003","fuels":{"Gazole":{"p":1.559,"d":"2026-07-14"},"SP95":{"p":1.499,"d":"2026-07-14"},"SP98":{"p":1.599,"d":"2026-07-14"}},"brand":"Q8","h24":true},{"id":100016370,"lat":39.971639,"lng":-0.050389,"addr":"AVENIDA CASALDUCH 140D, 0","city":"CASTELLON DE LA PLANA","cp":"12005","fuels":{"Gazole":{"p":1.499,"d":"2026-07-14"},"SP95":{"p":1.459,"d":"2026-07-14"}},"brand":"Q8","h24":true},{"id":100003534,"lat":39.976056,"lng":-0.048444,"addr":"CL AVENIDA VALENCIA, 96","city":"CASTELLON DE LA PLANA","cp":"12005","fuels":{"Gazole":{"p":1.655,"d":"2026-07-14"},"SP95":{"p":1.589,"d":"2026-07-14"},"SP98":{"p":1.759,"d":"2026-07-14"}},"brand":"Repsol","h24":true},{"id":100003500,"lat":39.968361,"lng":-0.0525,"addr":"CARRETERA ALMAZORA CS236 KM. 9,39","city":"CASTELLON DE LA PLANA","cp":"12005","fuels":{"Gazole":{"p":1.659,"d":"2026-07-14"},"SP95":{"p":1.619,"d":"2026-07-14"}},"brand":"Galp"},{"id":100003670,"lat":39.981,"lng":-0.034917,"addr":"CALLE SEGARRA RIBES, S/N","city":"CASTELLON DE LA PLANA","cp":"12005","fuels":{"Gazole":{"p":1.639,"d":"2026-07-14"},"SP95":{"p":1.599,"d":"2026-07-14"},"SP98":{"p":1.739,"d":"2026-07-14"}},"brand":"Grupo Maicas Peiro Bp Fadrell"},{"id":100003477,"lat":39.964389,"lng":-0.064306,"addr":"CL AVENIDA VALENCIA 221","city":"CASTELLON DE LA PLANA","cp":"12005","fuels":{"Gazole":{"p":1.639,"d":"2026-07-14"},"SP95":{"p":1.595,"d":"2026-07-14"},"SP98":{"p":1.735,"d":"2026-07-14"}},"brand":"Bp Vehicles"},{"id":100003536,"lat":39.976694,"lng":0.010667,"addr":"AVENIDA DEL MAR, 468","city":"CASTELLON DE LA PLANA","cp":"12100","fuels":{"Gazole":{"p":1.659,"d":"2026-07-14"},"SP95":{"p":1.605,"d":"2026-07-14"},"SP98":{"p":1.775,"d":"2026-07-14"}},"brand":"Repsol"},{"id":100010256,"lat":39.972417,"lng":0.008694,"addr":"AVDA. DEL PUERTO S/N   GRAO","city":"CASTELLON DE LA PLANA","cp":"12100","fuels":{"Gazole":{"p":1.469,"d":"2026-07-14"},"SP95":{"p":1.439,"d":"2026-07-14"}},"brand":"Plenergy","h24":true},{"id":100016320,"lat":39.980083,"lng":-0.018972,"addr":"AVENIDA DE LOS HERMANOS BOU, 201","city":"CASTELLON DE LA PLANA","cp":"12100","fuels":{"Gazole":{"p":1.429,"d":"2026-07-14"},"SP95":{"p":1.399,"d":"2026-07-14"}},"brand":"Ballenoil","h24":true},{"id":100011210,"lat":39.981167,"lng":-0.022833,"addr":"AVENIDA HERMANOS BOU, 152","city":"CASTELLON DE LA PLANA","cp":"12100","fuels":{"Gazole":{"p":1.449,"d":"2026-07-14"},"SP95":{"p":1.409,"d":"2026-07-14"}},"brand":"Bdmed","h24":true},{"id":100003704,"lat":39.966556,"lng":0.015917,"addr":"MUELLE SERRANO LLOBERAS, S/N","city":"CASTELLON DE LA PLANA","cp":"12100","fuels":{"Gazole":{"p":1.645,"d":"2026-07-14"},"SP95":{"p":1.615,"d":"2026-07-14"}},"brand":"Moeve"},{"id":100016245,"lat":39.999389,"lng":-0.045333,"addr":"AVINGUDA CASTELL VELL, S/N","city":"CASTELLON DE LA PLANA","cp":"12000","fuels":{"Gazole":{"p":1.459,"d":"2026-07-14"},"SP95":{"p":1.429,"d":"2026-07-14"}},"brand":"Plenergy","h24":true},{"id":100012838,"lat":39.973917,"lng":-0.070194,"addr":"CALLE CUADRA DE LAIRÓN, 64","city":"CASTELLON DE LA PLANA","cp":"12000","fuels":{"Gazole":{"p":1.569,"d":"2026-07-14"},"SP95":{"p":1.589,"d":"2026-07-14"}},"brand":"Masoil","h24":true},{"id":100013227,"lat":40.00475,"lng":-0.056333,"addr":"CALLE CAMI DELS MESTRETS, 57","city":"CASTELLON DE LA PLANA","cp":"12000","fuels":{"Gazole":{"p":1.539,"d":"2026-07-14"},"SP95":{"p":1.449,"d":"2026-07-14"},"SP98":{"p":1.759,"d":"2026-07-14"},"GPLc":{"p":1.129,"d":"2026-07-14"}},"brand":"Bencinas Mestrets","h24":true},{"id":100015344,"lat":39.982944,"lng":-0.017722,"addr":"AVENIDA DEL MAR, 65","city":"CASTELLON DE LA PLANA","cp":"12000","fuels":{"Gazole":{"p":1.458,"d":"2026-07-14"},"SP95":{"p":1.418,"d":"2026-07-14"}},"brand":"Seroil Energy","h24":true},{"id":100012951,"lat":39.973889,"lng":-0.073889,"addr":"AVENIDA EUROPA, 229","city":"CASTELLON DE LA PLANA","cp":"12000","fuels":{"Gazole":{"p":1.429,"d":"2026-07-14"},"SP95":{"p":1.399,"d":"2026-07-14"}},"brand":"Gmoil","h24":true},{"id":100016359,"lat":39.958083,"lng":-0.058611,"addr":"TRAVESÍA CAM. LA UNIÓN, 15","city":"CASTELLON DE LA PLANA","cp":"12000","fuels":{"Gazole":{"p":1.469,"d":"2026-07-14"},"SP95":{"p":1.439,"d":"2026-07-14"}},"brand":"Plenergy","h24":true},{"id":100003503,"lat":39.795694,"lng":-0.181361,"addr":"CARRETERA N-340 KM. 950","city":"CHILCHES","cp":"12592","fuels":{"Gazole":{"p":1.449,"d":"2026-07-14"},"SP95":{"p":1.399,"d":"2026-07-14"}},"brand":"American Petrol","h24":true},{"id":100003504,"lat":39.778583,"lng":-0.180722,"addr":"CRTA. DEL MAR km 0,5","city":"CHILCHES","cp":"12592","fuels":{"Gazole":{"p":1.619,"d":"2026-07-14"},"SP95":{"p":1.629,"d":"2026-07-14"}},"brand":"Galp"},{"id":100003677,"lat":40.307222,"lng":0.115194,"addr":"CR C-238, 45,7","city":"COVES DE VINROMA (LES)","cp":"12185","fuels":{"Gazole":{"p":1.629,"d":"2026-07-14"},"SP95":{"p":1.585,"d":"2026-07-14"}},"brand":"Repsol"},{"id":100011218,"lat":40.663583,"lng":-0.190417,"addr":"CV-14 km 12,400","city":"FORCALL","cp":"12310","fuels":{"Gazole":{"p":1.639,"d":"2026-07-14"},"SP95":{"p":1.649,"d":"2026-07-14"},"SP98":{"p":1.749,"d":"2026-07-14"}},"brand":"E.S.Mibecosl","h24":true},{"id":100003662,"lat":40.514889,"lng":0.254639,"addr":"CR N-232 20,4","city":"JANA (LA)","cp":"12340","fuels":{"Gazole":{"p":1.629,"d":"2026-07-14"},"SP95":{"p":1.609,"d":"2026-07-14"},"SP98":{"p":1.769,"d":"2026-07-14"}},"brand":"E.S. Balmapa","h24":true},{"id":100003741,"lat":39.912361,"lng":-0.564389,"addr":"CARRETERA NACIONAL 234 K.M. 42 KM. 42","city":"JERICA","cp":"12450","fuels":{"Gazole":{"p":1.619,"d":"2026-07-14"},"SP95":{"p":1.619,"d":"2026-07-14"},"SP98":{"p":1.759,"d":"2026-07-14"}},"brand":"Shell"},{"id":100009029,"lat":39.911472,"lng":-0.566139,"addr":"C/CASTELLÓN, S/N","city":"JERICA","cp":"12450","fuels":{"Gazole":{"p":1.469,"d":"2026-07-14"},"SP95":{"p":1.459,"d":"2026-07-14"}},"brand":"Coop. Divina Pastora De Jerica","h24":true},{"id":100011589,"lat":39.77375,"lng":-0.226389,"addr":"AUTOVIA A-7 SALIDA 289 ENLACE CV-2311 KM. 289","city":"LLOSA (LA)","cp":"12591","fuels":{"Gazole":{"p":1.649,"d":"2026-07-14"},"SP95":{"p":1.659,"d":"2026-07-14"},"SP98":{"p":1.809,"d":"2026-07-14"}},"brand":"Repsol","h24":true},{"id":100003587,"lat":40.135528,"lng":-0.280583,"addr":"CARRETERA C-232 KM. 38,10","city":"LUCENA DEL CID","cp":"12120","fuels":{"Gazole":{"p":1.639,"d":"2026-07-14"},"SP95":{"p":1.609,"d":"2026-07-14"},"SP98":{"p":1.779,"d":"2026-07-14"}},"brand":"Lucena"},{"id":100003501,"lat":39.810333,"lng":-0.1525,"addr":"CL CAMI LA VALL  S/N","city":"MONCOFA","cp":"12593","fuels":{"Gazole":{"p":1.639,"d":"2026-07-14"},"SP95":{"p":1.589,"d":"2026-07-14"},"SP98":{"p":1.729,"d":"2026-07-14"}},"brand":"Bp Moncofar"},{"id":100012927,"lat":39.810472,"lng":-0.152194,"addr":"CALLE SEGORBE, 3","city":"MONCOFA","cp":"12593","fuels":{"Gazole":{"p":1.53,"d":"2026-07-14"},"SP95":{"p":1.51,"d":"2026-07-14"}},"brand":"Carburantes Cooperativos","h24":true},{"id":100003486,"lat":40.064833,"lng":-0.528583,"addr":"CR CS-211, 18 (CS-211 km 18,2)","city":"MONTANEJOS","cp":"12448","fuels":{"Gazole":{"p":1.549,"d":"2026-07-14"},"SP95":{"p":1.519,"d":"2026-07-14"}},"brand":"Carla","h24":true},{"id":100003637,"lat":40.609611,"lng":-0.094556,"addr":"CARRETERA N-232 KM. 63,5","city":"MORELLA","cp":"12300","fuels":{"Gazole":{"p":1.649,"d":"2026-07-14"},"SP95":{"p":1.649,"d":"2026-07-14"}},"brand":"Petronor"},{"id":100012064,"lat":39.852389,"lng":-0.150417,"addr":"DISEMINADO SENDA MICHANA, S/N","city":"NULES","cp":"12520","fuels":{"Gazole":{"p":1.586,"d":"2026-07-14"},"SP95":{"p":1.546,"d":"2026-07-14"},"SP98":{"p":1.646,"d":"2026-07-14"}},"brand":"Cooperativa Sant Josep","h24":true},{"id":100003464,"lat":39.856528,"lng":-0.168,"addr":"CARRETERA CS 220 KM. 1,2","city":"NULES","cp":"12520","fuels":{"Gazole":{"p":1.639,"d":"2026-07-14"},"SP95":{"p":1.605,"d":"2026-07-14"},"SP98":{"p":1.775,"d":"2026-07-14"}},"brand":"Repsol"},{"id":100003491,"lat":39.857694,"lng":-0.151028,"addr":"CARRETERA N-340 KM. 957","city":"NULES","cp":"12520","fuels":{"Gazole":{"p":1.645,"d":"2026-07-14"},"SP95":{"p":1.625,"d":"2026-07-14"}},"brand":"Cepsa"},{"id":100003499,"lat":39.841639,"lng":-0.180861,"addr":"CARRETERA CV226 KM. 26,6","city":"NULES","cp":"12520","fuels":{"Gazole":{"p":1.659,"d":"2026-07-14"},"SP95":{"p":1.609,"d":"2026-07-14"}},"brand":"Galp"},{"id":100003498,"lat":39.841444,"lng":-0.180583,"addr":"CARRETERA CV226 KM. 26,6","city":"NULES","cp":"12520","fuels":{"Gazole":{"p":1.599,"d":"2026-07-14"},"SP95":{"p":1.559,"d":"2026-07-14"}},"brand":"Galp","h24":true},{"id":100014492,"lat":39.826583,"lng":-0.173,"addr":"CALLE B S/N. SEC. INDUS Nº2 POL. LA MINA, 2","city":"NULES","cp":"12520","fuels":{"Gazole":{"p":1.449,"d":"2026-07-14"},"SP95":{"p":1.409,"d":"2026-07-14"}},"brand":"Bdmed","h24":true},{"id":100016148,"lat":40.639972,"lng":-0.337667,"addr":"POLIGONO 13, 73","city":"LOMAS (LAS)","cp":"12312","fuels":{"Gazole":{"p":1.81,"d":"2026-07-14"},"SP95":{"p":1.692,"d":"2026-07-14"}},"brand":"Foresma Desarrollos Sl","h24":true},{"id":100014702,"lat":39.954944,"lng":-0.202056,"addr":"CAMINO CORRAL DE DIAGO, 4","city":"ONDA","cp":"12200","fuels":{"Gazole":{"p":1.385,"d":"2026-07-14"},"SP95":{"p":1.348,"d":"2026-07-14"}},"brand":"BonÀrea","h24":true},{"id":100012114,"lat":39.963833,"lng":-0.230583,"addr":"AVENIDA REAL DE EXTREMADURA, 9","city":"ONDA","cp":"12200","fuels":{"Gazole":{"p":1.429,"d":"2026-07-14"},"SP95":{"p":1.399,"d":"2026-07-14"}},"brand":"Road Runner","h24":true},{"id":100001956,"lat":39.964611,"lng":-0.251056,"addr":"AVENIDA DEL MEDITERRANEO, S/N","city":"ONDA","cp":"12200","fuels":{"Gazole":{"p":1.349,"d":"2026-07-14"},"SP95":{"p":1.339,"d":"2026-07-14"},"SP98":{"p":1.749,"d":"2026-07-14"}},"brand":"Carrefour","h24":true},{"id":100011776,"lat":39.956556,"lng":-0.209667,"addr":"CARRETERA CV 20 ONDA-VILA REAL (CARRER DE VILA-REAL) KM. 1","city":"ONDA","cp":"12200","fuels":{"Gazole":{"p":1.429,"d":"2026-07-14"},"SP95":{"p":1.483,"d":"2026-07-14"},"SP98":{"p":1.699,"d":"2026-07-14"}},"brand":"Confort Auto"},{"id":100014535,"lat":39.987167,"lng":-0.141139,"addr":"CALLE URUGUAY, 40","city":"ONDA","cp":"12200","fuels":{"Gazole":{"p":1.531,"d":"2026-07-14"}},"brand":"Rallo"},{"id":100003494,"lat":39.952167,"lng":-0.186056,"addr":"CARRETERA CV-20 KM. 10,2","city":"ONDA","cp":"12200","fuels":{"Gazole":{"p":1.625,"d":"2026-07-14"},"SP95":{"p":1.605,"d":"2026-07-14"}},"brand":"Repsol"},{"id":100003505,"lat":39.96425,"lng":-0.247722,"addr":"AVENIDA MEDITERRANI, 34","city":"ONDA","cp":"12200","fuels":{"Gazole":{"p":1.595,"d":"2026-07-14"},"SP95":{"p":1.575,"d":"2026-07-14"},"SP98":{"p":1.782,"d":"2026-07-14"}},"brand":"Moeve"},{"id":100010260,"lat":39.970722,"lng":-0.243417,"addr":"AVENIDA MANUEL ESCOBEDO, 20","city":"ONDA","cp":"12200","fuels":{"Gazole":{"p":1.55,"d":"2026-07-14"},"SP95":{"p":1.565,"d":"2026-07-14"}},"brand":"Cepsa"},{"id":100003508,"lat":39.965333,"lng":-0.260417,"addr":"AVENIDA PAIS VALENCIA, 34","city":"ONDA","cp":"12200","fuels":{"Gazole":{"p":1.55,"d":"2026-07-14"},"SP95":{"p":1.565,"d":"2026-07-14"}},"brand":"Cepsa"},{"id":100012524,"lat":39.966111,"lng":-0.247389,"addr":"AVENIDA CASTILLA LA MANCHA, 7","city":"ONDA","cp":"12200","fuels":{"Gazole":{"p":1.399,"d":"2026-07-14"},"SP95":{"p":1.369,"d":"2026-07-14"}},"brand":"Ondamita Oil","h24":true},{"id":100015421,"lat":39.978,"lng":-0.15825,"addr":"CALLE ECUADOR, 31","city":"ONDA","cp":"12200","fuels":{"Gazole":{"p":1.525,"d":"2026-07-14"}},"brand":"Transportes Travill, S.L."},{"id":100015816,"lat":39.967833,"lng":-0.251639,"addr":"CALLE LUCENA DEL CID, 12","city":"ONDA","cp":"12200","fuels":{"Gazole":{"p":1.385,"d":"2026-07-14"},"SP95":{"p":1.347,"d":"2026-07-14"}},"brand":"Plenergy","h24":true},{"id":100014051,"lat":39.981361,"lng":-0.156861,"addr":"CALLE MEJICO, 7","city":"PANTANO DEL SICHAR","cp":"12200","fuels":{"Gazole":{"p":1.54,"d":"2026-07-14"},"SP95":{"p":1.85,"d":"2026-07-14"}},"brand":"Gmr","h24":true},{"id":100012808,"lat":39.951278,"lng":-0.182472,"addr":"CARRETERA APEADERO DE BETXI POLIG. 19 PARC. 34 KM. 2","city":"APEADERO DE BECHI","cp":"12200","fuels":{"Gazole":{"p":1.439,"d":"2026-07-14"},"SP95":{"p":1.399,"d":"2026-07-14"}},"brand":"Bdmed","h24":true},{"id":100003480,"lat":40.091611,"lng":0.13175,"addr":"Avda.de la Plana, 3-5","city":"OROPESA","cp":"12594","fuels":{"SP95":{"p":1.589,"d":"2026-07-14"},"SP98":{"p":1.729,"d":"2026-07-14"}},"brand":"Galp"},{"id":100015274,"lat":40.091389,"lng":0.131694,"addr":"AVENIDA LA PLANA, 12","city":"AMPLARIES (LES)","cp":"12594","fuels":{"Gazole":{"p":1.527,"d":"2026-07-14"},"SP95":{"p":1.527,"d":"2026-07-14"}},"brand":"Vcc Oropesa"},{"id":100012102,"lat":40.108139,"lng":0.149556,"addr":"AVENIDA BARCELONA, S/N","city":"MARINA D'OR","cp":"12594","fuels":{"Gazole":{"p":1.777,"d":"2026-07-14"},"SP95":{"p":1.527,"d":"2026-07-14"}},"brand":"Autoil Oropesa"},{"id":100001965,"lat":40.361139,"lng":0.397111,"addr":"CALLE ESTACION, S/N","city":"PEÑISCOLA","cp":"12598","fuels":{"Gazole":{"p":1.629,"d":"2026-07-14"},"SP95":{"p":1.585,"d":"2026-07-14"}},"brand":"Repsol"},{"id":100013976,"lat":40.393444,"lng":0.407472,"addr":"CARRETERA DE PEÑISCOLA A BENICARLO ESQ. CAMI LA VOLTA KM. S/N","city":"PEÑISCOLA","cp":"12598","fuels":{"Gazole":{"p":1.454,"d":"2026-07-14"},"SP95":{"p":1.454,"d":"2026-07-14"}},"brand":"Vcc Peñiscola","h24":true},{"id":100015136,"lat":40.368278,"lng":0.393528,"addr":"LUGAR ESQUINA CARRETERA DE LA ESTACION (CV141) CON CARRETERA VIEJA DE BENICARLO (CV140), S/N","city":"PEÑISCOLA","cp":"12598","fuels":{"Gazole":{"p":1.382,"d":"2026-07-14"},"SP95":{"p":1.345,"d":"2026-07-14"}},"brand":"BonÀrea","h24":true},{"id":100011896,"lat":40.105333,"lng":0.008472,"addr":"AUTOVIA CV10 SALIDA 33 KM. 33","city":"POBLA TORNESA (LA)","cp":"12191","fuels":{"Gazole":{"p":1.659,"d":"2026-07-14"},"SP95":{"p":1.657,"d":"2026-07-14"},"SP98":{"p":1.798,"d":"2026-07-14"},"GPLc":{"p":1.199,"d":"2026-07-14"}},"brand":"Repsol","h24":true},{"id":100011184,"lat":40.018861,"lng":-0.277694,"addr":"AVENIDA ONDA, 46","city":"RIBESALBES","cp":"12210","fuels":{"Gazole":{"p":1.369,"d":"2026-07-14"},"SP95":{"p":1.359,"d":"2026-07-14"}},"brand":"Gasoelectric Low Cost","h24":true},{"id":100003461,"lat":40.604417,"lng":0.348917,"addr":"CL SALVADOR PONS, 30","city":"SAN RAFAEL DEL RIO","cp":"12510","fuels":{"Gazole":{"p":1.649,"d":"2026-07-14"},"SP95":{"p":1.639,"d":"2026-07-14"},"SP98":{"p":1.829,"d":"2026-07-14"}},"brand":"Repsol","h24":true},{"id":100009032,"lat":40.054028,"lng":-0.141833,"addr":"PARTIDA RACHINA S/N","city":"SANT JOAN DE MORO","cp":"12130","fuels":{"Gazole":{"p":1.539,"d":"2026-07-14"},"SP95":{"p":1.549,"d":"2026-07-14"}},"brand":"Coop.San Juan De San Juan De Moro","h24":true},{"id":100003698,"lat":40.040972,"lng":-0.152139,"addr":"CR CV-16  P.K. 8","city":"SANT JOAN DE MORO","cp":"12130","fuels":{"Gazole":{"p":1.635,"d":"2026-07-14"},"SP95":{"p":1.609,"d":"2026-07-14"},"SP98":{"p":1.779,"d":"2026-07-14"}},"brand":"Repsol"},{"id":100003532,"lat":40.458194,"lng":0.179944,"addr":"AVENIDA CONSTITUCION, 50, 1","city":"SANT MATEU","cp":"12170","fuels":{"Gazole":{"p":1.649,"d":"2026-07-14"},"SP95":{"p":1.669,"d":"2026-07-14"},"SP98":{"p":1.779,"d":"2026-07-14"}},"brand":"Repsol"},{"id":100003645,"lat":40.359972,"lng":0.3035,"addr":"CARRETERA N-340 KM. 1031","city":"SANTA MAGDALENA DE PULPIS","cp":"12597","fuels":{"Gazole":{"p":1.55,"d":"2026-07-14"},"SP95":{"p":1.535,"d":"2026-07-14"},"SP98":{"p":1.649,"d":"2026-07-14"}},"brand":"Es Zaragoza"},{"id":100003522,"lat":39.84175,"lng":-0.475833,"addr":"AVENIDA MEDITERRANEO, S/N","city":"SEGORBE","cp":"12400","fuels":{"Gazole":{"p":1.649,"d":"2026-07-14"},"SP95":{"p":1.629,"d":"2026-07-14"},"SP98":{"p":1.799,"d":"2026-07-14"},"GPLc":{"p":1.095,"d":"2026-07-14"}},"brand":"Petronor"},{"id":100003502,"lat":39.847806,"lng":-0.493972,"addr":"AVENIDA ESPAÑA, 181","city":"SEGORBE","cp":"12400","fuels":{"Gazole":{"p":1.639,"d":"2026-07-14"},"SP95":{"p":1.609,"d":"2026-07-14"}},"brand":"Galp"},{"id":100003628,"lat":39.849972,"lng":-0.486611,"addr":"CL AVENIDA NAVARRO REVERTER, 10","city":"SEGORBE","cp":"12400","fuels":{"Gazole":{"p":1.539,"d":"2026-07-14"},"SP95":{"p":1.509,"d":"2026-07-14"}},"brand":"Q8"},{"id":100012720,"lat":39.844333,"lng":-0.479667,"addr":"AVENIDA MEDITERRANEO, 18","city":"SEGORBE","cp":"12400","fuels":{"Gazole":{"p":1.777,"d":"2026-07-14"},"SP95":{"p":1.527,"d":"2026-07-14"}},"brand":"Autoil Segorbe","h24":true},{"id":100016251,"lat":39.845444,"lng":-0.482278,"addr":"AVENIDA MEDITERRANEO, 2","city":"SEGORBE","cp":"12400","fuels":{"Gazole":{"p":1.499,"d":"2026-07-14"},"SP95":{"p":1.479,"d":"2026-07-14"}},"brand":"Gasexpress Segorbe","h24":true},{"id":100009021,"lat":39.813056,"lng":-0.430833,"addr":"CARRETERA TERUEL, S/N KM. 0","city":"SONEJA","cp":"12480","fuels":{"Gazole":{"p":1.479,"d":"2026-07-14"},"SP95":{"p":1.419,"d":"2026-07-14"}},"brand":"Coop. Nª Sª De La Asuncion De Soneja","h24":true},{"id":100012100,"lat":39.811278,"lng":-0.428222,"addr":"CARRETERA TERUEL KM. 24","city":"SONEJA","cp":"12480","fuels":{"Gazole":{"p":1.48,"d":"2026-07-14"},"SP95":{"p":1.419,"d":"2026-07-14"}},"brand":"Transportes Rodolfo Y Ventura","h24":true},{"id":100003646,"lat":39.782917,"lng":-0.39375,"addr":"CARRETERA SAGUNTO-BURGOS KM. 19,6","city":"SOT DE FERRER","cp":"12489","fuels":{"Gazole":{"p":1.665,"d":"2026-07-14"},"SP95":{"p":1.629,"d":"2026-07-14"},"SP98":{"p":1.749,"d":"2026-07-14"}},"brand":"Repsol","h24":true},{"id":100003617,"lat":40.222083,"lng":0.201056,"addr":"N-340 km 1011,6","city":"TORREBLANCA","cp":"12596","fuels":{"Gazole":{"p":1.665,"d":"2026-07-14"},"SP95":{"p":1.599,"d":"2026-07-14"}},"brand":"Repsol","h24":true},{"id":100003619,"lat":40.221889,"lng":0.201167,"addr":"CARRETERA N-340 KM. 1011,6","city":"TORREBLANCA","cp":"12596","fuels":{"Gazole":{"p":1.665,"d":"2026-07-14"},"SP95":{"p":1.599,"d":"2026-07-14"},"SP98":{"p":1.769,"d":"2026-07-14"}},"brand":"Repsol"},{"id":100009019,"lat":40.178306,"lng":-0.033583,"addr":"AVENIDA VILAFRANCA, 66","city":"VALL D'ALBA","cp":"12194","fuels":{"Gazole":{"p":1.58,"d":"2026-07-14"},"SP95":{"p":1.5,"d":"2026-07-14"}},"brand":"Coop. Agraria San Isidro De Vall D'Alba, Coop.V.","h24":true},{"id":100003563,"lat":40.192639,"lng":-0.045389,"addr":"CV-15 km 11,4","city":"VALL D'ALBA","cp":"12194","fuels":{"Gazole":{"p":1.659,"d":"2026-07-14"},"SP95":{"p":1.657,"d":"2026-07-14"},"SP98":{"p":1.798,"d":"2026-07-14"}},"brand":"Repsol"},{"id":100015022,"lat":39.822306,"lng":-0.218639,"addr":"CALLE MOLINO MARCO, 21","city":"VALL D'UIXO (LA)","cp":"12600","fuels":{"Gazole":{"p":1.469,"d":"2026-07-14"},"SP95":{"p":1.419,"d":"2026-07-14"}},"brand":"Plenergy","h24":true},{"id":100016364,"lat":39.814472,"lng":-0.229389,"addr":"AVENIDA DE EUROPA, 7","city":"VALL D'UIXO (LA)","cp":"12600","fuels":{"Gazole":{"p":1.469,"d":"2026-07-14"},"SP95":{"p":1.419,"d":"2026-07-14"}},"brand":"Petroprix","h24":true},{"id":100003671,"lat":39.827833,"lng":-0.22525,"addr":"CALLE ANDALUCIA, 32","city":"VALL D'UIXO (LA)","cp":"12600","fuels":{"Gazole":{"p":1.669,"d":"2026-07-14"},"SP95":{"p":1.629,"d":"2026-07-14"},"SP98":{"p":1.759,"d":"2026-07-14"}},"brand":"BP"},{"id":100003622,"lat":39.822556,"lng":-0.221278,"addr":"AVENIDA CORAZON DE JESUS, 170","city":"VALL D'UIXO (LA)","cp":"12600","fuels":{"Gazole":{"p":1.639,"d":"2026-07-14"},"SP95":{"p":1.589,"d":"2026-07-14"},"SP98":{"p":1.729,"d":"2026-07-14"}},"brand":"Bp Vall D'Uxo"},{"id":100003513,"lat":39.8245,"lng":-0.212722,"addr":"CR C-225, 23,3","city":"VALL D'UIXO (LA)","cp":"12600","fuels":{"Gazole":{"p":1.65,"d":"2026-07-14"},"SP95":{"p":1.636,"d":"2026-07-14"}},"brand":"Randero"},{"id":100003630,"lat":39.818583,"lng":-0.233306,"addr":"AVENIDA JAIME I,","city":"VALL D'UIXO (LA)","cp":"12600","fuels":{"Gazole":{"p":1.649,"d":"2026-07-14"},"SP95":{"p":1.589,"d":"2026-07-14"},"SP98":{"p":1.749,"d":"2026-07-14"}},"brand":"Bp El Pont"},{"id":100011725,"lat":39.821806,"lng":-0.212472,"addr":"CALLE CIUTAT DE LALGUER, 15","city":"VALL D'UIXO (LA)","cp":"12600","fuels":{"Gazole":{"p":1.539,"d":"2026-07-14"},"SP95":{"p":1.519,"d":"2026-07-14"},"SP98":{"p":1.699,"d":"2026-07-14"}},"brand":"Coop. Isidro La Vall"},{"id":100001952,"lat":39.8155,"lng":-0.230278,"addr":"PARQUE COMERCIAL CINCOVALL, 5","city":"VALL D'UIXO (LA)","cp":"12600","fuels":{"Gazole":{"p":1.484,"d":"2026-07-14"},"SP95":{"p":1.484,"d":"2026-07-14"}},"brand":"Vcc La Vall","h24":true},{"id":100013133,"lat":39.811556,"lng":-0.227333,"addr":"AVINGUDA EUROPA, 15","city":"VALL D'UIXO (LA)","cp":"12600","fuels":{"Gazole":{"p":1.469,"d":"2026-07-14"},"SP95":{"p":1.419,"d":"2026-07-14"}},"brand":"GasExpress","h24":true},{"id":100009030,"lat":40.118417,"lng":-0.051806,"addr":"CARRER SAN MIGUEL, 87","city":"VILAFAMES","cp":"12192","fuels":{"Gazole":{"p":1.588,"d":"2026-07-14"},"SP95":{"p":1.538,"d":"2026-07-14"}},"brand":"Coop. San Isidro De Vilafames","h24":true},{"id":100008263,"lat":40.432028,"lng":-0.251444,"addr":"AVINGUDA DE CASTELLO, 96","city":"VILLAFRANCA DEL CID","cp":"12150","fuels":{"Gazole":{"p":1.699,"d":"2026-07-14"},"SP95":{"p":1.649,"d":"2026-07-14"}},"brand":"Cepsa"},{"id":100003702,"lat":39.942444,"lng":-0.109639,"addr":"CARRETERA ONDA NUMERO 11 KM. 0","city":"VILLARREAL","cp":"12540","fuels":{"Gazole":{"p":1.639,"d":"2026-07-14"},"SP95":{"p":1.599,"d":"2026-07-14"},"SP98":{"p":1.739,"d":"2026-07-14"}},"brand":"Bp Villareal Grupo Maicas Peiro S.L.U."},{"id":100010259,"lat":39.943333,"lng":-0.116528,"addr":"VIVER-PTO BURRIANA km 65,3","city":"VILLARREAL","cp":"12540","fuels":{"Gazole":{"p":1.619,"d":"2026-07-14"},"SP95":{"p":1.597,"d":"2026-07-14"}},"brand":"Cepsa"},{"id":100003543,"lat":39.945861,"lng":-0.094444,"addr":"AVENIDA CASTELLON, 33","city":"VILLARREAL","cp":"12540","fuels":{"Gazole":{"p":1.589,"d":"2026-07-14"},"SP95":{"p":1.577,"d":"2026-07-14"},"SP98":{"p":1.774,"d":"2026-07-14"}},"brand":"Moeve"},{"id":100012871,"lat":39.92975,"lng":-0.097556,"addr":"CARRETERA BURRIANA KM. 80","city":"VILLARREAL","cp":"12540","fuels":{"Gazole":{"p":1.639,"d":"2026-07-14"},"SP95":{"p":1.599,"d":"2026-07-14"},"SP98":{"p":1.739,"d":"2026-07-14"}},"brand":"Bp Vehicles-Villa Real"},{"id":100001909,"lat":39.938611,"lng":-0.091583,"addr":"AVDA. DE FRANCIA, 62-66","city":"VILLARREAL","cp":"12540","fuels":{"Gazole":{"p":1.659,"d":"2026-07-14"},"SP95":{"p":1.615,"d":"2026-07-14"},"SP98":{"p":1.785,"d":"2026-07-14"}},"brand":"Repsol"},{"id":100013138,"lat":39.932306,"lng":-0.109222,"addr":"AVENIDA ITALIA, 58","city":"VILLARREAL","cp":"12540","fuels":{"Gazole":{"p":1.347,"d":"2026-07-14"},"SP95":{"p":1.339,"d":"2026-07-14"}},"brand":"Petroprix","h24":true},{"id":100001953,"lat":39.929528,"lng":-0.105139,"addr":"AVENIDA MATILDE SALVADOR, S/N","city":"VILLARREAL","cp":"12540","fuels":{"Gazole":{"p":1.459,"d":"2026-07-14"},"SP95":{"p":1.469,"d":"2026-07-14"},"SP98":{"p":1.719,"d":"2026-07-14"}},"brand":"Carrefour","h24":true},{"id":100001961,"lat":39.930528,"lng":-0.107389,"addr":"AVENIDA AV ITALIA S/N,","city":"VILLARREAL","cp":"12540","fuels":{"Gazole":{"p":1.347,"d":"2026-07-14"},"SP95":{"p":1.339,"d":"2026-07-14"}},"brand":"Petroprix","h24":true},{"id":100003556,"lat":39.949861,"lng":-0.085083,"addr":"CARRETERA N-340 VALENCIA-BARCELONA KM. 60,7","city":"VILLARREAL","cp":"12540","fuels":{"Gazole":{"p":1.384,"d":"2026-07-14"},"SP95":{"p":1.347,"d":"2026-07-14"}},"brand":"BonÀrea","h24":true},{"id":100016102,"lat":39.931917,"lng":-0.098167,"addr":"AVENIDA EUROPA, 1","city":"VILLARREAL","cp":"12540","fuels":{"Gazole":{"p":1.347,"d":"2026-07-14"},"SP95":{"p":1.339,"d":"2026-07-14"}},"brand":"Plenergy","h24":true},{"id":100014486,"lat":39.952611,"lng":-0.110833,"addr":"CARRER DE L'ERMITA, 256","city":"VILLARREAL","cp":"12540","fuels":{"Gazole":{"p":1.384,"d":"2026-07-14"},"SP95":{"p":1.357,"d":"2026-07-14"}},"brand":"Red Car Oil","h24":true},{"id":100008893,"lat":39.947944,"lng":-0.089444,"addr":"AVENIDA CASTELLO, 75","city":"VILLARREAL","cp":"12540","fuels":{"Gazole":{"p":1.509,"d":"2026-07-14"},"SP95":{"p":1.489,"d":"2026-07-14"},"GPLc":{"p":1.099,"d":"2026-07-14"}},"brand":"Cooperativa Catolico Agraria Coop.V.","h24":true},{"id":100013124,"lat":39.9465,"lng":-0.091861,"addr":"AVENIDA CASTELLÓN, 54","city":"VILLARREAL","cp":"12540","fuels":{"Gazole":{"p":1.389,"d":"2026-07-14"},"SP95":{"p":1.399,"d":"2026-07-14"}},"brand":"GasExpress","h24":true},{"id":100012050,"lat":39.855306,"lng":-0.185556,"addr":"CARRETERA VALL DUIXÓ KM. 1","city":"VILAVELLA (LA)","cp":"12526","fuels":{"Gazole":{"p":1.489,"d":"2026-07-14"},"SP95":{"p":1.459,"d":"2026-07-14"}},"brand":"Cooperativa Agricola Sant Josep","h24":true},{"id":100001939,"lat":40.483778,"lng":0.475167,"addr":"CARRETERA N-340 KM. 1053","city":"VINAROS","cp":"12500","fuels":{"Gazole":{"p":1.319,"d":"2026-07-14"},"SP95":{"p":1.319,"d":"2026-07-14"},"SP98":{"p":1.459,"d":"2026-07-14"}},"brand":"Family Energy","h24":true},{"id":100010627,"lat":40.468889,"lng":0.465139,"addr":"CARRETERA N-340 KM. 1051","city":"VINAROS","cp":"12500","fuels":{"Gazole":{"p":1.738,"d":"2026-07-14"},"SP95":{"p":1.64,"d":"2026-07-14"},"SP98":{"p":1.862,"d":"2026-07-14"}},"brand":"Moeve","h24":true},{"id":100003654,"lat":40.468389,"lng":0.464278,"addr":"CARRETERA N 340 KM. 142,20","city":"VINAROS","cp":"12500","fuels":{"Gazole":{"p":1.738,"d":"2026-07-14"},"SP95":{"p":1.64,"d":"2026-07-14"}},"brand":"Moeve"},{"id":100001954,"lat":40.455167,"lng":0.451944,"addr":"CARRETERA NACIONAL 340 A PLAN PARCIAL 1 KM. 1049","city":"VINAROS","cp":"12500","fuels":{"Gazole":{"p":1.419,"d":"2026-07-14"},"SP95":{"p":1.439,"d":"2026-07-14"},"SP98":{"p":1.729,"d":"2026-07-14"}},"brand":"Carrefour","h24":true},{"id":100016496,"lat":40.464056,"lng":0.4645,"addr":"CALLE SANTAELLA, 30","city":"VINAROS","cp":"12500","fuels":{"Gazole":{"p":1.345,"d":"2026-07-14"},"SP95":{"p":1.333,"d":"2026-07-14"}},"brand":"BonÀrea","h24":true},{"id":100015927,"lat":40.481667,"lng":0.473333,"addr":"CARRETERA VALENCIA - BARCELONA KM. 37","city":"VINAROS","cp":"12500","fuels":{"Gazole":{"p":1.335,"d":"2026-07-14"},"SP95":{"p":1.319,"d":"2026-07-14"}},"brand":"Plenergy","h24":true},{"id":100015924,"lat":40.481444,"lng":0.473528,"addr":"CARRETERA VALENCIA-BARCELONA KM. 60","city":"VINAROS","cp":"12500","fuels":{"Gazole":{"p":1.335,"d":"2026-07-14"},"SP95":{"p":1.319,"d":"2026-07-14"}},"brand":"Plenergy","h24":true},{"id":100015889,"lat":40.45675,"lng":0.45,"addr":"CALLE DELS DAURADORS, 16","city":"VINAROS","cp":"12500","fuels":{"Gazole":{"p":1.399,"d":"2026-07-14"},"SP95":{"p":1.369,"d":"2026-07-14"}},"brand":"Gm Oil","h24":true},{"id":100012824,"lat":40.455333,"lng":0.452861,"addr":"CALLE DAURADORS, 8","city":"VINAROS","cp":"12500","fuels":{"Gazole":{"p":1.349,"d":"2026-07-14"},"SP95":{"p":1.347,"d":"2026-07-14"}},"brand":"Gasexpress Vinaroz","h24":true},{"id":100003489,"lat":40.46325,"lng":0.464083,"addr":"AVENIDA CASTELLON, 30","city":"VINAROS","cp":"12500","fuels":{"Gazole":{"p":1.335,"d":"2026-07-14"},"SP95":{"p":1.319,"d":"2026-07-14"}},"brand":"Plenergy","h24":true},{"id":100010104,"lat":40.2945,"lng":-0.289667,"addr":"AVENIDA CASTELLON, S/N","city":"VISTABELLA DEL MAESTRAZGO","cp":"12135","fuels":{"Gazole":{"p":1.834,"d":"2026-07-14"},"SP95":{"p":1.839,"d":"2026-07-14"}},"brand":"Repsol","h24":true},{"id":100009033,"lat":39.919361,"lng":-0.594361,"addr":"C/ ABADIA, Nº 4","city":"VIVER","cp":"12460","fuels":{"Gazole":{"p":1.529,"d":"2026-07-14"},"SP95":{"p":1.499,"d":"2026-07-14"}},"brand":"Cooperativa De Viver","h24":true}]