[{"id":100014195,"lat":43.274111,"lng":-2.129028,"addr":"CALLE UBEGUN INDUSTRIGUNEA, 1","city":"AIA","cp":"20809","fuels":{"Gazole":{"p":1.559,"d":"2026-07-14"},"SP95":{"p":1.559,"d":"2026-07-14"}},"brand":"Petroprix","h24":true},{"id":100015385,"lat":43.237028,"lng":-2.152194,"addr":"BARRIO ARRUTIEGIA, 31","city":"ARRUTIEGIA","cp":"20809","fuels":{"Gazole":{"p":1.629,"d":"2026-07-14"},"SP95":{"p":1.629,"d":"2026-07-14"}},"brand":"Si"},{"id":100010340,"lat":43.206667,"lng":-2.034417,"addr":"POL. IND. KARRIKA. PARCELA 6","city":"ANDOAIN","cp":"20140","fuels":{"Gazole":{"p":1.509,"d":"2026-07-14"},"SP95":{"p":1.499,"d":"2026-07-14"},"SP98":{"p":1.599,"d":"2026-07-14"}},"brand":"Petromiralles","h24":true},{"id":100016316,"lat":43.218639,"lng":-2.021194,"addr":"CALLE BO SORAVILLA, 998","city":"ANDOAIN","cp":"20140","fuels":{"Gazole":{"p":1.489,"d":"2026-07-14"},"SP95":{"p":1.499,"d":"2026-07-14"}},"brand":"Euskadi Low Cost","h24":true},{"id":100012647,"lat":43.232028,"lng":-2.000389,"addr":"POLIGONO INDUSTRIAL LEIZOTZ, PARCELA A-1, N","city":"LEIZOTZ","cp":"20140","fuels":{"Gazole":{"p":1.675,"d":"2026-07-14"},"SP95":{"p":1.665,"d":"2026-07-14"}},"brand":"Moeve"},{"id":100015971,"lat":43.155306,"lng":-2.069111,"addr":"POLIGONO BENTA ALDEA, 4","city":"ANOETA","cp":"20270","fuels":{"Gazole":{"p":1.409,"d":"2026-07-14"},"SP95":{"p":1.389,"d":"2026-07-14"}},"brand":"Petroprix","h24":true},{"id":100012158,"lat":43.063333,"lng":-2.476111,"addr":"AUTOPISTA AP-1 KM. 129","city":"ARRASATE/MONDRAGON","cp":"20500","fuels":{"Gazole":{"p":1.655,"d":"2026-07-14"},"SP95":{"p":1.629,"d":"2026-07-14"},"SP98":{"p":1.749,"d":"2026-07-14"},"GPLc":{"p":1.095,"d":"2026-07-14"}},"brand":"Repsol","h24":true},{"id":100000036,"lat":43.070694,"lng":-2.475278,"addr":"BARRIO MUSAKOLA, S/N","city":"ARRASATE/MONDRAGON","cp":"20500","fuels":{"Gazole":{"p":1.449,"d":"2026-07-14"},"SP95":{"p":1.377,"d":"2026-07-14"}},"brand":"Eroski"},{"id":100000014,"lat":43.048694,"lng":-2.4975,"addr":"SAN ANDRÉS AUZOA, 7 (BERGARA-VITORIA C-6213 km 80,3)","city":"ARRASATE/MONDRAGON","cp":"20500","fuels":{"Gazole":{"p":1.495,"d":"2026-07-14"},"SP95":{"p":1.525,"d":"2026-07-14"},"SP98":{"p":1.66,"d":"2026-07-14"},"GPLc":{"p":0.929,"d":"2026-07-14"}},"brand":"Avia"},{"id":100014359,"lat":43.048472,"lng":-2.49875,"addr":"BARRIO SAN ANDRES AUZOA, 7","city":"ARRASATE/MONDRAGON","cp":"20500","fuels":{"Gazole":{"p":1.489,"d":"2026-07-14"},"SP95":{"p":1.439,"d":"2026-07-14"}},"brand":"Galp"},{"id":100015827,"lat":43.058694,"lng":-2.4935,"addr":"CALLE ARABA HIRIBIDEA, 32","city":"ARRASATE/MONDRAGON","cp":"20500","fuels":{"Gazole":{"p":1.429,"d":"2026-07-14"},"SP95":{"p":1.357,"d":"2026-07-14"}},"brand":"Petroprix"},{"id":100000097,"lat":43.067028,"lng":-2.478333,"addr":"CL AVDA. DE GUIPUZCOA, 34","city":"ARRASATE/MONDRAGON","cp":"20500","fuels":{"Gazole":{"p":1.675,"d":"2026-07-14"},"SP95":{"p":1.629,"d":"2026-07-14"},"SP98":{"p":1.799,"d":"2026-07-14"}},"brand":"Petronor"},{"id":100014946,"lat":43.282583,"lng":-1.951278,"addr":"CAMINO DONOSTIA IBILBIDEA, 60","city":"ASTIGARRAGA","cp":"20115","fuels":{"Gazole":{"p":1.499,"d":"2026-07-14"},"SP95":{"p":1.539,"d":"2026-07-14"}},"brand":"Fuel Truck"},{"id":100000002,"lat":43.281972,"lng":-1.916778,"addr":"CARRETERA GI-2132 ASTIGARRAGA-OIARTZUN KM. 10","city":"ASTIGARRAGA","cp":"20115","fuels":{"Gazole":{"p":1.499,"d":"2026-07-14"},"SP95":{"p":1.499,"d":"2026-07-14"}},"brand":"Onroad 24"},{"id":100000007,"lat":43.015361,"lng":-2.1765,"addr":"POLIGONO ZUBIKOETA, 1","city":"SAN MARTIN","cp":"20211","fuels":{"Gazole":{"p":1.659,"d":"2026-07-14"},"SP95":{"p":1.639,"d":"2026-07-14"},"SP98":{"p":1.819,"d":"2026-07-14"}},"brand":"Avia"},{"id":100014451,"lat":43.172361,"lng":-2.303167,"addr":"BARRIO BAZTERRETXE AUZOA, 2","city":"AZKOITIA","cp":"20720","fuels":{"Gazole":{"p":1.479,"d":"2026-07-14"},"SP95":{"p":1.417,"d":"2026-07-14"}},"brand":"Eroski","h24":true},{"id":100000089,"lat":43.176444,"lng":-2.312056,"addr":"CALLE IBAI ONDO, 14","city":"AZKOITIA","cp":"20720","fuels":{"Gazole":{"p":1.599,"d":"2026-07-14"},"SP95":{"p":1.588,"d":"2026-07-14"}},"brand":"Avia"},{"id":100000008,"lat":43.189667,"lng":-2.258778,"addr":"CR GI-631  P.K. 12,20 D","city":"AZPEITIA","cp":"20730","fuels":{"Gazole":{"p":1.599,"d":"2026-07-14"},"SP95":{"p":1.588,"d":"2026-07-14"},"SP98":{"p":1.726,"d":"2026-07-14"}},"brand":"Avia"},{"id":100010656,"lat":43.178083,"lng":-2.291139,"addr":"POLIGONO BASARTE, 6","city":"AZPEITIA","cp":"20730","fuels":{"Gazole":{"p":1.499,"d":"2026-07-14"},"SP95":{"p":1.529,"d":"2026-07-14"},"SP98":{"p":1.726,"d":"2026-07-14"}},"brand":"Urkide","h24":true},{"id":100000031,"lat":43.20375,"lng":-2.253472,"addr":"CARRETERA GI-631 KM. 10,5","city":"AZPEITIA","cp":"20730","fuels":{"Gazole":{"p":1.529,"d":"2026-07-14"},"SP95":{"p":1.499,"d":"2026-07-14"}},"brand":"Petro Swap"},{"id":100016112,"lat":43.175861,"lng":-2.252194,"addr":"POLIGONO LANDETA, 33","city":"AZPEITIA","cp":"20730","fuels":{"Gazole":{"p":1.509,"d":"2026-07-14"},"SP95":{"p":1.437,"d":"2026-07-14"}},"brand":"Gugas","h24":true},{"id":100000030,"lat":43.203861,"lng":-2.253778,"addr":"CARRETERA GI-631 KM. 10,6","city":"AZPEITIA","cp":"20730","fuels":{"Gazole":{"p":1.509,"d":"2026-07-14"},"SP95":{"p":1.479,"d":"2026-07-14"}},"brand":"Petro Swap","h24":true},{"id":100000139,"lat":43.048222,"lng":-2.227278,"addr":"CR GI-632  BEASAIN-DURANGO, 1,7","city":"BEASAIN","cp":"20200","fuels":{"Gazole":{"p":1.689,"d":"2026-07-14"},"SP95":{"p":1.629,"d":"2026-07-14"},"SP98":{"p":1.799,"d":"2026-07-14"},"GPLc":{"p":1.095,"d":"2026-07-14"}},"brand":"Repsol"},{"id":100000144,"lat":43.045278,"lng":-2.194806,"addr":"CR  N-1 ,P.K. 419","city":"BEASAIN","cp":"20200","fuels":{"Gazole":{"p":1.659,"d":"2026-07-14"},"SP95":{"p":1.639,"d":"2026-07-14"},"SP98":{"p":1.819,"d":"2026-07-14"}},"brand":"Repsol","h24":true},{"id":100000069,"lat":43.045861,"lng":-2.234583,"addr":"CARRETERA GI-2632 KM. 2","city":"BEASAIN","cp":"20200","fuels":{"Gazole":{"p":1.589,"d":"2026-07-14"},"SP95":{"p":1.579,"d":"2026-07-14"},"SP98":{"p":1.699,"d":"2026-07-14"}},"brand":"Galp"},{"id":100000080,"lat":43.050028,"lng":-2.220417,"addr":"CR GI-632, 1","city":"BEASAIN","cp":"20200","fuels":{"Gazole":{"p":1.679,"d":"2026-07-14"},"SP95":{"p":1.629,"d":"2026-07-14"},"SP98":{"p":1.799,"d":"2026-07-14"}},"brand":"Repsol"},{"id":100015806,"lat":43.105083,"lng":-2.420611,"addr":"CALLE TELLERIA - POLIGONO INDUSTRIAL LABEGARAIETA, PARCELA P4 B, 16","city":"BERGARA","cp":"20570","fuels":{"Gazole":{"p":1.695,"d":"2026-07-14"},"SP95":{"p":1.685,"d":"2026-07-14"}},"brand":"Cepsa"},{"id":100016282,"lat":43.126389,"lng":-2.4225,"addr":"CALLE ANTXITURRI, 1","city":"BERGARA","cp":"20570","fuels":{"Gazole":{"p":1.459,"d":"2026-07-14"},"SP95":{"p":1.387,"d":"2026-07-14"}},"brand":"Petroprix"},{"id":100013520,"lat":43.107861,"lng":-2.406556,"addr":"CALLE URTEAGA, 28","city":"BERGARA","cp":"20570","fuels":{"Gazole":{"p":1.599,"d":"2026-07-14"},"SP95":{"p":1.599,"d":"2026-07-14"},"SP98":{"p":1.699,"d":"2026-07-14"},"GPLc":{"p":0.899,"d":"2026-07-14"}},"brand":"Avia","h24":true},{"id":100013788,"lat":43.122694,"lng":-2.425306,"addr":"CALLE LEIZEAGA, 7","city":"BERGARA","cp":"20570","fuels":{"Gazole":{"p":1.429,"d":"2026-07-14"},"SP95":{"p":1.357,"d":"2026-07-14"}},"brand":"Eroski","h24":true},{"id":100000130,"lat":43.125833,"lng":-2.423889,"addr":"CALLE AMILLAGA, 17","city":"BERGARA","cp":"20570","fuels":{"Gazole":{"p":1.665,"d":"2026-07-14"},"SP95":{"p":1.629,"d":"2026-07-14"},"SP98":{"p":1.789,"d":"2026-07-14"}},"brand":"Repsol"},{"id":100015841,"lat":43.123417,"lng":-2.423028,"addr":"CALLE SANTALAITZ KALEA, 3","city":"BASALGO","cp":"20570","fuels":{"Gazole":{"p":1.459,"d":"2026-07-14"},"SP95":{"p":1.387,"d":"2026-07-14"}},"brand":"Plenergy","h24":true},{"id":100000067,"lat":43.293806,"lng":-2.341111,"addr":"CARRETERA N 634 KM. 0","city":"DEBA","cp":"20820","fuels":{"Gazole":{"p":1.649,"d":"2026-07-14"},"SP95":{"p":1.629,"d":"2026-07-14"}},"brand":"Galp"},{"id":100000068,"lat":43.294167,"lng":-2.340833,"addr":"CARRETERA N 634 KM. 41","city":"DEBA","cp":"20820","fuels":{"Gazole":{"p":1.649,"d":"2026-07-14"},"SP95":{"p":1.629,"d":"2026-07-14"},"SP98":{"p":1.739,"d":"2026-07-14"}},"brand":"Galp"},{"id":100000070,"lat":43.284944,"lng":-2.328222,"addr":"AP-8 (MRG.IZDO.) km 55","city":"ITZIAR","cp":"20829","fuels":{"Gazole":{"p":1.659,"d":"2026-07-14"},"SP95":{"p":1.659,"d":"2026-07-14"},"SP98":{"p":1.779,"d":"2026-07-14"}},"brand":"Avia","h24":true},{"id":100000071,"lat":43.284528,"lng":-2.329861,"addr":"AP-8 (MRG.DCHO.) km 55","city":"ITZIAR","cp":"20829","fuels":{"Gazole":{"p":1.659,"d":"2026-07-14"},"SP95":{"p":1.659,"d":"2026-07-14"},"SP98":{"p":1.779,"d":"2026-07-14"}},"brand":"Avia","h24":true},{"id":100000084,"lat":43.299889,"lng":-2.002111,"addr":"CL AVENIDA DE TOLOSA, 188","city":"DONOSTIA-SAN SEBASTIAN","cp":"20009","fuels":{"Gazole":{"p":1.659,"d":"2026-07-14"},"SP95":{"p":1.655,"d":"2026-07-14"},"SP98":{"p":1.775,"d":"2026-07-14"},"GPLc":{"p":1.115,"d":"2026-07-14"}},"brand":"Repsol","h24":true},{"id":100000093,"lat":43.309028,"lng":-1.981472,"addr":"PASEO ERRONDO, 7","city":"DONOSTIA-SAN SEBASTIAN","cp":"20010","fuels":{"Gazole":{"p":1.655,"d":"2026-07-14"},"SP95":{"p":1.659,"d":"2026-07-14"},"SP98":{"p":1.779,"d":"2026-07-14"}},"brand":"Repsol"},{"id":100015598,"lat":43.302139,"lng":-1.951361,"addr":"PASEO UBARBURU, 6","city":"DONOSTIA-SAN SEBASTIAN","cp":"20014","fuels":{"Gazole":{"p":1.474,"d":"2026-07-14"},"SP95":{"p":1.484,"d":"2026-07-14"}},"brand":"Euskadilowcost","h24":true},{"id":100008101,"lat":43.295972,"lng":-1.966806,"addr":"PASEO DR. BEGIRISTAIN, 66","city":"DONOSTIA-SAN SEBASTIAN","cp":"20014","fuels":{"Gazole":{"p":1.675,"d":"2026-07-14"},"SP95":{"p":1.665,"d":"2026-07-14"},"SP98":{"p":1.837,"d":"2026-07-14"}},"brand":"Cepsa"},{"id":100000006,"lat":43.297083,"lng":-1.96625,"addr":"PASEO DR. BEGIRISTAIN, 75","city":"DONOSTIA-SAN SEBASTIAN","cp":"20014","fuels":{"Gazole":{"p":1.675,"d":"2026-07-14"},"SP95":{"p":1.665,"d":"2026-07-14"},"SP98":{"p":1.837,"d":"2026-07-14"}},"brand":"Cepsa","h24":true},{"id":100016376,"lat":43.302194,"lng":-1.951722,"addr":"PASEO UBARBURU, 4","city":"DONOSTIA-SAN SEBASTIAN","cp":"20014","fuels":{"Gazole":{"p":1.439,"d":"2026-07-14"},"SP95":{"p":1.449,"d":"2026-07-14"}},"brand":"Plenergy","h24":true},{"id":100000079,"lat":43.285972,"lng":-1.984056,"addr":"PASEO DEL DOCTOR BEGUIRISTAIN, 271","city":"DONOSTIA-SAN SEBASTIAN","cp":"20014","fuels":{"Gazole":{"p":1.649,"d":"2026-07-14"},"SP95":{"p":1.659,"d":"2026-07-14"},"SP98":{"p":1.779,"d":"2026-07-14"},"GPLc":{"p":1.115,"d":"2026-07-14"}},"brand":"Repsol","h24":true},{"id":100000057,"lat":43.325194,"lng":-1.975111,"addr":"CL AVENIDA DE LA ZURRIOLA, 32","city":"DONOSTIA-SAN SEBASTIAN","cp":"20002","fuels":{"Gazole":{"p":1.649,"d":"2026-07-14"},"SP95":{"p":1.629,"d":"2026-07-14"},"SP98":{"p":1.799,"d":"2026-07-14"}},"brand":"Petronor"},{"id":100011154,"lat":43.304556,"lng":-1.949639,"addr":"VIAL MARTUTENE-INCHAURRONDO km 5,5","city":"DONOSTIA-SAN SEBASTIAN","cp":"20012","fuels":{"Gazole":{"p":1.497,"d":"2026-07-14"},"SP95":{"p":1.519,"d":"2026-07-14"},"SP98":{"p":1.659,"d":"2026-07-14"}},"brand":"Avia","h24":true},{"id":100000017,"lat":43.325889,"lng":-1.970639,"addr":"AVDA.DE NAVARRA 5","city":"DONOSTIA-SAN SEBASTIAN","cp":"20013","fuels":{"Gazole":{"p":1.659,"d":"2026-07-14"},"SP95":{"p":1.659,"d":"2026-07-14"},"SP98":{"p":1.789,"d":"2026-07-14"}},"brand":"Avia"},{"id":100000035,"lat":43.311194,"lng":-1.943889,"addr":"CALLE GARBERA BIDEA, 2","city":"DONOSTIA-SAN SEBASTIAN","cp":"20015","fuels":{"Gazole":{"p":1.439,"d":"2026-07-14"},"SP95":{"p":1.459,"d":"2026-07-14"}},"brand":"Eroski","h24":true},{"id":100016213,"lat":43.300861,"lng":-2.02025,"addr":"CALLE PORTUETXE, 85","city":"DONOSTIA-SAN SEBASTIAN","cp":"20018","fuels":{"Gazole":{"p":1.499,"d":"2026-07-14"},"SP95":{"p":1.499,"d":"2026-07-14"}},"brand":"Onroad 24"},{"id":100000143,"lat":43.301083,"lng":-2.002528,"addr":"CL DE ZARAUTZ , 136","city":"DONOSTIA-SAN SEBASTIAN","cp":"20018","fuels":{"Gazole":{"p":1.669,"d":"2026-07-14"},"SP95":{"p":1.655,"d":"2026-07-14"},"SP98":{"p":1.775,"d":"2026-07-14"}},"brand":"Repsol"},{"id":100000027,"lat":43.25425,"lng":-2.023,"addr":"AVENIDA HIPODROMO, S/N","city":"ZUBIETA","cp":"20160","fuels":{"Gazole":{"p":1.689,"d":"2026-07-14"},"SP95":{"p":1.639,"d":"2026-07-14"}},"brand":"Galp","h24":true},{"id":100000110,"lat":43.247361,"lng":-2.02525,"addr":"AUTOVIA A-1 KM. 454,600","city":"ZUBIETA","cp":"20160","fuels":{"Gazole":{"p":1.675,"d":"2026-07-14"},"SP95":{"p":1.685,"d":"2026-07-14"}},"brand":"Moeve","h24":true},{"id":100000103,"lat":43.321667,"lng":-1.943667,"addr":"AVENIDA SAN PEDRO, 3","city":"DONOSTIA-SAN SEBASTIAN","cp":"20017","fuels":{"Gazole":{"p":1.649,"d":"2026-07-14"},"SP95":{"p":1.649,"d":"2026-07-14"},"SP98":{"p":1.789,"d":"2026-07-14"}},"brand":"Repsol"},{"id":100000018,"lat":43.181611,"lng":-2.482917,"addr":"CALLE OTAOLA, 13","city":"EIBAR","cp":"20600","fuels":{"Gazole":{"p":1.559,"d":"2026-07-14"},"SP95":{"p":1.529,"d":"2026-07-14"},"SP98":{"p":1.629,"d":"2026-07-14"}},"brand":"Avia-Kantoi"},{"id":100016263,"lat":43.189028,"lng":-2.463056,"addr":"CALLE ASUA ERREKA, 11","city":"EIBAR","cp":"20600","fuels":{"Gazole":{"p":1.409,"d":"2026-07-14"},"SP95":{"p":1.379,"d":"2026-07-14"}},"brand":"Ballenoil","h24":true},{"id":100000023,"lat":43.189972,"lng":-2.454556,"addr":"CALLE BARRENA, 19","city":"EIBAR","cp":"20600","fuels":{"Gazole":{"p":1.599,"d":"2026-07-14"},"SP95":{"p":1.599,"d":"2026-07-14"},"SP98":{"p":1.699,"d":"2026-07-14"},"GPLc":{"p":0.999,"d":"2026-07-14"}},"brand":"Avia-Acitain"},{"id":100000009,"lat":43.180389,"lng":-2.487861,"addr":"CALLE TORREKUA, 02","city":"EIBAR","cp":"20600","fuels":{"Gazole":{"p":1.459,"d":"2026-07-14"},"SP95":{"p":1.387,"d":"2026-07-14"}},"brand":"Ballenoil","h24":true},{"id":100000115,"lat":43.219167,"lng":-2.40875,"addr":"CALLE DEBA, 21","city":"ELGOIBAR","cp":"20870","fuels":{"Gazole":{"p":1.659,"d":"2026-07-14"},"SP95":{"p":1.679,"d":"2026-07-14"},"SP98":{"p":1.859,"d":"2026-07-14"}},"brand":"Repsol"},{"id":100014649,"lat":43.221333,"lng":-2.406611,"addr":"CALLE LERUN TXIKI MORTERIKA, 2","city":"ELGOIBAR","cp":"20870","fuels":{"Gazole":{"p":1.609,"d":"2026-07-14"},"SP95":{"p":1.639,"d":"2026-07-14"},"SP98":{"p":1.799,"d":"2026-07-14"},"GPLc":{"p":0.999,"d":"2026-07-14"}},"brand":"Mlc","h24":true},{"id":100015224,"lat":43.210333,"lng":-2.419139,"addr":"CALLE ZIZILION, 3","city":"ELGOIBAR","cp":"20870","fuels":{"Gazole":{"p":1.429,"d":"2026-07-14"},"SP95":{"p":1.449,"d":"2026-07-14"}},"brand":"Petroprix"},{"id":100014507,"lat":43.295417,"lng":-1.899194,"addr":"PASEO EGIBURUBERRI, 6","city":"ERRENTERIA","cp":"20100","fuels":{"Gazole":{"p":1.459,"d":"2026-07-14"},"SP95":{"p":1.459,"d":"2026-07-14"}},"brand":"Urepel","h24":true},{"id":100000072,"lat":43.316139,"lng":-1.905194,"addr":"AVENIDA NAVARRA, 81","city":"RENTERIA","cp":"20100","fuels":{"Gazole":{"p":1.509,"d":"2026-07-14"},"SP95":{"p":1.529,"d":"2026-07-14"}},"brand":"Galp"},{"id":100012159,"lat":43.016944,"lng":-2.535278,"addr":"AUTOPISTA AP-1 KM. 121,500","city":"APOTZAGA","cp":"20540","fuels":{"Gazole":{"p":1.655,"d":"2026-07-14"},"SP95":{"p":1.629,"d":"2026-07-14"},"SP98":{"p":1.749,"d":"2026-07-14"},"GPLc":{"p":1.095,"d":"2026-07-14"}},"brand":"Repsol","h24":true},{"id":100000025,"lat":43.013833,"lng":-2.5345,"addr":"PASEO AINGERU, 8","city":"ESKORIATZA","cp":"20540","fuels":{"Gazole":{"p":1.669,"d":"2026-07-14"},"SP95":{"p":1.649,"d":"2026-07-14"},"SP98":{"p":1.749,"d":"2026-07-14"}},"brand":"Petronor"},{"id":100012045,"lat":43.279778,"lng":-1.982444,"addr":"AUTOPISTA AP-8 KM. 22","city":"HERNANI","cp":"20120","fuels":{"Gazole":{"p":1.655,"d":"2026-07-14"},"SP95":{"p":1.659,"d":"2026-07-14"},"SP98":{"p":1.779,"d":"2026-07-14"},"GPLc":{"p":1.095,"d":"2026-07-14"}},"brand":"Repsol","h24":true},{"id":100012046,"lat":43.278472,"lng":-1.98425,"addr":"AUTOPISTA AP-8 KM. 22","city":"HERNANI","cp":"20120","fuels":{"Gazole":{"p":1.665,"d":"2026-07-14"},"SP95":{"p":1.659,"d":"2026-07-14"},"SP98":{"p":1.779,"d":"2026-07-14"},"GPLc":{"p":1.095,"d":"2026-07-14"}},"brand":"Repsol","h24":true},{"id":100000020,"lat":43.266944,"lng":-1.968278,"addr":"BARRIO AKARREGI, 23","city":"HERNANI","cp":"20120","fuels":{"Gazole":{"p":1.599,"d":"2026-07-14"},"SP95":{"p":1.599,"d":"2026-07-14"},"SP98":{"p":1.699,"d":"2026-07-14"}},"brand":"Avia"},{"id":100000111,"lat":43.277667,"lng":-2.000944,"addr":"CR GI-2132, 0,4","city":"HERNANI","cp":"20120","fuels":{"Gazole":{"p":1.649,"d":"2026-07-14"},"SP95":{"p":1.655,"d":"2026-07-14"},"SP98":{"p":1.825,"d":"2026-07-14"}},"brand":"Petronor"},{"id":100000112,"lat":43.278056,"lng":-2.001361,"addr":"CR  GI-2132 P.K. 0,4 M.I.","city":"HERNANI","cp":"20120","fuels":{"Gazole":{"p":1.649,"d":"2026-07-14"},"SP95":{"p":1.655,"d":"2026-07-14"},"SP98":{"p":1.825,"d":"2026-07-14"}},"brand":"Petronor"},{"id":100000099,"lat":43.347167,"lng":-1.806944,"addr":"CARRETERA GI-636 KM. 13","city":"HONDARRIBIA","cp":"20280","fuels":{"Gazole":{"p":1.429,"d":"2026-07-14"},"SP95":{"p":1.459,"d":"2026-07-14"}},"brand":"Easygas"},{"id":100000098,"lat":43.347556,"lng":-1.808528,"addr":"CARRETERA GI-636 KM. 13","city":"HONDARRIBIA","cp":"20280","fuels":{"Gazole":{"p":1.469,"d":"2026-07-14"},"SP95":{"p":1.489,"d":"2026-07-14"}},"brand":"Easygas","h24":true},{"id":100000028,"lat":43.356444,"lng":-1.794389,"addr":"CALLE GABARRARI, 22","city":"HONDARRIBIA","cp":"20280","fuels":{"Gazole":{"p":1.689,"d":"2026-07-14"},"SP95":{"p":1.659,"d":"2026-07-14"},"SP98":{"p":1.799,"d":"2026-07-14"}},"brand":"Galp"},{"id":100011904,"lat":42.949306,"lng":-2.228333,"addr":"AUTOVIA A-1 KM. 406,000","city":"IDIAZABAL","cp":"20213","fuels":{"Gazole":{"p":1.675,"d":"2026-07-14"},"SP95":{"p":1.665,"d":"2026-07-14"},"SP98":{"p":1.837,"d":"2026-07-14"}},"brand":"Cepsa Etxegarate","h24":true},{"id":100015656,"lat":43.027472,"lng":-2.221806,"addr":"POLIGONO IÑAUSTI 4B, CRTA NACIONAL I, KM 416, 0","city":"IDIAZABAL","cp":"20213","fuels":{"Gazole":{"p":1.52,"d":"2026-07-14"}},"brand":"Trans.O.Gui.Coop."},{"id":100008988,"lat":43.336611,"lng":-1.796417,"addr":"AVENIDA ELIZATXO, 8","city":"IRUN","cp":"20303","fuels":{"Gazole":{"p":1.679,"d":"2026-07-14"},"SP95":{"p":1.699,"d":"2026-07-14"},"SP98":{"p":1.849,"d":"2026-07-14"}},"brand":"Elizatxo-Repsol"},{"id":100000019,"lat":43.339306,"lng":-1.78225,"addr":"AVENIDA NAVARRA, 18","city":"IRUN","cp":"20304","fuels":{"Gazole":{"p":1.649,"d":"2026-07-14"},"SP95":{"p":1.619,"d":"2026-07-14"},"SP98":{"p":1.759,"d":"2026-07-14"}},"brand":"Bp Irun"},{"id":100000134,"lat":43.347278,"lng":-1.787028,"addr":"AVENIDA IPARRALDE, 42","city":"IRUN","cp":"20304","fuels":{"Gazole":{"p":1.665,"d":"2026-07-14"},"SP95":{"p":1.635,"d":"2026-07-14"},"SP98":{"p":1.755,"d":"2026-07-14"}},"brand":"Repsol","h24":true},{"id":100000135,"lat":43.347222,"lng":-1.787361,"addr":"CL AVENIDA DE IPARRALDE , 43","city":"IRUN","cp":"20304","fuels":{"Gazole":{"p":1.665,"d":"2026-07-14"},"SP95":{"p":1.635,"d":"2026-07-14"}},"brand":"Repsol"},{"id":100000116,"lat":43.338528,"lng":-1.753694,"addr":"CALLE COMETE SAREA, 1","city":"IRUN","cp":"20305","fuels":{"Gazole":{"p":1.589,"d":"2026-07-14"},"SP95":{"p":1.639,"d":"2026-07-14"}},"brand":"Repsol","h24":true},{"id":100010891,"lat":43.339056,"lng":-1.764556,"addr":"CL ANTXOTXIPI , 15","city":"IRUN","cp":"20305","fuels":{"Gazole":{"p":1.619,"d":"2026-07-14"},"SP95":{"p":1.629,"d":"2026-07-14"},"SP98":{"p":1.759,"d":"2026-07-14"}},"brand":"Repsol","h24":true},{"id":100000029,"lat":43.330917,"lng":-1.819028,"addr":"AVENIDA LETXUMBORRO, 81","city":"IRUN","cp":"20305","fuels":{"Gazole":{"p":1.619,"d":"2026-07-14"},"SP95":{"p":1.589,"d":"2026-07-14"}},"brand":"Galp"},{"id":100009827,"lat":43.3375,"lng":-1.766167,"addr":"ANTXOTXIPI Nº 17 - ZAISA III","city":"IRUN","cp":"20305","fuels":{"Gazole":{"p":1.549,"d":"2026-07-14"}},"brand":"Sacytrans","h24":true},{"id":100010746,"lat":43.337278,"lng":-1.768694,"addr":"CALLE ANTXOTXIPI, 10    ZAISA III, 10","city":"IRUN","cp":"20305","fuels":{"Gazole":{"p":1.56,"d":"2026-07-14"}},"brand":"Gacela","h24":true},{"id":100000122,"lat":43.342111,"lng":-1.760472,"addr":"PASEO ENDARLAZA, S/N","city":"IRUN","cp":"20305","fuels":{"Gazole":{"p":1.649,"d":"2026-07-14"},"SP95":{"p":1.639,"d":"2026-07-14"},"SP98":{"p":1.759,"d":"2026-07-14"}},"brand":"Repsol","h24":true},{"id":100000062,"lat":43.341111,"lng":-1.754111,"addr":"CALLE TERMINAL DE ZAISA-BEHOBIA, S/N (CTRA. NAC.1), 484","city":"IRUN","cp":"20305","fuels":{"Gazole":{"p":1.589,"d":"2026-07-14"},"SP95":{"p":1.639,"d":"2026-07-14"}},"brand":"Repsol","h24":true},{"id":100000102,"lat":43.335806,"lng":-1.752694,"addr":"CARRETERA N-121 A KM. 76,4","city":"IRUN","cp":"20305","fuels":{"Gazole":{"p":1.499,"d":"2026-07-14"},"SP95":{"p":1.529,"d":"2026-07-14"}},"brand":"Bidasoil"},{"id":100000137,"lat":43.333889,"lng":-1.817028,"addr":"CL AVENIDA DE LTXUMBORRO, S.N.","city":"IRUN","cp":"20305","fuels":{"Gazole":{"p":1.659,"d":"2026-07-14"},"SP95":{"p":1.635,"d":"2026-07-14"}},"brand":"Petronor"},{"id":100000125,"lat":43.328889,"lng":-1.827139,"addr":"AVENIDA ELIZATXO (N-I KM 480,5), 64","city":"IRUN","cp":"20305","fuels":{"Gazole":{"p":1.675,"d":"2026-07-14"},"SP95":{"p":1.665,"d":"2026-07-14"},"SP98":{"p":1.815,"d":"2026-07-14"},"GPLc":{"p":1.067,"d":"2026-07-14"}},"brand":"Moeve","h24":true},{"id":100000126,"lat":43.329333,"lng":-1.827556,"addr":"AVENIDA ELIZATXO (N-I KM 480,5), 64","city":"IRUN","cp":"20305","fuels":{"Gazole":{"p":1.675,"d":"2026-07-14"},"SP95":{"p":1.665,"d":"2026-07-14"},"SP98":{"p":1.815,"d":"2026-07-14"},"GPLc":{"p":1.067,"d":"2026-07-14"}},"brand":"Moeve","h24":true},{"id":100000147,"lat":43.322583,"lng":-1.834722,"addr":"PARQUE COMERCIAL TXINGUDI, ZONA ARASO.B. VENTAS, 80","city":"IRUN","cp":"20305","fuels":{"Gazole":{"p":1.419,"d":"2026-07-14"},"SP95":{"p":1.439,"d":"2026-07-14"},"SP98":{"p":1.549,"d":"2026-07-14"}},"brand":"Alcampo Irun"},{"id":100013489,"lat":43.325722,"lng":-1.83675,"addr":"CALLE MAZUOLA, 4","city":"IRUN","cp":"20305","fuels":{"Gazole":{"p":1.622,"d":"2026-07-14"}},"brand":"Ids","h24":true},{"id":100014987,"lat":43.339417,"lng":-1.763778,"addr":"CALLE ANTXOTXIPI, 4","city":"IRUN","cp":"20305","fuels":{"Gazole":{"p":1.649,"d":"2026-07-14"}},"brand":"Valcarce","h24":true},{"id":100012122,"lat":43.3365,"lng":-1.75275,"addr":"CALLE COMETE SAREA (ZAISA II), 7","city":"IRUN","cp":"20305","fuels":{"Gazole":{"p":1.579,"d":"2026-07-14"}},"brand":"Zabaleta","h24":true},{"id":100015412,"lat":43.340861,"lng":-1.756528,"addr":"CALLE EUROPA, Nº 18, 18","city":"BIDASOA","cp":"20305","fuels":{"Gazole":{"p":1.619,"d":"2026-07-14"}},"brand":"Neumaticos Y Servicios Behobia, S.A."},{"id":100015405,"lat":43.337861,"lng":-1.7645,"addr":"CALLE ANTXOTXIPI, Nº 13 - ZAISA III, 13","city":"BIDASOA","cp":"20305","fuels":{"Gazole":{"p":1.619,"d":"2026-07-14"}},"brand":"Transportes Zumalabe, S.L."},{"id":100014986,"lat":43.337167,"lng":-1.752944,"addr":"CALLE COMETE SAREA, 5","city":"BIDASOA","cp":"20305","fuels":{"Gazole":{"p":1.649,"d":"2026-07-14"}},"brand":"Valcarce"},{"id":100016389,"lat":43.169,"lng":-2.066583,"addr":"CALLE IBAI - ONDO AUZOA, 8","city":"IRURA","cp":"20271","fuels":{"Gazole":{"p":1.409,"d":"2026-07-14"},"SP95":{"p":1.389,"d":"2026-07-14"}},"brand":"Plenergy","h24":true},{"id":100011109,"lat":43.165917,"lng":-2.067083,"addr":"POLIGONO POLIGONO IBAI-ONDO, 14","city":"IRURA","cp":"20271","fuels":{"Gazole":{"p":1.609,"d":"2026-07-14"}},"brand":"Gasoleoa"},{"id":100016279,"lat":43.175361,"lng":-2.058306,"addr":"POLIGONO IBAIONDO, 17","city":"IRURA","cp":"20271","fuels":{"Gazole":{"p":1.419,"d":"2026-07-14"},"SP95":{"p":1.419,"d":"2026-07-14"}},"brand":"Ballenoil","h24":true},{"id":100000064,"lat":43.065889,"lng":-2.163667,"addr":"CR N-1, 423,3","city":"ITSASONDO","cp":"20249","fuels":{"Gazole":{"p":1.669,"d":"2026-07-14"},"SP95":{"p":1.649,"d":"2026-07-14"},"SP98":{"p":1.819,"d":"2026-07-14"}},"brand":"Repsol"},{"id":100000046,"lat":43.257333,"lng":-2.019028,"addr":"CL CIRCUITO IBILBIDEA, 8 (N-1 km 455)","city":"LASARTE","cp":"20160","fuels":{"Gazole":{"p":1.649,"d":"2026-07-14"},"SP95":{"p":1.659,"d":"2026-07-14"},"SP98":{"p":1.789,"d":"2026-07-14"}},"brand":"Repsol"},{"id":100000063,"lat":43.252778,"lng":-2.021972,"addr":"AUTOVIA N-1 KM. 451,000","city":"LASARTE","cp":"20160","fuels":{"Gazole":{"p":1.659,"d":"2026-07-14"},"SP95":{"p":1.659,"d":"2026-07-14"},"SP98":{"p":1.779,"d":"2026-07-14"}},"brand":"Repsol"},{"id":100000021,"lat":43.041944,"lng":-2.188333,"addr":"CARRETERA GI-120 KM. 65","city":"LAZKAO","cp":"20210","fuels":{"Gazole":{"p":1.649,"d":"2026-07-14"},"SP95":{"p":1.629,"d":"2026-07-14"},"SP98":{"p":1.799,"d":"2026-07-14"},"GPLc":{"p":0.95,"d":"2026-07-14"}},"brand":"Avia","h24":true},{"id":100000090,"lat":43.034694,"lng":-2.332194,"addr":"CALLE BIKUÑA, S/N","city":"LEGAZPI","cp":"20230","fuels":{"Gazole":{"p":1.629,"d":"2026-07-14"},"SP95":{"p":1.639,"d":"2026-07-14"}},"brand":"Cepsa"},{"id":100000140,"lat":43.078861,"lng":-2.156194,"addr":"CARRETERA NACIONAL 1 KM. 425","city":"LEGORRETA","cp":"20250","fuels":{"Gazole":{"p":1.639,"d":"2026-07-14"},"SP95":{"p":1.639,"d":"2026-07-14"},"SP98":{"p":1.759,"d":"2026-07-14"}},"brand":"Repsol","h24":true},{"id":100011537,"lat":43.327306,"lng":-1.870861,"addr":"CARRETERA GI 2638 KM. 3,300","city":"LEZO","cp":"20100","fuels":{"Gazole":{"p":1.539,"d":"2026-07-14"}},"brand":"Galp","h24":true},{"id":100009512,"lat":43.323611,"lng":-1.879944,"addr":"IPINTZA KALEA 47","city":"LEZO","cp":"20100","fuels":{"Gazole":{"p":1.499,"d":"2026-07-14"},"SP95":{"p":1.499,"d":"2026-07-14"}},"brand":"Merkaoil","h24":true},{"id":100000073,"lat":43.326944,"lng":-1.870444,"addr":"CARRETERA GI 2638 KM. 3,3","city":"LEZO","cp":"20100","fuels":{"Gazole":{"p":1.539,"d":"2026-07-14"},"SP95":{"p":1.529,"d":"2026-07-14"}},"brand":"Galp"},{"id":100008069,"lat":43.313833,"lng":-2.411028,"addr":"BARRIO MIJOA,","city":"MUTRIKU","cp":"20830","fuels":{"Gazole":{"p":1.649,"d":"2026-07-14"},"SP95":{"p":1.649,"d":"2026-07-14"},"SP98":{"p":1.769,"d":"2026-07-14"}},"brand":"Avia"},{"id":100011763,"lat":43.317417,"lng":-1.861306,"addr":"CALLE ARAÑABURU 3-D, 3","city":"OIARTZUN","cp":"20180","fuels":{"Gazole":{"p":1.689,"d":"2026-07-14"}},"brand":"Gexa","h24":true},{"id":100000040,"lat":43.314639,"lng":-1.876417,"addr":"CARRETERA MADRID-IRUN KM. 469","city":"OIARTZUN","cp":"20180","fuels":{"Gazole":{"p":1.539,"d":"2026-07-14"},"SP95":{"p":1.559,"d":"2026-07-14"},"SP98":{"p":1.789,"d":"2026-07-14"}},"brand":"Carrefour"},{"id":100000145,"lat":43.316611,"lng":-1.852222,"addr":"AUTOPISTA AP-8 (MRG.IZDO.) KM. 8,3","city":"OIARTZUN","cp":"20180","fuels":{"Gazole":{"p":1.664,"d":"2026-07-14"},"SP98":{"p":1.829,"d":"2026-07-14"}},"brand":"Moeve","h24":true},{"id":100000146,"lat":43.317611,"lng":-1.844528,"addr":"AUTOPISTA AP-8 (MRG.DCHO.) KM. 8,3","city":"OIARTZUN","cp":"20180","fuels":{"Gazole":{"p":1.664,"d":"2026-07-14"},"SP98":{"p":1.829,"d":"2026-07-14"}},"brand":"Moeve","h24":true},{"id":100000060,"lat":43.296222,"lng":-1.871833,"addr":"CALLE ARANEDER BIDEA, 1","city":"OIARTZUN","cp":"20180","fuels":{"Gazole":{"p":1.665,"d":"2026-07-14"},"SP95":{"p":1.639,"d":"2026-07-14"},"SP98":{"p":1.769,"d":"2026-07-14"}},"brand":"Repsol"},{"id":100000127,"lat":43.312222,"lng":-1.879444,"addr":"CARRETERA N-1 KM. 469,1","city":"OIARTZUN","cp":"20180","fuels":{"Gazole":{"p":1.669,"d":"2026-07-14"},"SP95":{"p":1.639,"d":"2026-07-14"},"SP98":{"p":1.799,"d":"2026-07-14"}},"brand":"Repsol"},{"id":100010101,"lat":43.302722,"lng":-1.883028,"addr":"CALLE ASTIGARRAKO, 4","city":"OIARTZUN","cp":"20180","fuels":{"Gazole":{"p":1.419,"d":"2026-07-14"},"SP95":{"p":1.439,"d":"2026-07-14"},"SP98":{"p":1.549,"d":"2026-07-14"}},"brand":"Alcampo"},{"id":100000128,"lat":43.312139,"lng":-1.879528,"addr":"CR N-1, 469,1","city":"OIARTZUN","cp":"20180","fuels":{"Gazole":{"p":1.669,"d":"2026-07-14"},"SP95":{"p":1.639,"d":"2026-07-14"},"SP98":{"p":1.799,"d":"2026-07-14"},"GPLc":{"p":1.115,"d":"2026-07-14"}},"brand":"Repsol"},{"id":100012271,"lat":43.319444,"lng":-1.854333,"addr":"CALLE ARAÑABURU, 7","city":"OIARTZUN","cp":"20180","fuels":{"Gazole":{"p":1.619,"d":"2026-07-14"}},"brand":"Fuel Truck","h24":true},{"id":100000074,"lat":43.026472,"lng":-2.219917,"addr":"CARRETERA N-I MADRID-IRUN KM. 416","city":"OLABERRIA","cp":"20212","fuels":{"Gazole":{"p":1.609,"d":"2026-07-14"},"SP95":{"p":1.599,"d":"2026-07-14"},"SP98":{"p":1.739,"d":"2026-07-14"}},"brand":"Bp Olaberria","h24":true},{"id":100000039,"lat":43.035056,"lng":-2.2175,"addr":"POLIGONO INDUSTRIAL 201 BARRIO YURRE, S/N","city":"OLABERRIA","cp":"20212","fuels":{"Gazole":{"p":1.559,"d":"2026-07-14"},"SP95":{"p":1.559,"d":"2026-07-14"},"SP98":{"p":1.769,"d":"2026-07-14"}},"brand":"Carrefour"},{"id":100011741,"lat":43.038889,"lng":-2.216667,"addr":"CARRETERA NACIONAL N-1 (IRUN-MADRID) KM. 417","city":"OLABERRIA","cp":"20212","fuels":{"Gazole":{"p":1.599,"d":"2026-07-14"},"SP95":{"p":1.599,"d":"2026-07-14"},"SP98":{"p":1.769,"d":"2026-07-14"},"GPLc":{"p":0.899,"d":"2026-07-14"}},"brand":"Avia","h24":true},{"id":100000055,"lat":43.053583,"lng":-2.435417,"addr":"SANTXOLOPETEGI AUZOA, 25","city":"OÑATI","cp":"20560","fuels":{"Gazole":{"p":1.669,"d":"2026-07-14"},"SP95":{"p":1.639,"d":"2026-07-14"},"SP98":{"p":1.809,"d":"2026-07-14"}},"brand":"Repsol"},{"id":100000101,"lat":43.039917,"lng":-2.420639,"addr":"CARRETERA GI-2630 KM. 17,9","city":"OÑATI","cp":"20560","fuels":{"Gazole":{"p":1.665,"d":"2026-07-14"},"SP95":{"p":1.635,"d":"2026-07-14"},"SP98":{"p":1.805,"d":"2026-07-14"}},"brand":"Petronor"},{"id":100014450,"lat":43.051694,"lng":-2.179528,"addr":"CALLE SAN BARTOLOMÉ, 7","city":"ORDIZIA","cp":"20240","fuels":{"Gazole":{"p":1.489,"d":"2026-07-14"},"SP95":{"p":1.489,"d":"2026-07-14"}},"brand":"Eroski","h24":true},{"id":100008369,"lat":43.145222,"lng":-2.071278,"addr":"CALLE LARRAMENDI, 28","city":"TOLOSA","cp":"20400","fuels":{"Gazole":{"p":1.529,"d":"2026-07-14"},"SP95":{"p":1.519,"d":"2026-07-14"},"SP98":{"p":1.729,"d":"2026-07-14"}},"brand":"Avia"},{"id":100000052,"lat":43.152861,"lng":-2.068778,"addr":"CARRETERA NACIONAL 1 KM. 437","city":"TOLOSA","cp":"20400","fuels":{"Gazole":{"p":1.675,"d":"2026-07-14"},"SP95":{"p":1.635,"d":"2026-07-14"},"SP98":{"p":1.775,"d":"2026-07-14"}},"brand":"Petronor"},{"id":100000138,"lat":43.116917,"lng":-2.0925,"addr":"CR N-1, 432,5","city":"TOLOSA","cp":"20400","fuels":{"Gazole":{"p":1.669,"d":"2026-07-14"},"SP95":{"p":1.649,"d":"2026-07-14"},"GPLc":{"p":1.115,"d":"2026-07-14"}},"brand":"Repsol","h24":true},{"id":100016131,"lat":43.235528,"lng":-1.998806,"addr":"CALLE BO. ERGOYEN, 21","city":"URNIETA","cp":"20130","fuels":{"Gazole":{"p":1.599,"d":"2026-07-14"},"SP95":{"p":1.629,"d":"2026-07-14"},"SP98":{"p":1.739,"d":"2026-07-14"},"GPLc":{"p":0.999,"d":"2026-07-14"}},"brand":"Mlc","h24":true},{"id":100014276,"lat":43.234944,"lng":-1.999944,"addr":"POLIGONO INDUSTRIAL BARRIO ERGOYEN, S/N","city":"URNIETA","cp":"20130","fuels":{"Gazole":{"p":1.669,"d":"2026-07-14"},"SP95":{"p":1.659,"d":"2026-07-14"}},"brand":"Shell","h24":true},{"id":100016022,"lat":43.08975,"lng":-2.319194,"addr":"CALLE IPEÑARRIETA, 54","city":"URRETXU","cp":"20700","fuels":{"SP95":{"p":1.494,"d":"2026-07-14"}},"brand":"Low Cost Euskadi - Urretxu","h24":true},{"id":100000037,"lat":43.276889,"lng":-2.022194,"addr":"CALLE TXIKIERDI, 7","city":"USURBIL","cp":"20170","fuels":{"Gazole":{"p":1.439,"d":"2026-07-14"},"SP95":{"p":1.459,"d":"2026-07-14"}},"brand":"Eroski"},{"id":100015364,"lat":43.267778,"lng":-2.047694,"addr":"POLIGONO ATALLU, 26","city":"USURBIL","cp":"20170","fuels":{"Gazole":{"p":1.489,"d":"2026-07-14"},"SP95":{"p":1.539,"d":"2026-07-14"}},"brand":"Alkartasuna Usurbilgo Baserritarren Kooperatiba","h24":true},{"id":100000077,"lat":43.284833,"lng":-2.029083,"addr":"AUTOPISTA AP-8 (MRG.IZDO.) KM. 27,1","city":"USURBIL","cp":"20170","fuels":{"Gazole":{"p":1.685,"d":"2026-07-14"},"SP95":{"p":1.655,"d":"2026-07-14"},"SP98":{"p":1.837,"d":"2026-07-14"}},"brand":"Moeve","h24":true},{"id":100000078,"lat":43.286611,"lng":-2.031889,"addr":"AUTOPISTA AP-8 (MRG.DCHO.) KM. 27,1","city":"USURBIL","cp":"20170","fuels":{"Gazole":{"p":1.665,"d":"2026-07-14"},"SP95":{"p":1.655,"d":"2026-07-14"}},"brand":"Moeve"},{"id":100000087,"lat":43.271361,"lng":-2.070472,"addr":"CARRETERA NACIONAL 634 KM. 5,7","city":"USURBIL","cp":"20170","fuels":{"Gazole":{"p":1.649,"d":"2026-07-14"},"SP95":{"p":1.629,"d":"2026-07-14"}},"brand":"Repsol"},{"id":100000086,"lat":43.277417,"lng":-2.073278,"addr":"N-634     (BO. DE AGUINAGA) km 7,6","city":"AGINAGA","cp":"20170","fuels":{"Gazole":{"p":1.665,"d":"2026-07-14"},"SP95":{"p":1.639,"d":"2026-07-14"},"SP98":{"p":1.809,"d":"2026-07-14"}},"brand":"Petronor"},{"id":100000061,"lat":43.177167,"lng":-2.055528,"addr":"CR N-1, 440,7","city":"VILLABONA","cp":"20150","fuels":{"Gazole":{"p":1.639,"d":"2026-07-14"},"SP95":{"p":1.649,"d":"2026-07-14"},"SP98":{"p":1.769,"d":"2026-07-14"}},"brand":"Repsol"},{"id":100000121,"lat":43.178611,"lng":-2.055778,"addr":"CARRETERA NACIONAL 1 KM. 445","city":"VILLABONA","cp":"20150","fuels":{"Gazole":{"p":1.639,"d":"2026-07-14"},"SP95":{"p":1.639,"d":"2026-07-14"},"SP98":{"p":1.759,"d":"2026-07-14"}},"brand":"Repsol","h24":true},{"id":100012977,"lat":43.200806,"lng":-2.039361,"addr":"CARRETERA A-1 KM. 443","city":"AMASA","cp":"20150","fuels":{"Gazole":{"p":1.665,"d":"2026-07-14"},"SP95":{"p":1.665,"d":"2026-07-14"},"GPLc":{"p":1.177,"d":"2026-07-14"}},"brand":"Moeve"},{"id":100000065,"lat":43.28325,"lng":-2.158361,"addr":"CALLE ZUBIAURRE ZAHAR, 3","city":"ZARAUTZ","cp":"20800","fuels":{"Gazole":{"p":1.659,"d":"2026-07-14"},"SP95":{"p":1.659,"d":"2026-07-14"},"SP98":{"p":1.819,"d":"2026-07-14"}},"brand":"Petronor"},{"id":100000118,"lat":43.284944,"lng":-2.158833,"addr":"CALLE GIPUZKOA, 59","city":"ZARAUTZ","cp":"20800","fuels":{"Gazole":{"p":1.669,"d":"2026-07-14"},"SP95":{"p":1.669,"d":"2026-07-14"},"SP98":{"p":1.829,"d":"2026-07-14"}},"brand":"Repsol","h24":true},{"id":100000010,"lat":43.241444,"lng":-2.259444,"addr":"CARRETERA GI-631 KM. 5,00","city":"ZESTOA","cp":"20740","fuels":{"Gazole":{"p":1.609,"d":"2026-07-14"},"SP95":{"p":1.599,"d":"2026-07-14"},"SP98":{"p":1.72,"d":"2026-07-14"}},"brand":"E.S. Zestoa-Avia"},{"id":100011754,"lat":43.273556,"lng":-2.274028,"addr":"POLIGONO SANSINENEA ERREKA, 14","city":"ARROA-BEKOA","cp":"20749","fuels":{"Gazole":{"p":1.519,"d":"2026-07-14"},"SP95":{"p":1.519,"d":"2026-07-14"}},"brand":"Avia"},{"id":100010106,"lat":43.284889,"lng":-2.264111,"addr":"CRTRA.N-634 km 29,700","city":"ZUMAIA","cp":"20750","fuels":{"Gazole":{"p":1.665,"d":"2026-07-14"},"SP95":{"p":1.675,"d":"2026-07-14"},"SP98":{"p":1.815,"d":"2026-07-14"}},"brand":"Moeve"},{"id":100010107,"lat":43.284583,"lng":-2.265583,"addr":"CRTRA.N-634 km 29.700","city":"ZUMAIA","cp":"20750","fuels":{"Gazole":{"p":1.665,"d":"2026-07-14"},"SP95":{"p":1.675,"d":"2026-07-14"},"SP98":{"p":1.815,"d":"2026-07-14"}},"brand":"Moeve"},{"id":100000096,"lat":43.294833,"lng":-2.258083,"addr":"CALLE AXULAR IBILTOKIA, S/N","city":"ZUMAIA","cp":"20750","fuels":{"Gazole":{"p":1.645,"d":"2026-07-14"},"SP95":{"p":1.645,"d":"2026-07-14"}},"brand":"Cepsa"},{"id":100000076,"lat":43.087111,"lng":-2.312889,"addr":"CALLE ELIZ KALE, 0","city":"ZUMARRAGA","cp":"20700","fuels":{"Gazole":{"p":1.514,"d":"2026-07-14"},"SP95":{"p":1.514,"d":"2026-07-14"}},"brand":"Galp"}]