[{"id":100001396,"lat":40.824694,"lng":-0.201611,"addr":"AVENIDA LA FUENTE,, S/N","city":"AGUAVIVA","cp":"44566","fuels":{"Gazole":{"p":1.649,"d":"2026-07-14"},"SP95":{"p":1.629,"d":"2026-07-14"}},"brand":"E.S. Aguaviva"},{"id":100001422,"lat":41.128361,"lng":-0.510583,"addr":"CARRETERA A-224 KM. 0,200","city":"ALBALATE DEL ARZOBISPO","cp":"44540","fuels":{"Gazole":{"p":1.645,"d":"2026-07-14"},"SP95":{"p":1.601,"d":"2026-07-14"},"SP98":{"p":1.793,"d":"2026-07-14"}},"brand":"Moeve"},{"id":100010002,"lat":40.412889,"lng":-1.440583,"addr":"CARRETERA A-1512 KM. 28,6","city":"ALBARRACIN","cp":"44100","fuels":{"Gazole":{"p":1.619,"d":"2026-07-14"},"SP95":{"p":1.599,"d":"2026-07-14"}},"brand":"Cepsa"},{"id":100001989,"lat":40.1115,"lng":-0.740056,"addr":"N-234 km 75,000","city":"ALBENTOSA","cp":"44477","fuels":{"Gazole":{"p":1.599,"d":"2026-07-14"},"SP95":{"p":1.539,"d":"2026-07-14"},"SP98":{"p":1.629,"d":"2026-07-14"}},"brand":"Galp"},{"id":100001442,"lat":40.365861,"lng":-0.706083,"addr":"CARRETERA A-228 KM. 33,500","city":"ALCALA DE LA SELVA","cp":"44432","fuels":{"Gazole":{"p":1.609,"d":"2026-07-14"},"SP95":{"p":1.579,"d":"2026-07-14"},"SP98":{"p":1.689,"d":"2026-07-14"}},"brand":"Galp","h24":true},{"id":100011413,"lat":41.053639,"lng":-0.156528,"addr":"CARRETERA ZARAGOZA KM. 117","city":"ALCAÑIZ","cp":"44600","fuels":{"Gazole":{"p":1.375,"d":"2026-07-14"},"SP95":{"p":1.372,"d":"2026-07-14"},"SP98":{"p":1.477,"d":"2026-07-14"}},"brand":"Alcampo","h24":true},{"id":100001420,"lat":41.043972,"lng":-0.130056,"addr":"AVENIDA MAESTRAZGO, 4","city":"ALCAÑIZ","cp":"44600","fuels":{"Gazole":{"p":1.645,"d":"2026-07-14"},"SP95":{"p":1.601,"d":"2026-07-14"},"SP98":{"p":1.793,"d":"2026-07-14"}},"brand":"Cepsa"},{"id":100001365,"lat":41.0525,"lng":-0.152722,"addr":"AVENIDA ZARAGOZA, 100","city":"ALCAÑIZ","cp":"44600","fuels":{"Gazole":{"p":1.619,"d":"2026-07-14"},"SP95":{"p":1.615,"d":"2026-07-14"},"SP98":{"p":1.735,"d":"2026-07-14"},"GPLc":{"p":1.105,"d":"2026-07-14"}},"brand":"Repsol"},{"id":100015890,"lat":41.052389,"lng":-0.148361,"addr":"AVENIDA ZARAGOZA, 75","city":"ALCAÑIZ","cp":"44600","fuels":{"Gazole":{"p":1.387,"d":"2026-07-14"},"SP95":{"p":1.35,"d":"2026-07-14"},"SP98":{"p":1.415,"d":"2026-07-14"}},"brand":"BonÀrea","h24":true},{"id":100014735,"lat":41.01775,"lng":-0.090472,"addr":"POLIGONO LAS HORCAS  FINCA 4 1/A-9, 4","city":"ALCAÑIZ","cp":"44600","fuels":{"Gazole":{"p":1.449,"d":"2026-07-14"},"SP95":{"p":1.469,"d":"2026-07-14"}},"brand":"Gba","h24":true},{"id":100001504,"lat":40.894278,"lng":-0.377333,"addr":"CR N-211, 212,5","city":"ALCORISA","cp":"44550","fuels":{"Gazole":{"p":1.585,"d":"2026-07-14"},"SP95":{"p":1.585,"d":"2026-07-14"},"SP98":{"p":1.755,"d":"2026-07-14"}},"brand":"Repsol"},{"id":100001249,"lat":40.529083,"lng":-1.025306,"addr":"NACIONAL 420 CORDOBA-TARRAGONA km 605","city":"ALFAMBRA","cp":"44160","fuels":{"Gazole":{"p":1.649,"d":"2026-07-14"},"SP95":{"p":1.609,"d":"2026-07-14"},"SP98":{"p":1.759,"d":"2026-07-14"}},"brand":"E.S De Alfambra"},{"id":100001525,"lat":40.680528,"lng":-0.696056,"addr":"CR TE-820 70,8","city":"ALIAGA","cp":"44150","fuels":{"Gazole":{"p":1.669,"d":"2026-07-14"},"SP95":{"p":1.629,"d":"2026-07-14"}},"brand":"Repsol"},{"id":100008303,"lat":40.973861,"lng":-0.436361,"addr":"POLIGONO PG. INDUSTRIAL LA UMBRIA 33, 33","city":"ANDORRA","cp":"44500","fuels":{"Gazole":{"p":1.687,"d":"2026-07-14"},"SP95":{"p":1.652,"d":"2026-07-14"},"SP98":{"p":1.789,"d":"2026-07-14"}},"brand":"Galp"},{"id":100001509,"lat":40.982278,"lng":-0.447833,"addr":"AVENIDA ALBALATE, 7","city":"ANDORRA","cp":"44500","fuels":{"Gazole":{"p":1.637,"d":"2026-07-14"},"SP95":{"p":1.627,"d":"2026-07-14"},"SP98":{"p":1.789,"d":"2026-07-14"}},"brand":"Repsol"},{"id":100013564,"lat":40.833083,"lng":-1.196778,"addr":"CALLE POLIGONO AGROINDUSTRIAL, LOTES B1-B9, 1","city":"BAÑON","cp":"44357","fuels":{"Gazole":{"p":1.449,"d":"2026-07-14"}},"brand":"Gasoleos Teruel","h24":true},{"id":100001507,"lat":41.016083,"lng":0.192972,"addr":"CARRETERA N-420 KM. 418,50","city":"CALACEITE","cp":"44610","fuels":{"Gazole":{"p":1.579,"d":"2026-07-14"},"SP95":{"p":1.579,"d":"2026-07-14"},"SP98":{"p":1.699,"d":"2026-07-14"}},"brand":"Repsol"},{"id":100001424,"lat":40.913361,"lng":-1.298306,"addr":"CL AVENIDA ESTACION NUEVA, 2","city":"CALAMOCHA","cp":"44200","fuels":{"Gazole":{"p":1.609,"d":"2026-07-14"},"SP95":{"p":1.615,"d":"2026-07-14"},"SP98":{"p":1.735,"d":"2026-07-14"}},"brand":"Repsol"},{"id":100012734,"lat":40.904778,"lng":-1.301194,"addr":"CARRETERA N-234 KM. 190","city":"CALAMOCHA","cp":"44200","fuels":{"Gazole":{"p":1.498,"d":"2026-07-14"},"SP95":{"p":1.498,"d":"2026-07-14"}},"brand":"Gasolinera Jiloca","h24":true},{"id":100001389,"lat":40.946639,"lng":-0.230444,"addr":"CARRETERA N-211 KM. 227,4","city":"CALANDA","cp":"44570","fuels":{"Gazole":{"p":1.619,"d":"2026-07-14"},"SP95":{"p":1.619,"d":"2026-07-14"}},"brand":"Cepsa"},{"id":100009116,"lat":40.944806,"lng":-0.230722,"addr":"ALCOLEA-TARRAGONA S/N","city":"CALANDA","cp":"44570","fuels":{"Gazole":{"p":1.519,"d":"2026-07-14"},"SP95":{"p":1.519,"d":"2026-07-14"}},"brand":"La Calandina","h24":true},{"id":100011799,"lat":40.837611,"lng":-1.305361,"addr":"AUTOVIA A-23 KM. 176","city":"CAMINREAL","cp":"44350","fuels":{"Gazole":{"p":1.624,"d":"2026-07-14"},"SP95":{"p":1.591,"d":"2026-07-14"}},"brand":"Moeve","h24":true},{"id":100001532,"lat":40.508333,"lng":-0.407417,"addr":"CARRETERA IGLESUELA KM. S/N","city":"CANTAVIEJA","cp":"44140","fuels":{"Gazole":{"p":1.589,"d":"2026-07-14"},"SP95":{"p":1.579,"d":"2026-07-14"}},"brand":"Petronor"},{"id":100013021,"lat":40.977528,"lng":-0.143778,"addr":"CALLE MAYOR ALTA, 80","city":"CASTELSERAS","cp":"44630","fuels":{"Gazole":{"p":1.416,"d":"2026-07-14"},"SP95":{"p":1.398,"d":"2026-07-14"}},"brand":"Sanicoop","h24":true},{"id":100001412,"lat":40.438083,"lng":-0.848861,"addr":"CARRETERA A-226 KM. 27,900","city":"CEDRILLAS","cp":"44147","fuels":{"Gazole":{"p":1.599,"d":"2026-07-14"},"SP95":{"p":1.589,"d":"2026-07-14"}},"brand":"Cepsa"},{"id":100010906,"lat":40.446806,"lng":-1.286278,"addr":"VARIANTE DE GEA","city":"CELLA","cp":"44370","fuels":{"Gazole":{"p":1.619,"d":"2026-07-14"},"SP95":{"p":1.599,"d":"2026-07-14"}},"brand":"BP"},{"id":100001368,"lat":40.482583,"lng":-1.251333,"addr":"N-234 km 141","city":"CELLA","cp":"44370","fuels":{"Gazole":{"p":1.645,"d":"2026-07-14"},"SP95":{"p":1.601,"d":"2026-07-14"}},"brand":"Moeve"},{"id":100012678,"lat":40.461528,"lng":-1.296778,"addr":"POLIGONO CAMPICHUELO, S/N","city":"CELLA","cp":"44370","fuels":{"Gazole":{"p":1.449,"d":"2026-07-14"}},"brand":"Gasoleos Teruel","h24":true},{"id":100014694,"lat":40.45875,"lng":-1.245694,"addr":"POLIGONO LAS HAZAS, 5","city":"CELLA","cp":"44370","fuels":{"Gazole":{"p":1.398,"d":"2026-07-14"},"SP95":{"p":1.457,"d":"2026-07-14"}},"brand":"Subigas","h24":true},{"id":100009555,"lat":40.931278,"lng":0.214778,"addr":"CARRERA CARRETERA  COMARCAL, S/N","city":"CRETAS","cp":"44623","fuels":{"SP95":{"p":1.481,"d":"2026-07-14"}},"brand":"Coop.Cretas","h24":true},{"id":100011986,"lat":41.050833,"lng":-1.276389,"addr":"AUTOVIA A-23 KM. 202","city":"FERRERUELA DE HUERVA","cp":"44490","fuels":{"Gazole":{"p":1.605,"d":"2026-07-14"},"SP95":{"p":1.595,"d":"2026-07-14"},"SP98":{"p":1.715,"d":"2026-07-14"},"GPLc":{"p":1.079,"d":"2026-07-14"}},"brand":"Repsol","h24":true},{"id":100009986,"lat":41.060639,"lng":-1.235667,"addr":"CALLE PEIRON, S/N","city":"FERRERUELA DE HUERVA","cp":"44490","fuels":{"Gazole":{"p":1.449,"d":"2026-07-14"}},"brand":"Gasoleos Teruel","h24":true},{"id":100001358,"lat":41.170611,"lng":-0.442194,"addr":"CARRETERA HIJAR, N-232 KM. KM 164,4","city":"HIJAR","cp":"44530","fuels":{"Gazole":{"p":1.579,"d":"2026-07-14"},"SP95":{"p":1.579,"d":"2026-07-14"},"SP98":{"p":1.639,"d":"2026-07-14"}},"brand":"Q8"},{"id":100013506,"lat":40.063472,"lng":-0.825333,"addr":"CARRETERA A-1514 KM. 10,5","city":"MANZANERA","cp":"44420","fuels":{"Gazole":{"p":1.609,"d":"2026-07-14"},"SP95":{"p":1.579,"d":"2026-07-14"}},"brand":"Repsol"},{"id":100011017,"lat":40.836194,"lng":-0.244611,"addr":"CARRETERA DE CALANDA KM. 6","city":"MAS DE LAS MATAS","cp":"44564","fuels":{"Gazole":{"p":1.569,"d":"2026-07-14"},"SP95":{"p":1.559,"d":"2026-07-14"}},"brand":"Coop.San Antonio","h24":true},{"id":100001455,"lat":40.831472,"lng":-0.24025,"addr":"CALLE CL AGUAVIVA, 9","city":"MAS DE LAS MATAS","cp":"44564","fuels":{"Gazole":{"p":1.589,"d":"2026-07-14"},"SP95":{"p":1.579,"d":"2026-07-14"}},"brand":"Campsa"},{"id":100001443,"lat":40.78275,"lng":-1.346972,"addr":"CARRERA NAC.234, KM.177,5,","city":"MONREAL DEL CAMPO","cp":"44300","fuels":{"Gazole":{"p":1.589,"d":"2026-07-14"},"SP95":{"p":1.579,"d":"2026-07-14"},"SP98":{"p":1.749,"d":"2026-07-14"}},"brand":"Repsol"},{"id":100009887,"lat":40.778,"lng":-1.357,"addr":"ERAS DEL MAJUELO S/N","city":"MONREAL DEL CAMPO","cp":"44300","fuels":{"Gazole":{"p":1.449,"d":"2026-07-14"},"SP95":{"p":1.389,"d":"2026-07-14"}},"brand":"Gasoleos Teruel","h24":true},{"id":100009852,"lat":40.772944,"lng":-1.339556,"addr":"POLIGONO EL TOLLO PARCELA, 2/31","city":"MONREAL DEL CAMPO","cp":"44300","fuels":{"Gazole":{"p":1.449,"d":"2026-07-14"},"SP95":{"p":1.399,"d":"2026-07-14"}},"brand":"Fycasa Logistica S.L.","h24":true},{"id":100001437,"lat":40.750583,"lng":-1.333361,"addr":"AUTOVIA MUDEJAR KM. 165","city":"MONREAL DEL CAMPO","cp":"44300","fuels":{"Gazole":{"p":1.649,"d":"2026-07-14"},"SP95":{"p":1.639,"d":"2026-07-14"},"SP98":{"p":1.799,"d":"2026-07-14"}},"brand":"Repsol","h24":true},{"id":100001392,"lat":40.788111,"lng":-0.035556,"addr":"TRAVESÍA N232A,","city":"MONROYO","cp":"44652","fuels":{"Gazole":{"p":1.659,"d":"2026-07-14"},"SP95":{"p":1.659,"d":"2026-07-14"},"SP98":{"p":1.809,"d":"2026-07-14"}},"brand":"Repsol","h24":true},{"id":100001427,"lat":40.831417,"lng":-0.798167,"addr":"CARRETERA NAC. 211, KM. 165,6 KM.","city":"MONTALBAN","cp":"44700","fuels":{"Gazole":{"p":1.689,"d":"2026-07-14"},"SP95":{"p":1.629,"d":"2026-07-14"}},"brand":"Repsol"},{"id":100010907,"lat":40.247722,"lng":-0.759833,"addr":"AV. VALENCIA","city":"MORA DE RUBIELOS","cp":"44400","fuels":{"Gazole":{"p":1.609,"d":"2026-07-14"},"SP95":{"p":1.599,"d":"2026-07-14"},"SP98":{"p":1.729,"d":"2026-07-14"}},"brand":"BP","h24":true},{"id":100010045,"lat":40.363028,"lng":-0.444944,"addr":"CTRA. VENTA EL AIRE km 1","city":"MOSQUERUELA","cp":"44410","fuels":{"Gazole":{"p":1.599,"d":"2026-07-14"},"SP95":{"p":1.589,"d":"2026-07-14"}},"brand":"Sin Rotulo"},{"id":100001361,"lat":41.028194,"lng":-0.806722,"addr":"PARCELA LA VARIANTE S/N km 64510","city":"MUNIESA","cp":"44780","fuels":{"Gazole":{"p":1.349,"d":"2026-07-14"},"SP95":{"p":1.399,"d":"2026-07-14"}},"brand":"Gasoleos Teruel","h24":true},{"id":100001395,"lat":40.547639,"lng":-1.651944,"addr":"CARRETERA CR A ALBARRACIN KM. 13","city":"ORIHUELA DEL TREMEDAL","cp":"44366","fuels":{"Gazole":{"p":1.639,"d":"2026-07-14"},"SP95":{"p":1.629,"d":"2026-07-14"}},"brand":"E.S.Orihuela Del Tremedal"},{"id":100009637,"lat":40.758778,"lng":0.042611,"addr":"CARRETERA A-2413 KM. 1,825","city":"PEÑARROYA DE TASTAVINS","cp":"44586","fuels":{"Gazole":{"p":1.458,"d":"2026-07-14"}},"brand":"San Fabian Y San Sabastian","h24":true},{"id":100001436,"lat":40.627667,"lng":-1.000472,"addr":"N-420 km 617.0","city":"PERALES DEL ALFAMBRA","cp":"44163","fuels":{"Gazole":{"p":1.429,"d":"2026-07-14"},"SP95":{"p":1.409,"d":"2026-07-14"}},"brand":"Gasoleos Teruel","h24":true},{"id":100009408,"lat":40.880194,"lng":0.054083,"addr":"PARTIDA OLIVARETS, 0","city":"PORTELLADA (LA)","cp":"44589","fuels":{"Gazole":{"p":1.44,"d":"2026-07-14"},"SP95":{"p":1.5,"d":"2026-07-14"}},"brand":"Seragas","h24":true},{"id":100001447,"lat":41.219833,"lng":-0.469806,"addr":"CARRETERA N-232    P.KM. 170.2 KM.","city":"PUEBLA DE HIJAR (LA)","cp":"44510","fuels":{"Gazole":{"p":1.639,"d":"2026-07-14"},"SP95":{"p":1.649,"d":"2026-07-14"},"SP98":{"p":1.789,"d":"2026-07-14"}},"brand":"Repsol"},{"id":100011674,"lat":40.220056,"lng":-0.939889,"addr":"AUTOVIA A-23 KM. 100","city":"PUEBLA DE VALVERDE (LA)","cp":"44450","fuels":{"Gazole":{"p":1.634,"d":"2026-07-14"},"SP95":{"p":1.591,"d":"2026-07-14"}},"brand":"Moeve","h24":true},{"id":100001404,"lat":40.19075,"lng":-0.655917,"addr":"CR TE - 200, 16,4","city":"RUBIELOS DE MORA","cp":"44415","fuels":{"Gazole":{"p":1.605,"d":"2026-07-14"},"SP95":{"p":1.579,"d":"2026-07-14"}},"brand":"Repsol"},{"id":100001510,"lat":40.564778,"lng":-1.2855,"addr":"CARRETERA SAGUNTO A BURGOS KM. 150","city":"SANTA EULALIA","cp":"44360","fuels":{"Gazole":{"p":1.595,"d":"2026-07-14"},"SP95":{"p":1.595,"d":"2026-07-14"},"SP98":{"p":1.715,"d":"2026-07-14"}},"brand":"Repsol","h24":true},{"id":100001405,"lat":40.149639,"lng":-0.823556,"addr":"CARRETERA N. 234 KM. 83","city":"SARRION","cp":"44460","fuels":{"Gazole":{"p":1.599,"d":"2026-07-14"},"SP95":{"p":1.599,"d":"2026-07-14"},"SP98":{"p":1.719,"d":"2026-07-14"},"GPLc":{"p":1.079,"d":"2026-07-14"}},"brand":"Repsol","h24":true},{"id":100001512,"lat":40.357556,"lng":-1.136722,"addr":"CR N-234, 123,5","city":"TERUEL","cp":"44001","fuels":{"Gazole":{"p":1.595,"d":"2026-07-14"},"SP95":{"p":1.595,"d":"2026-07-14"}},"brand":"Repsol"},{"id":100001511,"lat":40.356944,"lng":-1.135639,"addr":"CR N-234, 123,5","city":"TERUEL","cp":"44001","fuels":{"Gazole":{"p":1.595,"d":"2026-07-14"},"SP95":{"p":1.595,"d":"2026-07-14"},"SP98":{"p":1.735,"d":"2026-07-14"}},"brand":"Repsol"},{"id":100001438,"lat":40.347889,"lng":-1.116611,"addr":"AVENIDA ZARAGOZA, 22","city":"TERUEL","cp":"44001","fuels":{"Gazole":{"p":1.619,"d":"2026-07-14"},"SP95":{"p":1.609,"d":"2026-07-14"},"SP98":{"p":1.779,"d":"2026-07-14"}},"brand":"Moeve"},{"id":100001441,"lat":40.337083,"lng":-1.101278,"addr":"CALLE CUESTA DEL CARRAJETE, 2","city":"TERUEL","cp":"44001","fuels":{"Gazole":{"p":1.619,"d":"2026-07-14"},"SP95":{"p":1.609,"d":"2026-07-14"}},"brand":"Moeve"},{"id":100001257,"lat":40.360472,"lng":-1.107917,"addr":"C.N 420 A km 583,2","city":"TERUEL","cp":"44003","fuels":{"Gazole":{"p":1.569,"d":"2026-07-14"},"SP95":{"p":1.539,"d":"2026-07-14"},"SP98":{"p":1.759,"d":"2026-07-14"}},"brand":"Civera"},{"id":100013047,"lat":40.338028,"lng":-1.101083,"addr":"CARRETERA SAN JULIÁN KM. 83","city":"TERUEL","cp":"44003","fuels":{"Gazole":{"p":1.439,"d":"2026-07-14"},"SP95":{"p":1.439,"d":"2026-07-14"}},"brand":"GasExpress","h24":true},{"id":100001419,"lat":40.336611,"lng":-1.104944,"addr":"AVENIDA SAGUNTO, 5","city":"TERUEL","cp":"44002","fuels":{"Gazole":{"p":1.615,"d":"2026-07-14"},"SP95":{"p":1.605,"d":"2026-07-14"},"SP98":{"p":1.775,"d":"2026-07-14"}},"brand":"Repsol"},{"id":100001391,"lat":40.332611,"lng":-1.087472,"addr":"CL AVDA. DE SAGUNTO-FUENFRESCA, S.N","city":"TERUEL","cp":"44002","fuels":{"Gazole":{"p":1.615,"d":"2026-07-14"},"SP95":{"p":1.605,"d":"2026-07-14"},"SP98":{"p":1.775,"d":"2026-07-14"},"GPLc":{"p":1.105,"d":"2026-07-14"}},"brand":"Repsol"},{"id":100009714,"lat":40.363111,"lng":-1.146528,"addr":"POLIGONO POLIGONO INDUSTRIAL LA PAZ, 18","city":"SAN BLAS","cp":"44195","fuels":{"Gazole":{"p":1.429,"d":"2026-07-14"},"SP95":{"p":1.409,"d":"2026-07-14"}},"brand":"Gasoleos Teruel","h24":true},{"id":100014548,"lat":40.362333,"lng":-1.152083,"addr":"CALLE POL.IND.LA PAZ CALLE GENOVA PARCELA 137, 137","city":"SAN BLAS","cp":"44195","fuels":{"Gazole":{"p":1.499,"d":"2026-07-14"},"SP95":{"p":1.414,"d":"2026-07-14"}},"brand":"Super Cash Vimar"},{"id":100009799,"lat":40.362556,"lng":-1.154917,"addr":"POLIGONO B, 27","city":"TERUEL","cp":"44193","fuels":{"Gazole":{"p":1.371,"d":"2026-07-14"}},"brand":"Agrimartin"},{"id":100001369,"lat":40.802472,"lng":-0.837611,"addr":"CR N-420 653,1","city":"UTRILLAS","cp":"44760","fuels":{"Gazole":{"p":1.689,"d":"2026-07-14"},"SP95":{"p":1.629,"d":"2026-07-14"},"SP98":{"p":1.759,"d":"2026-07-14"}},"brand":"Repsol"},{"id":100009204,"lat":40.994617,"lng":-0.032652,"addr":"CALLE BEATO MARTINEZ PASCUAL S/Nº","city":"VALDEALGORFA","cp":"44594","fuels":{"Gazole":{"p":1.49,"d":"2026-07-14"}},"brand":"Scoaval","h24":true},{"id":100014298,"lat":40.865306,"lng":0.163472,"addr":"CARRETERA A2412 KM. 23","city":"VALDERROBRES","cp":"44580","fuels":{"SP95":{"p":1.385,"d":"2026-07-14"}},"brand":"Gasoleos Sersuco","h24":true},{"id":100001508,"lat":40.872528,"lng":0.150917,"addr":"AVENIDA CORTES DE ARAGON, 85","city":"VALDERROBRES","cp":"44580","fuels":{"Gazole":{"p":1.619,"d":"2026-07-14"},"SP95":{"p":1.599,"d":"2026-07-14"},"SP98":{"p":1.729,"d":"2026-07-14"}},"brand":"Cepsa"},{"id":100013375,"lat":40.702417,"lng":-1.317556,"addr":"AUTOVIA A-23 KM. 160","city":"VILLAFRANCA DEL CAMPO","cp":"44394","fuels":{"Gazole":{"p":1.629,"d":"2026-07-14"},"SP95":{"p":1.599,"d":"2026-07-14"},"SP98":{"p":1.699,"d":"2026-07-14"}},"brand":"Valcarce","h24":true},{"id":100009886,"lat":40.517833,"lng":-1.269278,"addr":"CALLE LARGA, 2","city":"VILLARQUEMADO","cp":"44380","fuels":{"Gazole":{"p":1.449,"d":"2026-07-14"}},"brand":"Gasoleos Teruel","h24":true}]