[{"id":100010608,"lat":37.263528,"lng":-4.959194,"addr":"AUTOVIA A-92 KM. 97","city":"AGUADULCE","cp":"41550","fuels":{"Gazole":{"p":1.646,"d":"2026-07-14"},"SP95":{"p":1.601,"d":"2026-07-14"}},"brand":"Moeve","h24":true},{"id":100007153,"lat":37.249611,"lng":-5.00525,"addr":"AVDA DE ANDALUCIA S/N","city":"AGUADULCE","cp":"41550","fuels":{"Gazole":{"p":1.629,"d":"2026-07-14"},"SP95":{"p":1.559,"d":"2026-07-14"}},"brand":"Repsol"},{"id":100007081,"lat":38.034278,"lng":-5.708417,"addr":"CR SE-162, 21,6","city":"ALANIS","cp":"41380","fuels":{"Gazole":{"p":1.599,"d":"2026-07-14"},"SP95":{"p":1.639,"d":"2026-07-14"}},"brand":"Repsol"},{"id":100008921,"lat":37.295722,"lng":-5.789278,"addr":"CARRETERA A-360 ALCALA-MORON KM. 4,400","city":"ALCALA DE GUADAIRA","cp":"41500","fuels":{"Gazole":{"p":1.529,"d":"2026-07-14"},"SP95":{"p":1.469,"d":"2026-07-14"},"GPLc":{"p":0.859,"d":"2026-07-14"}},"brand":"Agla"},{"id":100010897,"lat":37.376417,"lng":-5.890278,"addr":"CARRETERA SEVILLA MALAGA KM. 4","city":"ALCALA DE GUADAIRA","cp":"41500","fuels":{"Gazole":{"p":1.659,"d":"2026-07-14"},"SP95":{"p":1.619,"d":"2026-07-14"},"SP98":{"p":1.759,"d":"2026-07-14"}},"brand":"BP","h24":true},{"id":100007300,"lat":37.329833,"lng":-5.859778,"addr":"SE-415 km 0,7","city":"ALCALA DE GUADAIRA","cp":"41500","fuels":{"Gazole":{"p":1.7,"d":"2026-07-14"},"SP95":{"p":1.656,"d":"2026-07-14"}},"brand":"Cepsa"},{"id":100007096,"lat":37.2155,"lng":-5.919278,"addr":"CARRETERA N-IV KM. 162,8","city":"ALCALA DE GUADAIRA","cp":"41500","fuels":{"Gazole":{"p":1.659,"d":"2026-07-14"},"SP95":{"p":1.629,"d":"2026-07-14"}},"brand":"Cepsa"},{"id":100009097,"lat":37.343972,"lng":-5.820639,"addr":"AUTOVIA A-92 KM. 11,900","city":"ALCALA DE GUADAIRA","cp":"41500","fuels":{"Gazole":{"p":1.757,"d":"2026-07-14"},"SP95":{"p":1.679,"d":"2026-07-14"},"SP98":{"p":1.798,"d":"2026-07-14"}},"brand":"Bp E.S.Baelo"},{"id":100007156,"lat":37.326556,"lng":-5.853056,"addr":"CARRETERA C-432 KM. 156","city":"ALCALA DE GUADAIRA","cp":"41500","fuels":{"Gazole":{"p":1.675,"d":"2026-07-14"},"SP95":{"p":1.625,"d":"2026-07-14"},"SP98":{"p":1.795,"d":"2026-07-14"}},"brand":"Repsol"},{"id":100007441,"lat":37.368639,"lng":-5.93475,"addr":"CR  SE-021 , P.K. 0,8 M.D.","city":"ALCALA DE GUADAIRA","cp":"41500","fuels":{"Gazole":{"p":1.659,"d":"2026-07-14"},"SP95":{"p":1.609,"d":"2026-07-14"},"SP98":{"p":1.779,"d":"2026-07-14"}},"brand":"Repsol"},{"id":100011245,"lat":37.308889,"lng":-5.889556,"addr":"CARRETERA SEVILLA-UTRERA KM. 8","city":"ALCALA DE GUADAIRA","cp":"41500","fuels":{"Gazole":{"p":1.655,"d":"2026-07-14"},"SP95":{"p":1.615,"d":"2026-07-14"},"GPLc":{"p":1.069,"d":"2026-07-14"}},"brand":"Repsol"},{"id":100007314,"lat":37.242139,"lng":-5.834278,"addr":"CARRETERA A-376 KM. 18","city":"ALCALA DE GUADAIRA","cp":"41500","fuels":{"Gazole":{"p":1.699,"d":"2026-07-14"},"SP95":{"p":1.659,"d":"2026-07-14"}},"brand":"Moeve"},{"id":100007053,"lat":37.336611,"lng":-5.853972,"addr":"ORELLANA, S/N (SE-410 km 3)","city":"ALCALA DE GUADAIRA","cp":"41500","fuels":{"Gazole":{"p":1.699,"d":"2026-07-14"},"SP95":{"p":1.655,"d":"2026-07-14"}},"brand":"Moeve"},{"id":100014976,"lat":37.347806,"lng":-5.833972,"addr":"AUTOVIA A- 92 KM. 10","city":"ALCALA DE GUADAIRA","cp":"41500","fuels":{"Gazole":{"p":1.519,"d":"2026-07-14"},"SP95":{"p":1.455,"d":"2026-07-14"}},"brand":"Ballenoil","h24":true},{"id":100007054,"lat":37.346333,"lng":-5.827611,"addr":"A-92 km 15,4","city":"ALCALA DE GUADAIRA","cp":"41500","fuels":{"Gazole":{"p":1.678,"d":"2026-07-14"},"SP95":{"p":1.591,"d":"2026-07-14"}},"brand":"Moeve","h24":true},{"id":100011241,"lat":37.352278,"lng":-5.846472,"addr":"DISEMINADO CR SEVILLA-MALAGA, 9,600","city":"ALCALA DE GUADAIRA","cp":"41500","fuels":{"Gazole":{"p":1.555,"d":"2026-07-14"},"SP95":{"p":1.499,"d":"2026-07-14"},"GPLc":{"p":0.965,"d":"2026-07-14"}},"brand":"Zacatín","h24":true},{"id":100011244,"lat":37.357361,"lng":-5.867,"addr":"AUTOPISTA A-92 KM. 7,700","city":"ALCALA DE GUADAIRA","cp":"41500","fuels":{"Gazole":{"p":1.555,"d":"2026-07-14"},"SP95":{"p":1.499,"d":"2026-07-14"},"GPLc":{"p":0.965,"d":"2026-07-14"}},"brand":"Novaoil"},{"id":100007063,"lat":37.379361,"lng":-5.895806,"addr":"CARRETERA A-92 KM. 4","city":"ALCALA DE GUADAIRA","cp":"41500","fuels":{"Gazole":{"p":1.569,"d":"2026-07-14"},"SP95":{"p":1.509,"d":"2026-07-14"},"SP98":{"p":1.629,"d":"2026-07-14"}},"brand":"Galp"},{"id":100007282,"lat":37.347583,"lng":-5.846611,"addr":"CL MAR CANTABRICO 13","city":"ALCALA DE GUADAIRA","cp":"41500","fuels":{"Gazole":{"p":1.639,"d":"2026-07-14"},"SP95":{"p":1.629,"d":"2026-07-14"},"SP98":{"p":1.769,"d":"2026-07-14"}},"brand":"Shell"},{"id":100010234,"lat":37.372722,"lng":-5.92175,"addr":"SE-021 km 2.250","city":"ALCALA DE GUADAIRA","cp":"41500","fuels":{"Gazole":{"p":1.649,"d":"2026-07-14"},"SP95":{"p":1.614,"d":"2026-07-14"},"SP98":{"p":1.754,"d":"2026-07-14"},"GPLc":{"p":0.999,"d":"2026-07-14"}},"brand":"Shell"},{"id":100010615,"lat":37.370056,"lng":-5.879972,"addr":"A-92 SEVILLA-MALAGA km 5.900","city":"ALCALA DE GUADAIRA","cp":"41500","fuels":{"Gazole":{"p":1.559,"d":"2026-07-14"},"SP95":{"p":1.499,"d":"2026-07-14"}},"brand":"Shell"},{"id":100015929,"lat":37.374083,"lng":-5.909278,"addr":"CALLE PALMETILLO CUATRO, S/N","city":"ALCALA DE GUADAIRA","cp":"41500","fuels":{"Gazole":{"p":1.589,"d":"2026-07-14"},"SP95":{"p":1.489,"d":"2026-07-14"}},"brand":"Plenergy","h24":true},{"id":100015214,"lat":37.368111,"lng":-5.889417,"addr":"CALLE LA RED NUEVE, 15","city":"ALCALA DE GUADAIRA","cp":"41500","fuels":{"Gazole":{"p":1.575,"d":"2026-07-14"},"SP95":{"p":1.6,"d":"2026-07-14"}},"brand":"E.S. Magdaoil"},{"id":100007095,"lat":37.375694,"lng":-5.908694,"addr":"CARRETERA A-8028 KM. 3","city":"ALCALA DE GUADAIRA","cp":"41500","fuels":{"Gazole":{"p":1.659,"d":"2026-07-14"},"SP95":{"p":1.615,"d":"2026-07-14"}},"brand":"Repsol"},{"id":100007045,"lat":37.352917,"lng":-5.858556,"addr":"POLIGONO PÓLIGONO INDUSTRIAL CERRO CABEZA HERMOSA, AUTOVÍA A-92 KM 7,8,","city":"ALCALA DE GUADAIRA","cp":"41500","fuels":{"Gazole":{"p":1.529,"d":"2026-07-14"},"SP95":{"p":1.469,"d":"2026-07-14"}},"brand":"Econoil"},{"id":100009476,"lat":37.356889,"lng":-5.868306,"addr":"AUTOVIA CR.SEVILLA MALAGA KM. 7,5","city":"ALCALA DE GUADAIRA","cp":"41500","fuels":{"Gazole":{"p":1.559,"d":"2026-07-14"},"SP95":{"p":1.499,"d":"2026-07-14"}},"brand":"Shell"},{"id":100007313,"lat":37.38175,"lng":-5.881083,"addr":"CALLE UNO, 16","city":"ALCALA DE GUADAIRA","cp":"41500","fuels":{"Gazole":{"p":1.499,"d":"2026-07-14"},"SP95":{"p":1.439,"d":"2026-07-14"}},"brand":"Hijos De Oliva"},{"id":100007094,"lat":37.376583,"lng":-5.908778,"addr":"CARRETERA A-8028 KM. 3","city":"ALCALA DE GUADAIRA","cp":"41500","fuels":{"Gazole":{"p":1.659,"d":"2026-07-14"},"SP95":{"p":1.615,"d":"2026-07-14"}},"brand":"Repsol"},{"id":100012682,"lat":37.347556,"lng":-5.832222,"addr":"CARRETERA A-92 KM. 11","city":"ALCALA DE GUADAIRA","cp":"41500","fuels":{"Gazole":{"p":1.519,"d":"2026-07-14"},"SP95":{"p":1.455,"d":"2026-07-14"}},"brand":"Petroprix","h24":true},{"id":100012139,"lat":37.353583,"lng":-5.806556,"addr":"CARRETERA A-398 KM. 2","city":"ALCALA DE GUADAIRA","cp":"41500","fuels":{"Gazole":{"p":1.519,"d":"2026-07-14"},"SP95":{"p":1.455,"d":"2026-07-14"}},"brand":"Plenergy","h24":true},{"id":100013768,"lat":37.300528,"lng":-5.898,"addr":"CARRETERA ALCALA DOS HERMANAS KM. 5,5","city":"ACEBUCHAL (EL)","cp":"41500","fuels":{"Gazole":{"p":1.599,"d":"2026-07-14"},"SP95":{"p":1.619,"d":"2026-07-14"}},"brand":"Oil Line","h24":true},{"id":100015015,"lat":37.523944,"lng":-5.978056,"addr":"AVENIDA DE ANDALUCIA, S/N","city":"ALCALA DEL RIO","cp":"41200","fuels":{"Gazole":{"p":1.428,"d":"2026-07-14"},"SP95":{"p":1.398,"d":"2026-07-14"}},"brand":"Moove","h24":true},{"id":100009588,"lat":37.509,"lng":-5.998111,"addr":"CARRETERA A-8006, KM.15 KM.","city":"ALCALA DEL RIO","cp":"41200","fuels":{"Gazole":{"p":1.44,"d":"2026-07-14"},"SP95":{"p":1.44,"d":"2026-07-14"}},"brand":"Productores Del Campo, S.C.A.","h24":true},{"id":100007311,"lat":37.512083,"lng":-5.987306,"addr":"CALLE VARIANTE CC-431, 127,4","city":"ALCALA DEL RIO","cp":"41200","fuels":{"Gazole":{"p":1.429,"d":"2026-07-14"},"SP95":{"p":1.439,"d":"2026-07-14"}},"brand":"Ilipamagna"},{"id":100007379,"lat":37.617861,"lng":-5.667056,"addr":"CARRETERA SE 431 KM 89 KM. 89","city":"ALCOLEA DEL RIO","cp":"41449","fuels":{"Gazole":{"p":1.619,"d":"2026-07-14"},"SP95":{"p":1.629,"d":"2026-07-14"}},"brand":"Cepsa","h24":true},{"id":100011546,"lat":37.461806,"lng":-6.024528,"addr":"CARRETERA A-8079 KM. 2","city":"ALGABA (LA)","cp":"41980","fuels":{"Gazole":{"p":1.655,"d":"2026-07-14"},"SP95":{"p":1.599,"d":"2026-07-14"},"SP98":{"p":1.769,"d":"2026-07-14"}},"brand":"Repsol"},{"id":100013386,"lat":37.463111,"lng":-6.002056,"addr":"AVENIDA DE LA INDUSTRIA, 25","city":"ALGABA (LA)","cp":"41980","fuels":{"Gazole":{"p":1.449,"d":"2026-07-14"},"SP95":{"p":1.399,"d":"2026-07-14"}},"brand":"Ballenoil","h24":true},{"id":100007307,"lat":37.479389,"lng":-6.007861,"addr":"CARRETERA CTRA A 431 KM. 132,5","city":"ALGABA (LA)","cp":"41980","fuels":{"Gazole":{"p":1.459,"d":"2026-07-14"},"SP95":{"p":1.379,"d":"2026-07-14"}},"brand":"Oroil"},{"id":100009656,"lat":37.02025,"lng":-5.149528,"addr":"CALLE HORCAJO,","city":"ALGAMITAS","cp":"41661","fuels":{"Gazole":{"p":1.521,"d":"2026-07-14"},"SP95":{"p":1.538,"d":"2026-07-14"}},"brand":"Sierra Del Terril Sca"},{"id":100007128,"lat":37.870444,"lng":-6.087806,"addr":"CARRETERA C-421 KM. 113,8","city":"ALMADEN DE LA PLATA","cp":"41240","fuels":{"Gazole":{"p":1.599,"d":"2026-07-14"},"SP95":{"p":1.529,"d":"2026-07-14"}},"brand":"Campsa"},{"id":100008149,"lat":37.313778,"lng":-6.093556,"addr":"CARRETERA SE-648 KM. 9,1","city":"ALMENSILLA","cp":"41111","fuels":{"Gazole":{"p":1.509,"d":"2026-07-14"},"SP95":{"p":1.499,"d":"2026-07-14"}},"brand":"M4 Repost"},{"id":100015184,"lat":37.309917,"lng":-6.101306,"addr":"CALLE ALISO, 32","city":"ALMENSILLA","cp":"41111","fuels":{"Gazole":{"p":1.479,"d":"2026-07-14"},"SP95":{"p":1.469,"d":"2026-07-14"}},"brand":"Qp Almensilla","h24":true},{"id":100013433,"lat":37.247056,"lng":-5.552722,"addr":"AVENIDA VIRGEN DE MONTEMAYOR, 15","city":"ARAHAL","cp":"41600","fuels":{"Gazole":{"p":1.469,"d":"2026-07-14"},"SP95":{"p":1.489,"d":"2026-07-14"}},"brand":"Ballenoil","h24":true},{"id":100012535,"lat":37.251889,"lng":-5.550167,"addr":"CALLE VILLAMARTIN, S/N","city":"ARAHAL","cp":"41600","fuels":{"Gazole":{"p":1.635,"d":"2026-07-14"},"SP95":{"p":1.599,"d":"2026-07-14"},"SP98":{"p":1.739,"d":"2026-07-14"}},"brand":"Bp Arahal"},{"id":100007411,"lat":37.254917,"lng":-5.565806,"addr":"CR A-92, 44","city":"ARAHAL","cp":"41600","fuels":{"Gazole":{"p":1.639,"d":"2026-07-14"},"SP95":{"p":1.609,"d":"2026-07-14"},"SP98":{"p":1.779,"d":"2026-07-14"}},"brand":"Repsol"},{"id":100007410,"lat":37.255611,"lng":-5.564444,"addr":"CR A-92, 44","city":"ARAHAL","cp":"41600","fuels":{"Gazole":{"p":1.639,"d":"2026-07-14"},"SP95":{"p":1.609,"d":"2026-07-14"},"SP98":{"p":1.779,"d":"2026-07-14"}},"brand":"Repsol"},{"id":100009550,"lat":37.234833,"lng":-5.555111,"addr":"CARRETERA ARAHAL-EL CORONIL KM. 11","city":"ARAHAL","cp":"41600","fuels":{"Gazole":{"p":1.469,"d":"2026-07-14"}},"brand":"S.C.A. Labradores De La Campiña"},{"id":100007387,"lat":37.256722,"lng":-5.549639,"addr":"CALLE VILLAMARTÍN, 1","city":"ARAHAL","cp":"41600","fuels":{"Gazole":{"p":1.699,"d":"2026-07-14"},"SP95":{"p":1.619,"d":"2026-07-14"}},"brand":"Moeve"},{"id":100007325,"lat":37.311583,"lng":-6.242,"addr":"CARRETERA A-473 KM. 1","city":"AZNALCAZAR","cp":"41849","fuels":{"Gazole":{"p":1.519,"d":"2026-07-14"},"SP95":{"p":1.499,"d":"2026-07-14"}},"brand":"Agla Aznalcazar"},{"id":100007329,"lat":37.516667,"lng":-6.267111,"addr":"AVENIDA ANDALUCIA, S/N","city":"AZNALCOLLAR","cp":"41870","fuels":{"Gazole":{"p":1.596,"d":"2026-07-14"},"SP95":{"p":1.597,"d":"2026-07-14"}},"brand":"Cepsa"},{"id":100007334,"lat":37.304,"lng":-4.677583,"addr":"CARRETERA BADOLATOSA KM. 0,300","city":"BADOLATOSA","cp":"41570","fuels":{"Gazole":{"p":1.589,"d":"2026-07-14"},"SP95":{"p":1.529,"d":"2026-07-14"}},"brand":"Geds"},{"id":100012086,"lat":37.309333,"lng":-6.211083,"addr":"CARRETERA A-474 KM. 19","city":"BENACAZON","cp":"41805","fuels":{"Gazole":{"p":1.449,"d":"2026-07-14"},"SP95":{"p":1.459,"d":"2026-07-14"}},"brand":"La Juliana","h24":true},{"id":100008157,"lat":37.362056,"lng":-6.2005,"addr":"CARRETERA A-473 KM. 2,800","city":"BENACAZON","cp":"41805","fuels":{"Gazole":{"p":1.539,"d":"2026-07-14"},"SP95":{"p":1.529,"d":"2026-07-14"},"SP98":{"p":1.729,"d":"2026-07-14"},"GPLc":{"p":0.879,"d":"2026-07-14"}},"brand":"Area De Servicio Las Nieves *","h24":true},{"id":100008155,"lat":37.362583,"lng":-6.144389,"addr":"CARRETERA BOLLULLOS DE LA MITACION-UMBRETE KM. 2,500","city":"BOLLULLOS DE LA MITACION","cp":"41110","fuels":{"Gazole":{"p":1.509,"d":"2026-07-14"},"SP95":{"p":1.499,"d":"2026-07-14"},"GPLc":{"p":0.849,"d":"2026-07-14"}},"brand":"Galp","h24":true},{"id":100007467,"lat":37.350444,"lng":-6.138417,"addr":"POLIGONO POLÍGONO INDUSTRIAL P.I.B.O. - PARC. 295 Y 296, 295","city":"BOLLULLOS DE LA MITACION","cp":"41110","fuels":{"Gazole":{"p":1.509,"d":"2026-07-14"},"SP95":{"p":1.499,"d":"2026-07-14"}},"brand":"Galp"},{"id":100015066,"lat":37.333167,"lng":-6.140306,"addr":"CALLE CALVARIO, 103","city":"BOLLULLOS DE LA MITACION","cp":"41110","fuels":{"Gazole":{"p":1.449,"d":"2026-07-14"},"SP95":{"p":1.449,"d":"2026-07-14"}},"brand":"Aybcarburantes"},{"id":100014316,"lat":37.334361,"lng":-6.139,"addr":"AVENIDA JUAN PABLO II, 6","city":"BOLLULLOS DE LA MITACION","cp":"41110","fuels":{"Gazole":{"p":1.499,"d":"2026-07-14"},"SP95":{"p":1.479,"d":"2026-07-14"}},"brand":"Qp Bollullos","h24":true},{"id":100016255,"lat":37.34175,"lng":-6.130083,"addr":"CARRETERA A-474 DE SEVILLA A ALMONTE POR PILAS KM. 7,75","city":"BOLLULLOS DE LA MITACION","cp":"41110","fuels":{"Gazole":{"p":1.534,"d":"2026-07-14"},"SP95":{"p":1.484,"d":"2026-07-14"},"SP98":{"p":1.664,"d":"2026-07-14"}},"brand":"Q8","h24":true},{"id":100007277,"lat":37.381194,"lng":-6.064306,"addr":"AVENIDA AVENIDA DE TOMAS Y VALIENTE, 1","city":"BORMUJOS","cp":"41930","fuels":{"Gazole":{"p":1.649,"d":"2026-07-14"},"SP95":{"p":1.589,"d":"2026-07-14"},"SP98":{"p":1.739,"d":"2026-07-14"}},"brand":"Bp Aljaroil S.L.","h24":true},{"id":100007104,"lat":37.377806,"lng":-6.066056,"addr":"CARRETERA SE-620 KM. 0,8","city":"BORMUJOS","cp":"41930","fuels":{"Gazole":{"p":1.499,"d":"2026-07-14"},"SP95":{"p":1.495,"d":"2026-07-14"}},"brand":"Repsol"},{"id":100007433,"lat":37.374667,"lng":-6.080472,"addr":"CARRETERA SE-625 KM. 1,150","city":"BORMUJOS","cp":"41930","fuels":{"Gazole":{"p":1.665,"d":"2026-07-14"},"SP95":{"p":1.609,"d":"2026-07-14"},"SP98":{"p":1.769,"d":"2026-07-14"}},"brand":"Repsol","h24":true},{"id":100012740,"lat":37.373472,"lng":-6.080111,"addr":"AVENIDA JUAN DIEGO, 68","city":"BORMUJOS","cp":"41930","fuels":{"Gazole":{"p":1.477,"d":"2026-07-14"},"SP95":{"p":1.467,"d":"2026-07-14"}},"brand":"Agla, Es Agroenergetica Lg","h24":true},{"id":100013894,"lat":37.381111,"lng":-6.064972,"addr":"CALLE FRANCISCO TOMAS Y VALIENTE, 46","city":"BORMUJOS","cp":"41930","fuels":{"Gazole":{"p":1.488,"d":"2026-07-14"},"SP95":{"p":1.488,"d":"2026-07-14"}},"brand":"Agla","h24":true},{"id":100011468,"lat":37.36575,"lng":-6.087972,"addr":"CARRETERA SE-620 C.CUESTA-BOLLULLOS KM. 3","city":"BORMUJOS","cp":"41930","fuels":{"Gazole":{"p":1.507,"d":"2026-07-14"},"SP95":{"p":1.494,"d":"2026-07-14"}},"brand":"Shell","h24":true},{"id":100014017,"lat":37.37725,"lng":-6.0665,"addr":"CARRETERA BORMUJOS-CASTILLEJA DE LA CUESTA KM. S/N","city":"BORMUJOS","cp":"41930","fuels":{"Gazole":{"p":1.499,"d":"2026-07-14"},"SP95":{"p":1.495,"d":"2026-07-14"}},"brand":"Ballenoil","h24":true},{"id":100007327,"lat":37.543417,"lng":-5.878111,"addr":"AVENIDA DE SEVILLA, S/N","city":"BRENES","cp":"41310","fuels":{"Gazole":{"p":1.667,"d":"2026-07-14"},"SP95":{"p":1.602,"d":"2026-07-14"}},"brand":"Moeve"},{"id":100014008,"lat":37.541944,"lng":-5.880389,"addr":"CALLE JUNCAL (EL), 12","city":"BRENES","cp":"41310","fuels":{"Gazole":{"p":1.469,"d":"2026-07-14"},"SP95":{"p":1.489,"d":"2026-07-14"}},"brand":"Low Cost Lm Express","h24":true},{"id":100011556,"lat":36.974917,"lng":-5.960667,"addr":"CARRETERA A-471 KM. 16,600","city":"CABEZAS DE SAN JUAN (LAS)","cp":"41730","fuels":{"Gazole":{"p":1.599,"d":"2026-07-14"},"SP95":{"p":1.589,"d":"2026-07-14"},"SP98":{"p":1.729,"d":"2026-07-14"}},"brand":"Shell"},{"id":100010099,"lat":36.97175,"lng":-5.866278,"addr":"NACIONAL IV km 594,50","city":"CABEZAS DE SAN JUAN (LAS)","cp":"41730","fuels":{"Gazole":{"p":1.687,"d":"2026-07-14"},"SP95":{"p":1.697,"d":"2026-07-14"}},"brand":"Repsol"},{"id":100007318,"lat":36.984917,"lng":-5.935167,"addr":"CALLE BLAS INFANTE, 43","city":"CABEZAS DE SAN JUAN (LAS)","cp":"41730","fuels":{"Gazole":{"p":1.599,"d":"2026-07-14"},"SP95":{"p":1.539,"d":"2026-07-14"},"SP98":{"p":1.599,"d":"2026-07-14"}},"brand":"Cepsa","h24":true},{"id":100007466,"lat":37.000861,"lng":-5.938889,"addr":"AUTOPISTA AP-4 KM. 45","city":"CABEZAS DE SAN JUAN (LAS)","cp":"41730","fuels":{"Gazole":{"p":1.639,"d":"2026-07-14"},"SP95":{"p":1.659,"d":"2026-07-14"},"SP98":{"p":1.799,"d":"2026-07-14"},"GPLc":{"p":0.999,"d":"2026-07-14"}},"brand":"Eni","h24":true},{"id":100007319,"lat":36.988833,"lng":-5.935417,"addr":"AVENIDA FEDERICO GARCIA LORCA, 51","city":"CABEZAS DE SAN JUAN (LAS)","cp":"41730","fuels":{"Gazole":{"p":1.528,"d":"2026-07-14"},"SP95":{"p":1.485,"d":"2026-07-14"}},"brand":"Red Ahorro"},{"id":100012632,"lat":36.99225,"lng":-5.94025,"addr":"AVENIDA JESUS NAZARENO, 99","city":"CABEZAS DE SAN JUAN (LAS)","cp":"41730","fuels":{"Gazole":{"p":1.539,"d":"2026-07-14"},"SP95":{"p":1.488,"d":"2026-07-14"}},"brand":"Lavabu","h24":true},{"id":100012655,"lat":36.976306,"lng":-5.948944,"addr":"AVENIDA PABLO IGLESIAS, 80","city":"CABEZAS DE SAN JUAN (LAS)","cp":"41730","fuels":{"Gazole":{"p":1.499,"d":"2026-07-14"},"SP95":{"p":1.489,"d":"2026-07-14"}},"brand":"Estaciones De Servicio Gasolivia","h24":true},{"id":100011369,"lat":37.002333,"lng":-6.000194,"addr":"POLIGONO MARISMILLAS, S/N","city":"MARISMILLAS","cp":"41730","fuels":{"Gazole":{"p":1.638,"d":"2026-07-14"},"SP95":{"p":1.558,"d":"2026-07-14"}},"brand":"Mora Y Ciudad Combustibles"},{"id":100007050,"lat":37.390778,"lng":-6.030722,"addr":"CALLE C/ POETA MUÑOZ SAN ROMÁN,","city":"CAMAS","cp":"41900","fuels":{"Gazole":{"p":1.599,"d":"2026-07-14"},"SP95":{"p":1.569,"d":"2026-07-14"},"SP98":{"p":1.749,"d":"2026-07-14"}},"brand":"Carrefour","h24":true},{"id":100015209,"lat":37.418,"lng":-6.036389,"addr":"CALLE SANTA CRUZ, 4","city":"CAMAS","cp":"41900","fuels":{"Gazole":{"p":1.469,"d":"2026-07-14"},"SP95":{"p":1.479,"d":"2026-07-14"}},"brand":"Ballenoil","h24":true},{"id":100012132,"lat":37.385583,"lng":-6.031444,"addr":"CALLE SAN JUAN DE AZNALFARACHE,","city":"CAMAS","cp":"41900","fuels":{"Gazole":{"p":1.655,"d":"2026-07-14"},"SP95":{"p":1.599,"d":"2026-07-14"},"SP98":{"p":1.739,"d":"2026-07-14"}},"brand":"Bp Vega Del Rey"},{"id":100009186,"lat":37.415194,"lng":-6.035972,"addr":"CARRETERA EXTREMADURA KM. 28","city":"CAMAS","cp":"41900","fuels":{"Gazole":{"p":1.475,"d":"2026-07-14"},"SP95":{"p":1.465,"d":"2026-07-14"},"SP98":{"p":1.645,"d":"2026-07-14"},"GPLc":{"p":1.075,"d":"2026-07-14"}},"brand":"7267","h24":true},{"id":100007129,"lat":37.381722,"lng":-6.026333,"addr":"CR SE-610, 0,9","city":"CAMAS","cp":"41900","fuels":{"Gazole":{"p":1.649,"d":"2026-07-14"},"SP95":{"p":1.599,"d":"2026-07-14"},"SP98":{"p":1.769,"d":"2026-07-14"},"GPLc":{"p":1.069,"d":"2026-07-14"}},"brand":"Repsol"},{"id":100006480,"lat":37.506722,"lng":-5.379528,"addr":"AUTOVIA A-4 KM. 482,100","city":"CAMPANA (LA)","cp":"41429","fuels":{"Gazole":{"p":1.689,"d":"2026-07-14"},"SP95":{"p":1.629,"d":"2026-07-14"}},"brand":"Moeve","h24":true},{"id":100007395,"lat":37.505306,"lng":-5.441361,"addr":"CR N-4, 487","city":"CAMPANA (LA)","cp":"41429","fuels":{"Gazole":{"p":1.669,"d":"2026-07-14"},"SP95":{"p":1.625,"d":"2026-07-14"},"SP98":{"p":1.745,"d":"2026-07-14"}},"brand":"Repsol","h24":true},{"id":100008513,"lat":37.508139,"lng":-5.389056,"addr":"AUTOVIA AUTOVIA A4 KM. 483","city":"CAMPANA (LA)","cp":"41429","fuels":{"Gazole":{"p":1.449,"d":"2026-07-14"},"SP95":{"p":1.429,"d":"2026-07-14"}},"brand":"Ruta 4"},{"id":100006543,"lat":37.572111,"lng":-5.429139,"addr":"AVENIDA DE LORA DEL RIO, S/N","city":"CAMPANA (LA)","cp":"41429","fuels":{"Gazole":{"p":1.599,"d":"2026-07-14"},"SP95":{"p":1.559,"d":"2026-07-14"}},"brand":"Meroil","h24":true},{"id":100006494,"lat":37.594389,"lng":-5.201,"addr":"CARRETERA SE-135 KM. 0,35","city":"CAÑADA ROSAL","cp":"41439","fuels":{"Gazole":{"p":1.699,"d":"2026-07-14"},"SP95":{"p":1.603,"d":"2026-07-14"}},"brand":"Gasolinera Cañada Rosal S.L."},{"id":100011268,"lat":37.576778,"lng":-5.805278,"addr":"CARRETERA A-8005 KM. 21,5","city":"CANTILLANA","cp":"41320","fuels":{"Gazole":{"p":1.571,"d":"2026-07-14"},"SP95":{"p":1.461,"d":"2026-07-14"},"SP98":{"p":1.77,"d":"2026-07-14"},"GPLc":{"p":1.017,"d":"2026-07-14"}},"brand":"La Estacion-Agla","h24":true},{"id":100010314,"lat":37.617278,"lng":-5.833694,"addr":"CARRETERA A-436 KM. 5,300","city":"CANTILLANA","cp":"41320","fuels":{"Gazole":{"p":1.571,"d":"2026-07-14"},"SP95":{"p":1.461,"d":"2026-07-14"}},"brand":"E.S. Los Pajares-Agla"},{"id":100007149,"lat":37.615667,"lng":-5.819833,"addr":"AVENIDA GRANADA, 3","city":"CANTILLANA","cp":"41320","fuels":{"Gazole":{"p":1.635,"d":"2026-07-14"},"SP95":{"p":1.559,"d":"2026-07-14"}},"brand":"Petronor"},{"id":100007088,"lat":37.605389,"lng":-5.820083,"addr":"CARRETERA ESTACIÓN S/N,","city":"CANTILLANA","cp":"41320","fuels":{"Gazole":{"p":1.649,"d":"2026-07-14"},"SP95":{"p":1.609,"d":"2026-07-14"}},"brand":"Repsol"},{"id":100013862,"lat":37.615806,"lng":-5.819389,"addr":"CALLE ALFAREROS, 11","city":"CANTILLANA","cp":"41320","fuels":{"Gazole":{"p":1.485,"d":"2026-07-14"},"SP95":{"p":1.409,"d":"2026-07-14"}},"brand":"Ballenoil","h24":true},{"id":100007123,"lat":37.451111,"lng":-5.769167,"addr":"CARRETERA N-4 KM. 519,5","city":"CARMONA","cp":"41410","fuels":{"Gazole":{"p":1.635,"d":"2026-07-14"},"SP95":{"p":1.589,"d":"2026-07-14"},"SP98":{"p":1.759,"d":"2026-07-14"}},"brand":"Repsol"},{"id":100007403,"lat":37.467389,"lng":-5.650389,"addr":"CALLE SEVILLA, 82","city":"CARMONA","cp":"41410","fuels":{"Gazole":{"p":1.629,"d":"2026-07-14"},"SP95":{"p":1.565,"d":"2026-07-14"},"SP98":{"p":1.735,"d":"2026-07-14"}},"brand":"Repsol"},{"id":100007383,"lat":37.465056,"lng":-5.650917,"addr":"PASEO PASEO CRUZ DEL CARMEN, S/N","city":"CARMONA","cp":"41410","fuels":{"Gazole":{"p":1.629,"d":"2026-07-14"},"SP95":{"p":1.565,"d":"2026-07-14"}},"brand":"Repsol"},{"id":100007062,"lat":37.479694,"lng":-5.651056,"addr":"POLIGONO IND. EL PILERO C/ALBARDONEROS, 2","city":"CARMONA","cp":"41410","fuels":{"Gazole":{"p":1.629,"d":"2026-07-14"},"SP95":{"p":1.569,"d":"2026-07-14"}},"brand":"Bp Avican Carmona"},{"id":100007340,"lat":37.295528,"lng":-5.711833,"addr":"AUTOVIA A-92 KM. 24","city":"CARMONA","cp":"41410","fuels":{"Gazole":{"p":1.678,"d":"2026-07-14"},"SP95":{"p":1.601,"d":"2026-07-14"},"SP98":{"p":1.793,"d":"2026-07-14"}},"brand":"Cepsa"},{"id":100007341,"lat":37.296194,"lng":-5.711278,"addr":"AUTOVIA A-92 KM. 24,000","city":"CARMONA","cp":"41410","fuels":{"Gazole":{"p":1.678,"d":"2026-07-14"},"SP95":{"p":1.601,"d":"2026-07-14"},"SP98":{"p":1.793,"d":"2026-07-14"}},"brand":"Cepsa"},{"id":100013849,"lat":37.439222,"lng":-5.779556,"addr":"CALLE MERCURIO, 22","city":"CARMONA","cp":"41410","fuels":{"Gazole":{"p":1.519,"d":"2026-07-14"},"SP95":{"p":1.459,"d":"2026-07-14"}},"brand":"Operadora Sevillana","h24":true},{"id":100010159,"lat":37.482583,"lng":-5.644111,"addr":"CARRETERA SE-122 KM. 0,65","city":"CARMONA","cp":"41410","fuels":{"Gazole":{"p":1.589,"d":"2026-07-14"},"SP95":{"p":1.529,"d":"2026-07-14"}},"brand":"San Teodomiro"},{"id":100013412,"lat":37.478917,"lng":-5.647556,"addr":"CALLE ALABARDERO P.I.EL PILERO, S/N","city":"CARMONA","cp":"41410","fuels":{"Gazole":{"p":1.619,"d":"2026-07-14"},"SP95":{"p":1.559,"d":"2026-07-14"}},"brand":"Burbujas","h24":true},{"id":100007087,"lat":37.483806,"lng":-5.541306,"addr":"AUTOVIA A-4 KM. 497","city":"CARMONA","cp":"41410","fuels":{"Gazole":{"p":1.648,"d":"2026-07-14"},"SP95":{"p":1.569,"d":"2026-07-14"},"GPLc":{"p":0.874,"d":"2026-07-14"}},"brand":"Agla"},{"id":100008903,"lat":37.468417,"lng":-5.633444,"addr":"CARRETERA CARRETERA N-IV KM. 507","city":"CARMONA","cp":"41410","fuels":{"Gazole":{"p":1.455,"d":"2026-07-14"},"SP95":{"p":1.439,"d":"2026-07-14"}},"brand":"Sedigas, S.L."},{"id":100013448,"lat":37.462056,"lng":-5.65875,"addr":"POLIGONO POLIGONO INDUSTRIAL BRENES-CALLE D-PARCELA 19, 19","city":"CARMONA","cp":"41410","fuels":{"Gazole":{"p":1.589,"d":"2026-07-14"},"SP95":{"p":1.529,"d":"2026-07-14"}},"brand":"Saras Energia"},{"id":100013020,"lat":37.460611,"lng":-5.656528,"addr":"POLIGONO DE BRENES CALLE H, 52","city":"CARMONA","cp":"41410","fuels":{"Gazole":{"p":1.499,"d":"2026-07-14"},"SP95":{"p":1.449,"d":"2026-07-14"}},"brand":"Ballenoil","h24":true},{"id":100007358,"lat":37.358194,"lng":-6.323778,"addr":"AUTOPISTA AUTOPISTA SEVILLA-HUELVA KM. 28","city":"CARRION DE LOS CESPEDES","cp":"41820","fuels":{"Gazole":{"p":1.669,"d":"2026-07-14"},"SP95":{"p":1.649,"d":"2026-07-14"},"SP98":{"p":1.789,"d":"2026-07-14"}},"brand":"Bp A-49 Pilas","h24":true},{"id":100007151,"lat":37.296556,"lng":-4.765083,"addr":"CALLE CARRETERA DE HERRERA, 1","city":"CASARICHE","cp":"41580","fuels":{"Gazole":{"p":1.619,"d":"2026-07-14"},"SP95":{"p":1.559,"d":"2026-07-14"}},"brand":"Repsol"},{"id":100007082,"lat":37.669889,"lng":-5.988222,"addr":"CARRETERA 433 KM. 34,100","city":"CASTILBLANCO ARROYOS","cp":"41230","fuels":{"Gazole":{"p":1.675,"d":"2026-07-14"},"SP95":{"p":1.559,"d":"2026-07-14"}},"brand":"Repsol"},{"id":100009357,"lat":37.383611,"lng":-6.050667,"addr":"CALLE CAMILO JOSE CELA, 7","city":"CASTILLEJA DE LA CUESTA","cp":"41950","fuels":{"Gazole":{"p":1.511,"d":"2026-07-14"},"SP95":{"p":1.449,"d":"2026-07-14"},"GPLc":{"p":0.95,"d":"2026-07-14"}},"brand":"Europa 1","h24":true},{"id":100007284,"lat":37.385722,"lng":-6.046361,"addr":"CENTRO COMERCIAL AIRESUR-IKEA S/N","city":"CASTILLEJA DE LA CUESTA","cp":"41950","fuels":{"Gazole":{"p":1.655,"d":"2026-07-14"},"SP95":{"p":1.598,"d":"2026-07-14"},"SP98":{"p":1.739,"d":"2026-07-14"}},"brand":"Bp Bencir(ikea-Castilleja)","h24":true},{"id":100011315,"lat":37.67825,"lng":-6.253528,"addr":"CARRETERA NACIONAL 433 KM. 47","city":"ARROYO DE LA PLATA","cp":"41890","fuels":{"Gazole":{"p":1.589,"d":"2026-07-14"},"SP95":{"p":1.559,"d":"2026-07-14"}},"brand":"Agla"},{"id":100007330,"lat":37.706,"lng":-6.299944,"addr":"CARRETERA NACIONAL 433 KM. 51,8","city":"CASTILLO DE LAS GUARDAS","cp":"41890","fuels":{"Gazole":{"p":1.649,"d":"2026-07-14"},"SP95":{"p":1.619,"d":"2026-07-14"}},"brand":"Moeve"},{"id":100007328,"lat":37.936528,"lng":-5.758944,"addr":"CARRETERA A-455 KM. 0","city":"CAZALLA DE LA SIERRA","cp":"41370","fuels":{"Gazole":{"p":1.659,"d":"2026-07-14"},"SP95":{"p":1.609,"d":"2026-07-14"}},"brand":"Cepsa"},{"id":100006482,"lat":37.92225,"lng":-5.763222,"addr":"A-432 km 45,5","city":"CAZALLA DE LA SIERRA","cp":"41370","fuels":{"Gazole":{"p":1.649,"d":"2026-07-14"},"SP95":{"p":1.629,"d":"2026-07-14"},"SP98":{"p":1.729,"d":"2026-07-14"}},"brand":"Cepsa","h24":true},{"id":100007360,"lat":37.862111,"lng":-5.6185,"addr":"CARRETERA C-432 KM. 74,2","city":"CONSTANTINA","cp":"41450","fuels":{"Gazole":{"p":1.629,"d":"2026-07-14"},"SP95":{"p":1.619,"d":"2026-07-14"},"SP98":{"p":1.779,"d":"2026-07-14"}},"brand":"Repsol"},{"id":100007364,"lat":37.292389,"lng":-6.059472,"addr":"AVENIDA BLAS INFANTE, 41","city":"CORIA DEL RIO","cp":"41100","fuels":{"Gazole":{"p":1.669,"d":"2026-07-14"},"SP95":{"p":1.599,"d":"2026-07-14"},"SP98":{"p":1.769,"d":"2026-07-14"},"GPLc":{"p":1.035,"d":"2026-07-14"}},"brand":"Repsol"},{"id":100016209,"lat":37.278333,"lng":-6.057861,"addr":"AVENIDA DE BLAS INFANTE, 41","city":"CORIA DEL RIO","cp":"41100","fuels":{"Gazole":{"p":1.479,"d":"2026-07-14"},"SP95":{"p":1.479,"d":"2026-07-14"}},"brand":"Petroprix","h24":true},{"id":100006483,"lat":37.29375,"lng":-6.058278,"addr":"ACCESO CTR. SEVILLA - CORIA, KM. 11,","city":"CORIA DEL RIO","cp":"41100","fuels":{"Gazole":{"p":1.479,"d":"2026-07-14"},"SP95":{"p":1.479,"d":"2026-07-14"}},"brand":"Plenergy","h24":true},{"id":100013609,"lat":37.282389,"lng":-6.061944,"addr":"AVENIDA BLANCA PALOMA, S/N","city":"CORIA DEL RIO","cp":"41100","fuels":{"Gazole":{"p":1.559,"d":"2026-07-14"},"SP95":{"p":1.539,"d":"2026-07-14"}},"brand":"Q8 Easy","h24":true},{"id":100006540,"lat":37.292556,"lng":-6.046944,"addr":"AVDA. BATÁN, 85","city":"CORIA DEL RIO","cp":"41100","fuels":{"Gazole":{"p":1.559,"d":"2026-07-14"},"SP95":{"p":1.529,"d":"2026-07-14"}},"brand":"E.S. El Rocio"},{"id":100010216,"lat":37.289778,"lng":-6.071944,"addr":"CARRETERA CTRA. SE-647 ALMENSILLA-CORIA KM 8.320 KM. 8,320","city":"CORIA DEL RIO","cp":"41110","fuels":{"Gazole":{"p":1.549,"d":"2026-07-14"},"SP95":{"p":1.519,"d":"2026-07-14"}},"brand":"E.S. Iñigo"},{"id":100013613,"lat":37.295861,"lng":-6.053139,"addr":"AVENIDA PALOMARES, 104","city":"CORIA DEL RIO","cp":"41110","fuels":{"Gazole":{"p":1.499,"d":"2026-07-14"},"SP95":{"p":1.499,"d":"2026-07-14"}},"brand":"Ballenoil","h24":true},{"id":100011602,"lat":37.017917,"lng":-5.608639,"addr":"CARRETERA A-375 KM. 24","city":"CORONIL (EL)","cp":"41760","fuels":{"Gazole":{"p":1.599,"d":"2026-07-14"},"SP95":{"p":1.549,"d":"2026-07-14"}},"brand":"Sol"},{"id":100006511,"lat":37.101917,"lng":-4.974944,"addr":"LOS CORRALES - M. JARA (CTRA. A-360 km 102,6)","city":"CORRALES (LOS)","cp":"41657","fuels":{"Gazole":{"p":1.494,"d":"2026-07-14"},"SP95":{"p":1.506,"d":"2026-07-14"}},"brand":"Agla"},{"id":100009788,"lat":37.1035,"lng":-4.989111,"addr":"POLIGONO INDUSTRIAL LOS BALDIOS, S/N","city":"CORRALES (LOS)","cp":"41657","fuels":{"Gazole":{"p":1.491,"d":"2026-07-14"},"SP95":{"p":1.499,"d":"2026-07-14"}},"brand":"Cepsa-La Dehesa S.C.A.","h24":true},{"id":100014341,"lat":36.866639,"lng":-6.031222,"addr":"CARRETERA NACIONAL IV KM. 613,8","city":"CUERVO DE SEVILLA (EL)","cp":"41749","fuels":{"Gazole":{"p":1.499,"d":"2026-07-14"},"SP95":{"p":1.519,"d":"2026-07-14"}},"brand":"Econoil","h24":true},{"id":100007443,"lat":36.853167,"lng":-6.040611,"addr":"CALLE MANUEL LOPEZ DE SORIA, 9","city":"CUERVO DE SEVILLA (EL)","cp":"41749","fuels":{"Gazole":{"p":1.687,"d":"2026-07-14"},"SP95":{"p":1.697,"d":"2026-07-14"}},"brand":"Repsol"},{"id":100010911,"lat":36.867167,"lng":-6.029806,"addr":"CR. NACIONAL IV km 613,700","city":"CUERVO DE SEVILLA (EL)","cp":"41749","fuels":{"Gazole":{"p":1.687,"d":"2026-07-14"},"SP95":{"p":1.697,"d":"2026-07-14"}},"brand":"Repsol"},{"id":100013714,"lat":36.858111,"lng":-6.034944,"addr":"CALLE TORNERO, 4","city":"CUERVO DE SEVILLA (EL)","cp":"41749","fuels":{"Gazole":{"p":1.497,"d":"2026-07-14"},"SP95":{"p":1.499,"d":"2026-07-14"}},"brand":"E.S. Rodalabota"},{"id":100013457,"lat":37.287806,"lng":-5.90575,"addr":"CALLE TAJO, S/N","city":"DOS HERMANAS","cp":"41700","fuels":{"Gazole":{"p":1.599,"d":"2026-07-14"},"SP95":{"p":1.559,"d":"2026-07-14"}},"brand":"Autofuel Express","h24":true},{"id":100012620,"lat":37.266778,"lng":-5.998722,"addr":"CALLE ANFORA, 5","city":"DOS HERMANAS","cp":"41700","fuels":{"Gazole":{"p":1.582,"d":"2026-07-14"},"SP95":{"p":1.571,"d":"2026-07-14"}},"brand":"Agla"},{"id":100007281,"lat":37.279944,"lng":-5.909611,"addr":"GL CATAELGALLO","city":"DOS HERMANAS","cp":"41700","fuels":{"Gazole":{"p":1.649,"d":"2026-07-14"},"SP95":{"p":1.614,"d":"2026-07-14"},"SP98":{"p":1.754,"d":"2026-07-14"}},"brand":"Shell","h24":true},{"id":100011176,"lat":37.279806,"lng":-5.990528,"addr":"CALLE AS, SN","city":"DOS HERMANAS","cp":"41700","fuels":{"Gazole":{"p":1.599,"d":"2026-07-14"},"SP95":{"p":1.589,"d":"2026-07-14"},"SP98":{"p":1.729,"d":"2026-07-14"}},"brand":"Shell"},{"id":100012438,"lat":37.277194,"lng":-5.934306,"addr":"CARRETERA E-05/N-IV KM. 554,50","city":"DOS HERMANAS","cp":"41700","fuels":{"Gazole":{"p":1.644,"d":"2026-07-14"},"SP95":{"p":1.609,"d":"2026-07-14"},"SP98":{"p":1.749,"d":"2026-07-14"}},"brand":"Shell"},{"id":100014675,"lat":37.283139,"lng":-5.936778,"addr":"CARRETERA SEVILLA - CADIZ KM 555 ESQUINA CALLE DOCTOR FLEMING KM. 555","city":"DOS HERMANAS","cp":"41700","fuels":{"Gazole":{"p":1.589,"d":"2026-07-14"},"SP95":{"p":1.579,"d":"2026-07-14"},"SP98":{"p":1.709,"d":"2026-07-14"}},"brand":"Carrefour","h24":true},{"id":100007333,"lat":37.296389,"lng":-5.952556,"addr":"A-4 km 552,4","city":"DOS HERMANAS","cp":"41700","fuels":{"Gazole":{"p":1.509,"d":"2026-07-14"},"SP95":{"p":1.525,"d":"2026-07-14"}},"brand":"Ballenoil","h24":true},{"id":100007332,"lat":37.295583,"lng":-5.952611,"addr":"CARRERA N IV K.M.552,4, 2","city":"DOS HERMANAS","cp":"41700","fuels":{"Gazole":{"p":1.509,"d":"2026-07-14"},"SP95":{"p":1.525,"d":"2026-07-14"}},"brand":"Ballenoil","h24":true},{"id":100007250,"lat":37.274028,"lng":-5.931194,"addr":"CARRETERA MADRID-CADIZ KM. 555,5","city":"DOS HERMANAS","cp":"41700","fuels":{"Gazole":{"p":1.645,"d":"2026-07-14"},"SP95":{"p":1.599,"d":"2026-07-14"},"SP98":{"p":1.739,"d":"2026-07-14"}},"brand":"Bp Nuestra Señora De Valme"},{"id":100007280,"lat":37.28675,"lng":-5.936694,"addr":"RD CIRCUNVALACION CON N-IV","city":"DOS HERMANAS","cp":"41700","fuels":{"Gazole":{"p":1.645,"d":"2026-07-14"},"SP95":{"p":1.599,"d":"2026-07-14"},"SP98":{"p":1.739,"d":"2026-07-14"}},"brand":"Bp Galises Ii","h24":true},{"id":100006477,"lat":37.270389,"lng":-5.920611,"addr":"AVENIDA DE ANDALUCIA, 230","city":"DOS HERMANAS","cp":"41700","fuels":{"Gazole":{"p":1.645,"d":"2026-07-14"},"SP95":{"p":1.605,"d":"2026-07-14"},"SP98":{"p":1.739,"d":"2026-07-14"}},"brand":"Cepsa","h24":true},{"id":100007093,"lat":37.229889,"lng":-5.92775,"addr":"CR N-IV KM.  560.75","city":"DOS HERMANAS","cp":"41700","fuels":{"Gazole":{"p":1.639,"d":"2026-07-14"},"SP95":{"p":1.609,"d":"2026-07-14"}},"brand":"Shell"},{"id":100012972,"lat":37.2985,"lng":-5.925028,"addr":"ROTONDA ADOLFO SUAREZ, 54","city":"DOS HERMANAS","cp":"41700","fuels":{"Gazole":{"p":1.599,"d":"2026-07-14"},"SP95":{"p":1.619,"d":"2026-07-14"},"SP98":{"p":1.709,"d":"2026-07-14"}},"brand":"Octanos"},{"id":100007238,"lat":37.288194,"lng":-5.91575,"addr":"C/ AVENIDA 28 DE FEBRERO, 12","city":"DOS HERMANAS","cp":"41700","fuels":{"Gazole":{"p":1.649,"d":"2026-07-14"},"SP95":{"p":1.614,"d":"2026-07-14"},"SP98":{"p":1.794,"d":"2026-07-14"}},"brand":"Repsol"},{"id":100016227,"lat":37.288806,"lng":-5.943333,"addr":"AVENIDA 4 DE DICIEMBRE, 553","city":"DOS HERMANAS","cp":"41700","fuels":{"Gazole":{"p":1.509,"d":"2026-07-14"},"SP95":{"p":1.525,"d":"2026-07-14"}},"brand":"Plenergy","h24":true},{"id":100013396,"lat":37.264111,"lng":-5.920167,"addr":"AVENIDA ANDALUCIA, 183","city":"DOS HERMANAS","cp":"41700","fuels":{"Gazole":{"p":1.469,"d":"2026-07-14"},"SP95":{"p":1.525,"d":"2026-07-14"}},"brand":"Petroprix","h24":true},{"id":100015882,"lat":37.281611,"lng":-5.990278,"addr":"CARRETERA ISLA MENOR S/N KM. S/N","city":"DOS HERMANAS","cp":"41700","fuels":{"Gazole":{"p":1.49,"d":"2026-07-14"},"SP95":{"p":1.48,"d":"2026-07-14"}},"brand":"Coniyde Doshermanas","h24":true},{"id":100016493,"lat":37.299,"lng":-5.927639,"addr":"RONDA ADOLFO SUAREZ, 56","city":"DOS HERMANAS","cp":"41089","fuels":{"Gazole":{"p":1.599,"d":"2026-07-14"},"SP95":{"p":1.619,"d":"2026-07-14"}},"brand":"Octanos"},{"id":100013670,"lat":37.315611,"lng":-5.941583,"addr":"AVENIDA DE LAS UNIVERSIDADES, S/N","city":"DOS HERMANAS","cp":"41089","fuels":{"Gazole":{"p":1.645,"d":"2026-07-14"},"SP95":{"p":1.599,"d":"2026-07-14"},"SP98":{"p":1.739,"d":"2026-07-14"}},"brand":"Bp Entrenucleos","h24":true},{"id":100007285,"lat":37.347611,"lng":-5.938278,"addr":"CALLE VIA APIA, 62","city":"DOS HERMANAS","cp":"41089","fuels":{"Gazole":{"p":1.665,"d":"2026-07-14"},"SP95":{"p":1.625,"d":"2026-07-14"},"SP98":{"p":1.749,"d":"2026-07-14"}},"brand":"Repsol Montequinto","h24":true},{"id":100012645,"lat":37.280972,"lng":-5.937583,"addr":"CARRETERA E-05/N-IV KM. 553,800","city":"DOS HERMANAS","cp":"41089","fuels":{"Gazole":{"p":1.509,"d":"2026-07-14"},"SP95":{"p":1.525,"d":"2026-07-14"}},"brand":"Ballenoil","h24":true},{"id":100013798,"lat":37.293222,"lng":-5.989333,"addr":"CALLE RIO VIEJO ESQ.CTRA.EL COPERO.P.IND.CTRA. DE LA ISLA, S/N","city":"DOS HERMANAS","cp":"41089","fuels":{"Gazole":{"p":1.599,"d":"2026-07-14"},"SP95":{"p":1.539,"d":"2026-07-14"}},"brand":"Octanos"},{"id":100013248,"lat":37.29,"lng":-5.933694,"addr":"AVENIDA DE LA LIBERTAD, 7","city":"DOS HERMANAS","cp":"41089","fuels":{"Gazole":{"p":1.469,"d":"2026-07-14"},"SP95":{"p":1.525,"d":"2026-07-14"}},"brand":"Petroprix","h24":true},{"id":100006471,"lat":37.345028,"lng":-5.93425,"addr":"AUTOVIA SEVILLA UTRERA MARGEN DERECHA KM. 2,500","city":"QUINTO","cp":"41089","fuels":{"Gazole":{"p":1.639,"d":"2026-07-14"},"SP95":{"p":1.599,"d":"2026-07-14"}},"brand":"Galp","h24":true},{"id":100015828,"lat":37.278333,"lng":-5.934167,"addr":"AVENIDA 4 DE DICIEMBRE, 554","city":"DOS HERMANAS","cp":"41730","fuels":{"Gazole":{"p":1.509,"d":"2026-07-14"},"SP95":{"p":1.525,"d":"2026-07-14"}},"brand":"Petroprix","h24":true},{"id":100011649,"lat":37.529361,"lng":-5.082139,"addr":"PROLONGACIO/PROLONGACIÓN AVDA.  DEL  GENIL,  S/N, S/N","city":"ECIJA","cp":"41400","fuels":{"Gazole":{"p":1.579,"d":"2026-07-14"},"SP95":{"p":1.519,"d":"2026-07-14"},"SP98":{"p":1.709,"d":"2026-07-14"}},"brand":"Carrefour","h24":true},{"id":100015809,"lat":37.530944,"lng":-5.083694,"addr":"POLIGONO PARCELA 24 DEL SECTOR I-06/1 POLIGONO, S/N","city":"ECIJA","cp":"41400","fuels":{"Gazole":{"p":1.519,"d":"2026-07-14"},"SP95":{"p":1.519,"d":"2026-07-14"}},"brand":"Geds","h24":true},{"id":100006512,"lat":37.529528,"lng":-5.098861,"addr":"CARRETERA CTRA. MADRID-CADIZ KM. 456,400","city":"ECIJA","cp":"41400","fuels":{"Gazole":{"p":1.529,"d":"2026-07-14"},"SP95":{"p":1.489,"d":"2026-07-14"}},"brand":"Santiago"},{"id":100006544,"lat":37.534194,"lng":-5.079361,"addr":"AVENIDA GENIL, 18","city":"ECIJA","cp":"41400","fuels":{"Gazole":{"p":1.539,"d":"2026-07-14"},"SP95":{"p":1.499,"d":"2026-07-14"}},"brand":"Santiago","h24":true},{"id":100006446,"lat":37.5485,"lng":-5.045083,"addr":"AUTOVIA A-4 KM. 450","city":"ECIJA","cp":"41400","fuels":{"Gazole":{"p":1.489,"d":"2026-07-14"},"SP95":{"p":1.489,"d":"2026-07-14"},"SP98":{"p":1.659,"d":"2026-07-14"}},"brand":"Astigi - Écija  - 5:30h A 23:30h"},{"id":100007266,"lat":37.4895,"lng":-5.164833,"addr":"CARRETERA A-364 KM. 7","city":"ECIJA","cp":"41400","fuels":{"Gazole":{"p":1.619,"d":"2026-07-14"},"SP95":{"p":1.559,"d":"2026-07-14"}},"brand":"Genil"},{"id":100007109,"lat":37.54875,"lng":-5.045472,"addr":"CARRETERA C-430 KM. 1","city":"ECIJA","cp":"41400","fuels":{"Gazole":{"p":1.615,"d":"2026-07-14"},"SP95":{"p":1.559,"d":"2026-07-14"}},"brand":"Repsol","h24":true},{"id":100007293,"lat":37.523194,"lng":-5.143778,"addr":"CARRETERA E-5/A-4 KM. 460","city":"ECIJA","cp":"41400","fuels":{"Gazole":{"p":1.679,"d":"2026-07-14"},"SP95":{"p":1.619,"d":"2026-07-14"}},"brand":"Moeve"},{"id":100007438,"lat":37.523556,"lng":-5.209056,"addr":"AUTOVIA A-4 KM. 465","city":"ECIJA","cp":"41400","fuels":{"Gazole":{"p":1.655,"d":"2026-07-14"},"SP95":{"p":1.559,"d":"2026-07-14"},"SP98":{"p":1.729,"d":"2026-07-14"}},"brand":"Repsol"},{"id":100007245,"lat":37.541806,"lng":-5.073111,"addr":"AVENIDA DOCTOR FLEMING, 45","city":"ECIJA","cp":"41400","fuels":{"Gazole":{"p":1.619,"d":"2026-07-14"},"SP95":{"p":1.559,"d":"2026-07-14"},"SP98":{"p":1.729,"d":"2026-07-14"}},"brand":"Repsol"},{"id":100015886,"lat":37.549833,"lng":-5.089333,"addr":"CALLE CARRETERA CAÑADA DEL ROSAL, 1","city":"ECIJA","cp":"41400","fuels":{"Gazole":{"p":1.449,"d":"2026-07-14"},"SP95":{"p":1.469,"d":"2026-07-14"}},"brand":"Ballenoil","h24":true},{"id":100009286,"lat":37.603472,"lng":-4.969861,"addr":"AUTOVIA MADRID-SEVILLA km 441,500","city":"ECIJA","cp":"41400","fuels":{"Gazole":{"p":1.669,"d":"2026-07-14"},"SP95":{"p":1.589,"d":"2026-07-14"}},"brand":"Shell"},{"id":100007283,"lat":37.547333,"lng":-5.0905,"addr":"POLIGONO EL BARRERO, C/ ARTESANOS, 29","city":"ECIJA","cp":"41400","fuels":{"Gazole":{"p":1.619,"d":"2026-07-14"},"SP95":{"p":1.579,"d":"2026-07-14"},"SP98":{"p":1.795,"d":"2026-07-14"}},"brand":"BP"},{"id":100009681,"lat":37.562222,"lng":-5.069,"addr":"CARRETERA ECIJA-FTE. PALMERA KM. 1,5","city":"ECIJA","cp":"41400","fuels":{"Gazole":{"p":1.469,"d":"2026-07-14"},"SP95":{"p":1.423,"d":"2026-07-14"}},"brand":"Capi"},{"id":100011460,"lat":37.521972,"lng":-5.155444,"addr":"CALLE DEHESA DE LAS YEGUAS, 4","city":"VILLANUEVA DEL REY","cp":"41409","fuels":{"Gazole":{"p":1.559,"d":"2026-07-14"},"SP95":{"p":1.519,"d":"2026-07-14"}},"brand":"Bqp Fuel"},{"id":100015749,"lat":37.384056,"lng":-6.159583,"addr":"CARRETERA A8076 KM. 7","city":"ESPARTINAS","cp":"41807","fuels":{"Gazole":{"p":1.499,"d":"2026-07-14"},"SP95":{"p":1.479,"d":"2026-07-14"}},"brand":"Best Fuel"},{"id":100014725,"lat":37.382139,"lng":-6.115194,"addr":"CALLE JARDINES DE TRIANA, 1","city":"ESPARTINAS","cp":"41807","fuels":{"Gazole":{"p":1.699,"d":"2026-07-14"},"SP95":{"p":1.599,"d":"2026-07-14"},"SP98":{"p":1.759,"d":"2026-07-14"}},"brand":"BP"},{"id":100008515,"lat":37.380972,"lng":-6.136389,"addr":"CARRETERA N-431 KM. 562","city":"ESPARTINAS","cp":"41807","fuels":{"Gazole":{"p":1.654,"d":"2026-07-14"},"SP95":{"p":1.604,"d":"2026-07-14"},"SP98":{"p":1.744,"d":"2026-07-14"}},"brand":"Shell"},{"id":100012291,"lat":37.384278,"lng":-6.093056,"addr":"CALLE NUESTRA SEÑORA DEL ROSARIO, 23","city":"ESPARTINAS","cp":"41807","fuels":{"Gazole":{"p":1.529,"d":"2026-07-14"},"SP95":{"p":1.499,"d":"2026-07-14"}},"brand":"C2i","h24":true},{"id":100009308,"lat":37.275778,"lng":-4.801167,"addr":"AUTOVIA A 92 km 113.700","city":"ESTEPA","cp":"41560","fuels":{"Gazole":{"p":1.624,"d":"2026-07-14"},"SP95":{"p":1.569,"d":"2026-07-14"}},"brand":"Shell"},{"id":100007442,"lat":37.298667,"lng":-4.883389,"addr":"CL AVDA. BADIA POLESINE , 49","city":"ESTEPA","cp":"41560","fuels":{"Gazole":{"p":1.599,"d":"2026-07-14"},"SP95":{"p":1.569,"d":"2026-07-14"},"SP98":{"p":1.739,"d":"2026-07-14"}},"brand":"Repsol","h24":true},{"id":100016443,"lat":37.295139,"lng":-4.881639,"addr":"AVENIDA BADIA POLESINE, 5","city":"ESTEPA","cp":"41560","fuels":{"Gazole":{"p":1.409,"d":"2026-07-14"},"SP95":{"p":1.409,"d":"2026-07-14"}},"brand":"Ballenoil","h24":true},{"id":100007254,"lat":37.291389,"lng":-4.882472,"addr":"AVENIDA DE ANDALUCIA, 32","city":"ESTEPA","cp":"41560","fuels":{"Gazole":{"p":1.599,"d":"2026-07-14"},"SP95":{"p":1.569,"d":"2026-07-14"},"SP98":{"p":1.729,"d":"2026-07-14"}},"brand":"Bp Misan Estepa"},{"id":100007120,"lat":37.301889,"lng":-4.88,"addr":"AUTOVIA A-92 KM. 105,250","city":"ESTEPA","cp":"41560","fuels":{"Gazole":{"p":1.639,"d":"2026-07-14"},"SP95":{"p":1.569,"d":"2026-07-14"},"SP98":{"p":1.739,"d":"2026-07-14"},"GPLc":{"p":1.045,"d":"2026-07-14"}},"brand":"Repsol"},{"id":100013024,"lat":37.296111,"lng":-4.884,"addr":"CALLE VIANA, 2","city":"ESTEPA","cp":"41560","fuels":{"Gazole":{"p":1.479,"d":"2026-07-14"},"SP95":{"p":1.469,"d":"2026-07-14"}},"brand":"Mercaoil Energy","h24":true},{"id":100007117,"lat":37.302361,"lng":-4.87975,"addr":"CR A-92, 110,1","city":"ESTEPA","cp":"41560","fuels":{"Gazole":{"p":1.639,"d":"2026-07-14"},"SP95":{"p":1.569,"d":"2026-07-14"},"SP98":{"p":1.739,"d":"2026-07-14"},"GPLc":{"p":1.035,"d":"2026-07-14"}},"brand":"Repsol","h24":true},{"id":100016317,"lat":37.464944,"lng":-5.343472,"addr":"CALLE VIRGEN DEL CARMEN, S/N","city":"FUENTES DE ANDALUCIA","cp":"41420","fuels":{"Gazole":{"p":1.389,"d":"2026-07-14"},"SP95":{"p":1.449,"d":"2026-07-14"}},"brand":"Ballenoil","h24":true},{"id":100013096,"lat":37.472333,"lng":-5.350444,"addr":"CALLE MAESTRO JUAN RUIZ, 1","city":"FUENTES DE ANDALUCIA","cp":"41420","fuels":{"Gazole":{"p":1.399,"d":"2026-07-14"},"SP95":{"p":1.459,"d":"2026-07-14"}},"brand":"Agla","h24":true},{"id":100007396,"lat":37.636139,"lng":-6.14775,"addr":"CARRETERA NACIONAL 630 KM. 781","city":"GARROBO (EL)","cp":"41888","fuels":{"Gazole":{"p":1.665,"d":"2026-07-14"},"SP95":{"p":1.619,"d":"2026-07-14"},"SP98":{"p":1.739,"d":"2026-07-14"}},"brand":"Repsol"},{"id":100008516,"lat":37.324889,"lng":-6.029472,"addr":"CTRA.AUTOVIA SEVILLA - CORIA km 6","city":"GELVES","cp":"41120","fuels":{"Gazole":{"p":1.649,"d":"2026-07-14"},"SP95":{"p":1.599,"d":"2026-07-14"},"SP98":{"p":1.739,"d":"2026-07-14"}},"brand":"Shell"},{"id":100006476,"lat":37.52775,"lng":-6.162472,"addr":"CALLE PUENTE SIN BARANDA (DEL), 0","city":"GERENA","cp":"41860","fuels":{"Gazole":{"p":1.655,"d":"2026-07-14"},"SP95":{"p":1.599,"d":"2026-07-14"},"SP98":{"p":1.769,"d":"2026-07-14"}},"brand":"Repsol"},{"id":100007150,"lat":37.515917,"lng":-6.142972,"addr":"CARRETERA SE-3410 KM. 9,150","city":"GERENA","cp":"41860","fuels":{"Gazole":{"p":1.655,"d":"2026-07-14"},"SP95":{"p":1.599,"d":"2026-07-14"}},"brand":"Repsol"},{"id":100006537,"lat":37.251944,"lng":-4.934056,"addr":"CARRETERA GILENA-AGUADULCE KM. 2,87","city":"GILENA","cp":"41565","fuels":{"Gazole":{"p":1.494,"d":"2026-07-14"},"SP95":{"p":1.479,"d":"2026-07-14"}},"brand":"Myfuel Low Cost","h24":true},{"id":100006479,"lat":37.234806,"lng":-4.904972,"addr":"CARRETERA CTRA. SE-491, GILENA-PEDRERA KM. 11,0 KM. 11","city":"GILENA","cp":"41565","fuels":{"Gazole":{"p":1.494,"d":"2026-07-14"},"SP95":{"p":1.506,"d":"2026-07-14"}},"brand":"Agla"},{"id":100007428,"lat":37.383056,"lng":-6.086167,"addr":"AVENIDA EUROPA, 2","city":"GINES","cp":"41960","fuels":{"Gazole":{"p":1.664,"d":"2026-07-14"},"SP95":{"p":1.609,"d":"2026-07-14"},"SP98":{"p":1.749,"d":"2026-07-14"},"GPLc":{"p":0.999,"d":"2026-07-14"}},"brand":"Shell"},{"id":100013394,"lat":37.380889,"lng":-6.081917,"addr":"CALLE ALBAÑILERIA, 5","city":"GINES","cp":"41960","fuels":{"Gazole":{"p":1.499,"d":"2026-07-14"},"SP95":{"p":1.495,"d":"2026-07-14"}},"brand":"Petroprix","h24":true},{"id":100007432,"lat":37.377722,"lng":-6.082028,"addr":"CR SE-625, 0,750","city":"GINES","cp":"41960","fuels":{"Gazole":{"p":1.675,"d":"2026-07-14"},"SP95":{"p":1.609,"d":"2026-07-14"},"SP98":{"p":1.769,"d":"2026-07-14"},"GPLc":{"p":1.035,"d":"2026-07-14"}},"brand":"Repsol"},{"id":100008517,"lat":37.384222,"lng":-6.066194,"addr":"AVENIDA DE EUROPA, 102","city":"GINES","cp":"41960","fuels":{"Gazole":{"p":1.499,"d":"2026-07-14"},"SP95":{"p":1.495,"d":"2026-07-14"}},"brand":"Ballenoil","h24":true},{"id":100015982,"lat":37.378111,"lng":-6.082694,"addr":"AVENIDA MARCHALOMAR, 4","city":"GINES","cp":"41960","fuels":{"Gazole":{"p":1.499,"d":"2026-07-14"},"SP95":{"p":1.495,"d":"2026-07-14"}},"brand":"Plenergy","h24":true},{"id":100013302,"lat":37.379639,"lng":-6.083028,"addr":"POLIGONO CERCA DEL PINO I, CTRA. BORMUJOS, S/N","city":"GINES","cp":"41960","fuels":{"Gazole":{"p":1.499,"d":"2026-07-14"},"SP95":{"p":1.495,"d":"2026-07-14"}},"brand":"Supeco","h24":true},{"id":100007157,"lat":38.090306,"lng":-5.822444,"addr":"CARRETERA CAZALLA P.K 25,200 KM. 25,200","city":"GUADALCANAL","cp":"41390","fuels":{"Gazole":{"p":1.649,"d":"2026-07-14"},"SP95":{"p":1.609,"d":"2026-07-14"},"SP98":{"p":2.219,"d":"2026-07-14"}},"brand":"Repsol","h24":true},{"id":100007121,"lat":37.535139,"lng":-6.054917,"addr":"CARRETERA SE-180 KM. 10,6","city":"GUILLENA","cp":"41210","fuels":{"Gazole":{"p":1.639,"d":"2026-07-14"},"SP95":{"p":1.599,"d":"2026-07-14"},"SP98":{"p":1.759,"d":"2026-07-14"}},"brand":"Repsol"},{"id":100007389,"lat":37.507417,"lng":-6.074583,"addr":"CARRETERA N-630 KM. 798","city":"GUILLENA","cp":"41210","fuels":{"Gazole":{"p":1.665,"d":"2026-07-14"},"SP95":{"p":1.619,"d":"2026-07-14"},"SP98":{"p":1.739,"d":"2026-07-14"},"GPLc":{"p":1.039,"d":"2026-07-14"}},"brand":"Repsol"},{"id":100013464,"lat":37.545944,"lng":-6.054778,"addr":"AVENIDA AVENIDA PAÑEROS, 10","city":"GUILLENA","cp":"41210","fuels":{"Gazole":{"p":1.539,"d":"2026-07-14"},"SP95":{"p":1.539,"d":"2026-07-14"}},"brand":"Petrosand","h24":true},{"id":100012165,"lat":37.554639,"lng":-6.035833,"addr":"CALLE INGENIERIA, 1","city":"GUILLENA","cp":"41210","fuels":{"Gazole":{"p":1.649,"d":"2026-07-14"},"SP95":{"p":1.599,"d":"2026-07-14"}},"brand":"Moeve- E.S. El Cerro","h24":true},{"id":100016377,"lat":37.543389,"lng":-6.056917,"addr":"AVENIDA DE LAS PAJANOSAS, 67","city":"GUILLENA","cp":"41210","fuels":{"Gazole":{"p":1.539,"d":"2026-07-14"},"SP95":{"p":1.539,"d":"2026-07-14"}},"brand":"004602","h24":true},{"id":100013472,"lat":37.571778,"lng":-6.107944,"addr":"AUTOVIA RUTA DE LA PLATA KM. 790","city":"PAJANOSAS (LAS)","cp":"41219","fuels":{"Gazole":{"p":1.689,"d":"2026-07-14"},"SP95":{"p":1.629,"d":"2026-07-14"},"SP98":{"p":1.759,"d":"2026-07-14"}},"brand":"Repsol","h24":true},{"id":100011269,"lat":37.359417,"lng":-4.849556,"addr":"CARRETERA ESTEPA 14 KM.","city":"HERRERA","cp":"41567","fuels":{"Gazole":{"p":1.619,"d":"2026-07-14"},"SP95":{"p":1.559,"d":"2026-07-14"}},"brand":"Repsol"},{"id":100007048,"lat":37.362528,"lng":-4.843389,"addr":"POLG.IND. \"EL BUJEO\" PARCELA 41","city":"HERRERA","cp":"41567","fuels":{"Gazole":{"p":1.599,"d":"2026-07-14"},"SP95":{"p":1.549,"d":"2026-07-14"}},"brand":"Q8"},{"id":100008156,"lat":37.363306,"lng":-6.270222,"addr":"URBANIZACIÓN VIRGEN DEL ROCIO, 7","city":"HUEVAR","cp":"41830","fuels":{"Gazole":{"p":1.649,"d":"2026-07-14"},"SP95":{"p":1.659,"d":"2026-07-14"}},"brand":"Repsol"},{"id":100007374,"lat":37.355361,"lng":-5.224639,"addr":"CARRETERA SE-700 KM. 9,200","city":"LANTEJUELA (LA)","cp":"41630","fuels":{"Gazole":{"p":1.625,"d":"2026-07-14"},"SP95":{"p":1.559,"d":"2026-07-14"}},"brand":"Repsol"},{"id":100007085,"lat":36.927333,"lng":-6.071222,"addr":"CARRETERA A-471 SEVILLA-CHIPIONA KM. 27,900","city":"LEBRIJA","cp":"41740","fuels":{"Gazole":{"p":1.619,"d":"2026-07-14"},"SP95":{"p":1.599,"d":"2026-07-14"},"SP98":{"p":1.769,"d":"2026-07-14"}},"brand":"Eni","h24":true},{"id":100007365,"lat":36.926889,"lng":-6.0835,"addr":"CL AVENIDA DE ANDALUCIA, S.N.","city":"LEBRIJA","cp":"41740","fuels":{"Gazole":{"p":1.665,"d":"2026-07-14"},"SP95":{"p":1.559,"d":"2026-07-14"}},"brand":"Campsa"},{"id":100007297,"lat":36.920194,"lng":-6.065778,"addr":"AVENIDA JOSE FERNANDEZ RUIZ, 60","city":"LEBRIJA","cp":"41740","fuels":{"Gazole":{"p":1.789,"d":"2026-07-14"},"SP95":{"p":1.719,"d":"2026-07-14"}},"brand":"Cepsa","h24":true},{"id":100007099,"lat":36.900694,"lng":-6.125389,"addr":"CARRETERA LEBRIJA-TREBUJENA A-471 KM. 34","city":"LEBRIJA","cp":"41740","fuels":{"Gazole":{"p":1.548,"d":"2026-07-14"},"SP95":{"p":1.498,"d":"2026-07-14"}},"brand":"Libre"},{"id":100013194,"lat":36.911,"lng":-6.080528,"addr":"AVENIDA ATENAS DE, 129","city":"LEBRIJA","cp":"41710","fuels":{"Gazole":{"p":1.519,"d":"2026-07-14"},"SP95":{"p":1.479,"d":"2026-07-14"}},"brand":"E.S. Atenas"},{"id":100012274,"lat":36.917056,"lng":-6.034944,"addr":"CARRETERA SE-6300 KM. 5","city":"LEBRIJA","cp":"41710","fuels":{"Gazole":{"p":1.559,"d":"2026-07-14"},"SP95":{"p":1.519,"d":"2026-07-14"}},"brand":"Avia"},{"id":100015173,"lat":36.921806,"lng":-6.071444,"addr":"AVENIDA JOSE MARIA TOMASSETTI, 5","city":"LEBRIJA","cp":"41710","fuels":{"Gazole":{"p":1.559,"d":"2026-07-14"},"SP95":{"p":1.519,"d":"2026-07-14"}},"brand":"Plenergy","h24":true},{"id":100013008,"lat":36.911222,"lng":-6.082389,"addr":"AVENIDA NERVIÓN, 42","city":"LEBRIJA","cp":"41710","fuels":{"Gazole":{"p":1.579,"d":"2026-07-14"},"SP95":{"p":1.539,"d":"2026-07-14"}},"brand":"Agla - Petrouve"},{"id":100010954,"lat":37.661611,"lng":-5.533778,"addr":"CARRETERA LORA-CONSTANTINA KM. 72,659","city":"LORA DEL RIO","cp":"41440","fuels":{"Gazole":{"p":1.629,"d":"2026-07-14"},"SP95":{"p":1.619,"d":"2026-07-14"}},"brand":"Repsol"},{"id":100007274,"lat":37.651389,"lng":-5.548472,"addr":"POLIGONO IND. MATALLANA, C/CARRETERIA, 1","city":"LORA DEL RIO","cp":"41440","fuels":{"Gazole":{"p":1.629,"d":"2026-07-14"},"SP95":{"p":1.619,"d":"2026-07-14"}},"brand":"Bp Matallana Lora Del Rio"},{"id":100013601,"lat":37.651778,"lng":-5.548361,"addr":"POLIGONO POLIGONO INDUSTRIAL MATALLANA C/ CARRETERIA, 3","city":"LORA DEL RIO","cp":"41440","fuels":{"Gazole":{"p":1.559,"d":"2026-07-14"},"SP95":{"p":1.499,"d":"2026-07-14"}},"brand":"Low Cost La Movil","h24":true},{"id":100006542,"lat":37.655889,"lng":-5.524778,"addr":"AVENIDA DE LA CAMPANA S/N, 0","city":"LORA DEL RIO","cp":"41440","fuels":{"Gazole":{"p":1.599,"d":"2026-07-14"},"SP95":{"p":1.559,"d":"2026-07-14"},"SP98":{"p":1.659,"d":"2026-07-14"}},"brand":"Meroil","h24":true},{"id":100015417,"lat":37.690056,"lng":-5.449389,"addr":"CARRETERA A-431 KM. 66,2","city":"PRIORATO (EL)","cp":"41440","fuels":{"Gazole":{"p":1.629,"d":"2026-07-14"},"SP95":{"p":1.559,"d":"2026-07-14"}},"brand":"Es Los Monos"},{"id":100015880,"lat":37.652361,"lng":-5.522306,"addr":"RONDA DE LOS TEJARES, 249","city":"ACEBUCHAL (EL)","cp":"41440","fuels":{"Gazole":{"p":1.529,"d":"2026-07-14"},"SP95":{"p":1.499,"d":"2026-07-14"}},"brand":"Plenergy","h24":true},{"id":100007108,"lat":37.63775,"lng":-5.535472,"addr":"CARRETERA CARRETERA LORA DEL RIO - CARMONA, KM 2,5 KM. 2,5","city":"ALAMO (EL)","cp":"41440","fuels":{"Gazole":{"p":1.669,"d":"2026-07-14"},"SP95":{"p":1.629,"d":"2026-07-14"},"SP98":{"p":1.739,"d":"2026-07-14"}},"brand":"Bp El Alamo","h24":true},{"id":100007409,"lat":37.524694,"lng":-5.252056,"addr":"AVENIDA DE ANDALUCIA, 125","city":"LUISIANA (LA)","cp":"41430","fuels":{"Gazole":{"p":1.669,"d":"2026-07-14"},"SP95":{"p":1.599,"d":"2026-07-14"}},"brand":"Repsol","h24":true},{"id":100013265,"lat":37.53025,"lng":-5.240222,"addr":"CALLE MADRID, 24","city":"LUISIANA (LA)","cp":"41430","fuels":{"Gazole":{"p":1.499,"d":"2026-07-14"},"SP95":{"p":1.479,"d":"2026-07-14"}},"brand":"Petroplus","h24":true},{"id":100011520,"lat":37.381194,"lng":-5.732833,"addr":"CARRETERA A392 KM. 19,900","city":"MAIRENA DEL ALCOR","cp":"41510","fuels":{"Gazole":{"p":1.535,"d":"2026-07-14"},"SP95":{"p":1.485,"d":"2026-07-14"},"SP98":{"p":1.539,"d":"2026-07-14"},"GPLc":{"p":1.079,"d":"2026-07-14"}},"brand":"Enerplus","h24":true},{"id":100007162,"lat":37.371361,"lng":-5.758444,"addr":"CALLE CERVANTES, 110","city":"MAIRENA DEL ALCOR","cp":"41510","fuels":{"Gazole":{"p":1.649,"d":"2026-07-14"},"SP95":{"p":1.605,"d":"2026-07-14"},"SP98":{"p":1.775,"d":"2026-07-14"}},"brand":"Repsol"},{"id":100007161,"lat":37.371,"lng":-5.75825,"addr":"CL CERVANTES, 110","city":"MAIRENA DEL ALCOR","cp":"41510","fuels":{"Gazole":{"p":1.649,"d":"2026-07-14"},"SP95":{"p":1.605,"d":"2026-07-14"},"SP98":{"p":1.775,"d":"2026-07-14"}},"brand":"Repsol"},{"id":100016291,"lat":37.38175,"lng":-5.72875,"addr":"AVENIDA DE EL VISO DEL ALCOR, 26","city":"MAIRENA DEL ALCOR","cp":"41510","fuels":{"Gazole":{"p":1.519,"d":"2026-07-14"},"SP95":{"p":1.455,"d":"2026-07-14"}},"brand":"Plenergy","h24":true},{"id":100015413,"lat":37.364,"lng":-5.757139,"addr":"CALLE CALZADA AUXILIAR BLAS INF, 1","city":"MAIRENA DEL ALCOR","cp":"41510","fuels":{"Gazole":{"p":1.479,"d":"2026-07-14"},"SP95":{"p":1.458,"d":"2026-07-14"}},"brand":"A2d","h24":true},{"id":100010330,"lat":37.375889,"lng":-5.740778,"addr":"CALLE CAMINO DE ALCONCHEL, 42","city":"MAIRENA DEL ALCOR","cp":"41510","fuels":{"Gazole":{"p":1.52,"d":"2026-07-14"}},"brand":"Mairena Agricola,s.C.A"},{"id":100013540,"lat":37.379667,"lng":-5.736167,"addr":"CARRETERA A392 KM. 19,500","city":"MAIRENA DEL ALCOR","cp":"41510","fuels":{"Gazole":{"p":1.535,"d":"2026-07-14"},"SP95":{"p":1.475,"d":"2026-07-14"}},"brand":"Gacosur Mairena","h24":true},{"id":100009617,"lat":37.380972,"lng":-5.730833,"addr":"POLIGONO CANTOSALES, 2","city":"MAIRENA DEL ALCOR","cp":"41510","fuels":{"Gazole":{"p":1.599,"d":"2026-07-14"},"SP95":{"p":1.529,"d":"2026-07-14"}},"brand":"Alcoroil S.L.","h24":true},{"id":100013092,"lat":37.357,"lng":-6.057611,"addr":"CALLE ARTESANIA, 11","city":"MAIRENA DEL ALJARAFE","cp":"41927","fuels":{"Gazole":{"p":1.489,"d":"2026-07-14"},"SP95":{"p":1.469,"d":"2026-07-14"}},"brand":"Asc Carburantes"},{"id":100007427,"lat":37.352083,"lng":-6.047417,"addr":"AVENIDA CUBA, S/N","city":"MAIRENA DEL ALJARAFE","cp":"41927","fuels":{"Gazole":{"p":1.659,"d":"2026-07-14"},"SP95":{"p":1.615,"d":"2026-07-14"},"SP98":{"p":1.785,"d":"2026-07-14"},"GPLc":{"p":1.049,"d":"2026-07-14"}},"brand":"Repsol","h24":true},{"id":100007347,"lat":37.352333,"lng":-6.056167,"addr":"CALLE CL EXPOSICION - POLIGONO PISA, S.N. (SE-640), S/N","city":"MAIRENA DEL ALJARAFE","cp":"41927","fuels":{"Gazole":{"p":1.659,"d":"2026-07-14"},"SP95":{"p":1.615,"d":"2026-07-14"},"SP98":{"p":1.785,"d":"2026-07-14"},"GPLc":{"p":1.049,"d":"2026-07-14"}},"brand":"Repsol"},{"id":100014441,"lat":37.355111,"lng":-6.052278,"addr":"CALLE LONJA, 28","city":"MAIRENA DEL ALJARAFE","cp":"41927","fuels":{"Gazole":{"p":1.469,"d":"2026-07-14"},"SP95":{"p":1.449,"d":"2026-07-14"}},"brand":"Petroprix","h24":true},{"id":100011121,"lat":37.339028,"lng":-6.064944,"addr":"CTRA/ MAIRENA DEL ALJARAFE - PALOMARES DEL RIO KM-1","city":"MAIRENA DEL ALJARAFE","cp":"41927","fuels":{"Gazole":{"p":1.659,"d":"2026-07-14"},"SP95":{"p":1.615,"d":"2026-07-14"},"SP98":{"p":1.785,"d":"2026-07-14"}},"brand":"Repsol"},{"id":100016417,"lat":37.353472,"lng":-6.055194,"addr":"CALLE EXPOSICION, 22","city":"MAIRENA DEL ALJARAFE","cp":"41927","fuels":{"Gazole":{"p":1.479,"d":"2026-07-14"},"SP95":{"p":1.459,"d":"2026-07-14"}},"brand":"Petrol&go"},{"id":100016219,"lat":37.350694,"lng":-6.05625,"addr":"AVENIDA MARIANA PINEDA ESQUINA CTRA A-8055, S/N","city":"MAIRENA DEL ALJARAFE","cp":"41926","fuels":{"Gazole":{"p":1.499,"d":"2026-07-14"},"SP95":{"p":1.489,"d":"2026-07-14"}},"brand":"Q8","h24":true},{"id":100007105,"lat":37.228972,"lng":-5.323028,"addr":"CR A92 km 62,2","city":"MARCHENA","cp":"41620","fuels":{"Gazole":{"p":1.619,"d":"2026-07-14"},"SP95":{"p":1.559,"d":"2026-07-14"},"SP98":{"p":1.739,"d":"2026-07-14"}},"brand":"Repsol","h24":true},{"id":100007106,"lat":37.230333,"lng":-5.322694,"addr":"CR A-92 km 62,2","city":"MARCHENA","cp":"41620","fuels":{"Gazole":{"p":1.619,"d":"2026-07-14"},"SP95":{"p":1.569,"d":"2026-07-14"},"SP98":{"p":1.739,"d":"2026-07-14"}},"brand":"Repsol","h24":true},{"id":100007345,"lat":37.254111,"lng":-5.409556,"addr":"AUTOVIA A-92 KM. 53,800","city":"MARCHENA","cp":"41620","fuels":{"Gazole":{"p":1.609,"d":"2026-07-14"},"SP95":{"p":1.559,"d":"2026-07-14"},"SP98":{"p":1.699,"d":"2026-07-14"}},"brand":"Shell"},{"id":100007298,"lat":37.285056,"lng":-5.441778,"addr":"CARRETERA AUTONOMICA 364 KM. 41","city":"MARCHENA","cp":"41620","fuels":{"Gazole":{"p":1.687,"d":"2026-07-14"},"SP95":{"p":1.59,"d":"2026-07-14"}},"brand":"Cepsa"},{"id":100013398,"lat":37.321667,"lng":-5.408611,"addr":"CALLE CAMINO HONDO, 62","city":"MARCHENA","cp":"41620","fuels":{"Gazole":{"p":1.559,"d":"2026-07-14"},"SP95":{"p":1.529,"d":"2026-07-14"}},"brand":"Autolavados"},{"id":100007299,"lat":37.321722,"lng":-5.417889,"addr":"TRAVESÍA SAN IGNACIO, 37,3","city":"MARCHENA","cp":"41620","fuels":{"Gazole":{"p":1.699,"d":"2026-07-14"},"SP95":{"p":1.629,"d":"2026-07-14"}},"brand":"Moeve"},{"id":100013061,"lat":37.328139,"lng":-5.408972,"addr":"TRAVESÍA SAN IGNACIO, 1","city":"MARCHENA","cp":"41620","fuels":{"Gazole":{"p":1.539,"d":"2026-07-14"},"SP95":{"p":1.488,"d":"2026-07-14"}},"brand":"Petrobike","h24":true},{"id":100009586,"lat":37.321972,"lng":-5.414306,"addr":"CALLE VICENTE BERMUDEZ-CORONEL, 7","city":"MARCHENA","cp":"41620","fuels":{"Gazole":{"p":1.528,"d":"2026-07-14"},"SP95":{"p":1.465,"d":"2026-07-14"}},"brand":"S.C.A. San Isidro Labrador"},{"id":100007404,"lat":37.329333,"lng":-5.409278,"addr":"CR N-333 35,8","city":"MARCHENA","cp":"41620","fuels":{"Gazole":{"p":1.669,"d":"2026-07-14"},"SP95":{"p":1.559,"d":"2026-07-14"}},"brand":"Repsol"},{"id":100006515,"lat":37.369639,"lng":-4.963861,"addr":"CARRETERA CTRA. ECIJA- LA RODA, C-3310 KM. 36,600","city":"MARINALEDA","cp":"41569","fuels":{"Gazole":{"p":1.639,"d":"2026-07-14"},"SP95":{"p":1.579,"d":"2026-07-14"}},"brand":"Santiago"},{"id":100009445,"lat":37.108472,"lng":-4.961,"addr":"POLIGONO LAS MAJADAS INDUSTRIAL, S/N","city":"MARTIN DE LA JARA","cp":"41658","fuels":{"Gazole":{"p":1.598,"d":"2026-07-14"},"SP95":{"p":1.589,"d":"2026-07-14"},"SP98":{"p":1.719,"d":"2026-07-14"}},"brand":"Shell"},{"id":100007343,"lat":37.149806,"lng":-5.738889,"addr":"CARRETERA CRTA SEVILLA - RONDA A-376 KM. 59,2","city":"MOLARES (LOS)","cp":"41750","fuels":{"Gazole":{"p":1.666,"d":"2026-07-14"},"SP95":{"p":1.652,"d":"2026-07-14"},"SP98":{"p":1.8,"d":"2026-07-14"}},"brand":"Repsol"},{"id":100006478,"lat":36.99475,"lng":-5.576778,"addr":"VILLAMARTIN, S/N","city":"MONTELLANO","cp":"41770","fuels":{"Gazole":{"p":1.599,"d":"2026-07-14"},"SP95":{"p":1.539,"d":"2026-07-14"}},"brand":"Galp"},{"id":100016098,"lat":37.130194,"lng":-5.453222,"addr":"CALLE DEL YESO, S/N","city":"MORON DE LA FRONTERA","cp":"41530","fuels":{"Gazole":{"p":1.359,"d":"2026-07-14"},"SP95":{"p":1.349,"d":"2026-07-14"}},"brand":"Ballenoil","h24":true},{"id":100007044,"lat":37.130722,"lng":-5.452889,"addr":"AVENIDA DE LA ASUNCION (C.C. EROSKI), S/N","city":"MORON DE LA FRONTERA","cp":"41530","fuels":{"Gazole":{"p":1.339,"d":"2026-07-14"},"SP95":{"p":1.329,"d":"2026-07-14"},"SP98":{"p":1.499,"d":"2026-07-14"}},"brand":"Family Energy"},{"id":100007402,"lat":37.130083,"lng":-5.454111,"addr":"POLIGONO DE LA ESTACIÓN, 1","city":"MORON DE LA FRONTERA","cp":"41530","fuels":{"Gazole":{"p":1.673,"d":"2026-07-14"},"SP95":{"p":1.596,"d":"2026-07-14"}},"brand":"Cepsa"},{"id":100007446,"lat":37.125722,"lng":-5.461528,"addr":"CALLE DE LA TRILLA, 1","city":"MORON DE LA FRONTERA","cp":"41530","fuels":{"Gazole":{"p":1.638,"d":"2026-07-14"},"SP95":{"p":1.578,"d":"2026-07-14"}},"brand":"Galp"},{"id":100007114,"lat":37.120472,"lng":-5.484694,"addr":"CARRETERA MORON-SEVILLA, KM 1.5 KM. 1,5","city":"MORON DE LA FRONTERA","cp":"41530","fuels":{"Gazole":{"p":1.675,"d":"2026-07-14"},"SP95":{"p":1.579,"d":"2026-07-14"}},"brand":"Bp El Fontanal"},{"id":100007239,"lat":37.121083,"lng":-5.460222,"addr":"AV ALAMEDA, 49","city":"MORON DE LA FRONTERA","cp":"41530","fuels":{"Gazole":{"p":1.645,"d":"2026-07-14"},"SP95":{"p":1.559,"d":"2026-07-14"},"SP98":{"p":1.729,"d":"2026-07-14"}},"brand":"Repsol"},{"id":100016341,"lat":37.131222,"lng":-5.451639,"addr":"AVENIDA DEL PILAR, 4","city":"MORON DE LA FRONTERA","cp":"41530","fuels":{"Gazole":{"p":1.359,"d":"2026-07-14"},"SP95":{"p":1.349,"d":"2026-07-14"}},"brand":"Petroprix","h24":true},{"id":100010016,"lat":37.930778,"lng":-5.468083,"addr":"CTRA. SE-150 km 21.2","city":"NAVAS DE LA CONCEPCION","cp":"41460","fuels":{"Gazole":{"p":1.709,"d":"2026-07-14"},"SP95":{"p":1.689,"d":"2026-07-14"}},"brand":"Repsol"},{"id":100007278,"lat":37.422222,"lng":-6.139639,"addr":"CARRETERA SE-510 KM. 10,850","city":"OLIVARES","cp":"41804","fuels":{"Gazole":{"p":1.519,"d":"2026-07-14"},"SP95":{"p":1.529,"d":"2026-07-14"}},"brand":"El Olivo","h24":true},{"id":100013226,"lat":37.422639,"lng":-6.146722,"addr":"CALLE LOS TRIGALES, 47","city":"OLIVARES","cp":"41804","fuels":{"Gazole":{"p":1.519,"d":"2026-07-14"},"SP95":{"p":1.529,"d":"2026-07-14"}},"brand":"Plenergy","h24":true},{"id":100006539,"lat":37.421821,"lng":-6.154216,"addr":"LARGA, S/N","city":"OLIVARES","cp":"41804","fuels":{"Gazole":{"p":1.519,"d":"2026-07-14"},"SP95":{"p":1.529,"d":"2026-07-14"}},"brand":"Gasolinera Olivares"},{"id":100008519,"lat":37.233639,"lng":-5.087333,"addr":"AUTOVIA A-92 KM. 89","city":"OSUNA","cp":"41640","fuels":{"Gazole":{"p":1.634,"d":"2026-07-14"},"SP95":{"p":1.579,"d":"2026-07-14"},"SP98":{"p":1.719,"d":"2026-07-14"}},"brand":"Shell","h24":true},{"id":100007335,"lat":37.23875,"lng":-5.113167,"addr":"CALLE ALFONSO XII, 62","city":"OSUNA","cp":"41640","fuels":{"Gazole":{"p":1.649,"d":"2026-07-14"},"SP95":{"p":1.599,"d":"2026-07-14"}},"brand":"Cepsa"},{"id":100008160,"lat":37.245472,"lng":-5.109056,"addr":"POLIGONO C/GUARNICIONEROS, 18,19","city":"OSUNA","cp":"41640","fuels":{"Gazole":{"p":1.624,"d":"2026-07-14"},"SP95":{"p":1.599,"d":"2026-07-14"}},"brand":"Moeve"},{"id":100015772,"lat":37.237556,"lng":-5.114944,"addr":"CALLE SOR ANGELA DE LA CRUZ, 91","city":"OSUNA","cp":"41640","fuels":{"Gazole":{"p":1.549,"d":"2026-07-14"},"SP95":{"p":1.459,"d":"2026-07-14"}},"brand":"Plenergy","h24":true},{"id":100013890,"lat":37.237944,"lng":-5.113694,"addr":"CALLE SOR ANGELA DE LA CRUZ, 85","city":"OSUNA","cp":"41640","fuels":{"Gazole":{"p":1.549,"d":"2026-07-14"},"SP95":{"p":1.459,"d":"2026-07-14"}},"brand":"Volaroil","h24":true},{"id":100007267,"lat":37.237056,"lng":-5.127833,"addr":"CARRETERA N-334 KM. 85,42","city":"OSUNA","cp":"41640","fuels":{"Gazole":{"p":1.629,"d":"2026-07-14"},"SP95":{"p":1.569,"d":"2026-07-14"}},"brand":"Repsol"},{"id":100013779,"lat":37.162611,"lng":-5.910139,"addr":"AVENIDA UTRERA, SN","city":"PALACIOS Y VILLAFRANCA","cp":"41720","fuels":{"Gazole":{"p":1.519,"d":"2026-07-14"},"SP95":{"p":1.455,"d":"2026-07-14"},"SP98":{"p":1.639,"d":"2026-07-14"}},"brand":"Bs Energy","h24":true},{"id":100006433,"lat":37.168444,"lng":-5.928611,"addr":"AVDA. PARQUE NORTE S/N","city":"PALACIOS Y VILLAFRANCA","cp":"41720","fuels":{"Gazole":{"p":1.639,"d":"2026-07-14"},"SP95":{"p":1.579,"d":"2026-07-14"},"SP98":{"p":1.719,"d":"2026-07-14"}},"brand":"Shell","h24":true},{"id":100007468,"lat":37.19625,"lng":-5.911194,"addr":"AUTOPISTA AP-4 KM. 20,2","city":"PALACIOS Y VILLAFRANCA","cp":"41720","fuels":{"Gazole":{"p":1.669,"d":"2026-07-14"},"SP95":{"p":1.689,"d":"2026-07-14"},"SP98":{"p":1.829,"d":"2026-07-14"}},"brand":"Galp","h24":true},{"id":100013171,"lat":37.166528,"lng":-5.938111,"addr":"BULEVAR SIGLO XXI, 71","city":"PALACIOS Y VILLAFRANCA","cp":"41720","fuels":{"Gazole":{"p":1.547,"d":"2026-07-14"},"SP95":{"p":1.537,"d":"2026-07-14"}},"brand":"Combustibles Y Lavado Los Palacios","h24":true},{"id":100012800,"lat":37.160972,"lng":-5.938667,"addr":"CALLE PROGRESO, 1","city":"PALACIOS Y VILLAFRANCA","cp":"41720","fuels":{"Gazole":{"p":1.469,"d":"2026-07-14"},"SP95":{"p":1.485,"d":"2026-07-14"}},"brand":"Ballenoil","h24":true},{"id":100007159,"lat":37.155,"lng":-5.925389,"addr":"CL AVENIDA DE CADIZ, 85 (N-4 km 569)","city":"PALACIOS Y VILLAFRANCA","cp":"41720","fuels":{"Gazole":{"p":1.585,"d":"2026-07-14"},"SP95":{"p":1.499,"d":"2026-07-14"}},"brand":"Repsol"},{"id":100009422,"lat":37.107627,"lng":-5.946355,"addr":"CRTA. EL TROBAL - LOS PALACIOS,S.N. (CRTA. EL TROBAL - LOS PALACIOS, S.N.)","city":"TROBAL (EL)","cp":"41727","fuels":{"Gazole":{"p":1.619,"d":"2026-07-14"},"SP95":{"p":1.559,"d":"2026-07-14"}},"brand":"Repsol"},{"id":100007057,"lat":37.315611,"lng":-6.035528,"addr":"CARRETERA CARRETERA A 8058 KM. 6,7","city":"PALOMARES DEL RIO","cp":"41928","fuels":{"Gazole":{"p":1.549,"d":"2026-07-14"},"SP95":{"p":1.529,"d":"2026-07-14"}},"brand":"Q8","h24":true},{"id":100015159,"lat":37.320389,"lng":-6.072,"addr":"AVENIDA DEL ALJARAFE, 50","city":"PALOMARES DEL RIO","cp":"41928","fuels":{"Gazole":{"p":1.479,"d":"2026-07-14"},"SP95":{"p":1.479,"d":"2026-07-14"}},"brand":"Ballenoil","h24":true},{"id":100012371,"lat":37.320556,"lng":-6.070833,"addr":"AVENIDA ALJARAFE (DEL), 68","city":"PALOMARES DEL RIO","cp":"41928","fuels":{"Gazole":{"p":1.609,"d":"2026-07-14"},"SP95":{"p":1.575,"d":"2026-07-14"},"SP98":{"p":1.705,"d":"2026-07-14"}},"brand":"BP"},{"id":100007073,"lat":37.270056,"lng":-5.500389,"addr":"CARRETERA A-92 KM. 45","city":"PARADAS","cp":"41610","fuels":{"Gazole":{"p":1.629,"d":"2026-07-14"},"SP95":{"p":1.579,"d":"2026-07-14"},"SP98":{"p":1.719,"d":"2026-07-14"}},"brand":"Shell","h24":true},{"id":100007074,"lat":37.26925,"lng":-5.49975,"addr":"CARRETERA A-92 KM. 45","city":"PARADAS","cp":"41610","fuels":{"Gazole":{"p":1.629,"d":"2026-07-14"},"SP95":{"p":1.579,"d":"2026-07-14"},"SP98":{"p":1.719,"d":"2026-07-14"}},"brand":"Shell","h24":true},{"id":100012614,"lat":37.288444,"lng":-5.505083,"addr":"POLIGONO LOS ALBEROS VIAL 1, 21","city":"PARADAS","cp":"41610","fuels":{"Gazole":{"p":1.578,"d":"2026-07-14"},"SP95":{"p":1.468,"d":"2026-07-14"}},"brand":"Agla","h24":true},{"id":100009396,"lat":37.291417,"lng":-5.496833,"addr":"PLAZA DEL PILAR, S/N","city":"PARADAS","cp":"41610","fuels":{"Gazole":{"p":1.649,"d":"2026-07-14"},"SP95":{"p":1.599,"d":"2026-07-14"}},"brand":"Moeve"},{"id":100007392,"lat":37.228722,"lng":-4.893333,"addr":"AVENIDA SANTO CRISTO, S/N, S/N","city":"PEDRERA","cp":"41566","fuels":{"Gazole":{"p":1.625,"d":"2026-07-14"},"SP95":{"p":1.555,"d":"2026-07-14"}},"brand":"Repsol"},{"id":100008272,"lat":37.837278,"lng":-5.762444,"addr":"CARRETERA A-432 KM. 30,150","city":"PEDROSO (EL)","cp":"41360","fuels":{"Gazole":{"p":1.659,"d":"2026-07-14"},"SP95":{"p":1.599,"d":"2026-07-14"},"SP98":{"p":1.719,"d":"2026-07-14"}},"brand":"Repsol"},{"id":100007372,"lat":37.703139,"lng":-5.392389,"addr":"CARRETERA CTRA. C-431, KM. 62.8 KM. 62,8","city":"PEÑAFLOR","cp":"41470","fuels":{"Gazole":{"p":1.639,"d":"2026-07-14"},"SP95":{"p":1.559,"d":"2026-07-14"}},"brand":"Repsol"},{"id":100014527,"lat":37.708472,"lng":-5.355556,"addr":"POLIGONO EL MAJUELO, 47","city":"PEÑAFLOR","cp":"41470","fuels":{"Gazole":{"p":1.569,"d":"2026-07-14"},"SP95":{"p":1.569,"d":"2026-07-14"}},"brand":"La Movil Grupo Puertas"},{"id":100007355,"lat":37.301972,"lng":-6.296972,"addr":"PLAZA DE ESPAÑA, N","city":"PILAS","cp":"41840","fuels":{"Gazole":{"p":1.645,"d":"2026-07-14"},"SP95":{"p":1.589,"d":"2026-07-14"}},"brand":"U.S. Moeve Poste Pilas"},{"id":100010979,"lat":37.301917,"lng":-6.289722,"addr":"AVENIDA DEL ALJARAFE,, 98","city":"PILAS","cp":"41840","fuels":{"Gazole":{"p":1.639,"d":"2026-07-14"},"SP95":{"p":1.609,"d":"2026-07-14"},"SP98":{"p":1.748,"d":"2026-07-14"}},"brand":"E.S.Alcarayon (bp Oil)"},{"id":100006434,"lat":37.292472,"lng":-6.299472,"addr":"PILAS-VILLAMANRIQUE km 1,5","city":"PILAS","cp":"41840","fuels":{"Gazole":{"p":1.519,"d":"2026-07-14"},"SP95":{"p":1.509,"d":"2026-07-14"},"SP98":{"p":1.629,"d":"2026-07-14"}},"brand":"Los Ventolines (agla)"},{"id":100007326,"lat":37.271333,"lng":-6.302472,"addr":"CARRETERA SE-631 KM. 3,900","city":"PILAS","cp":"41840","fuels":{"Gazole":{"p":1.639,"d":"2026-07-14"},"SP95":{"p":1.639,"d":"2026-07-14"},"SP98":{"p":1.769,"d":"2026-07-14"}},"brand":"Cepsa","h24":true},{"id":100013953,"lat":37.302778,"lng":-6.291389,"addr":"AVENIDA ALJARAFE (EL), 80","city":"PILAS","cp":"41840","fuels":{"Gazole":{"p":1.449,"d":"2026-07-14"},"SP95":{"p":1.439,"d":"2026-07-14"}},"brand":"Ballenoil","h24":true},{"id":100010355,"lat":36.975361,"lng":-5.223,"addr":"AVENIDA DE LOS EMIGRANTES, S/N","city":"PRUNA","cp":"41670","fuels":{"Gazole":{"p":1.515,"d":"2026-07-14"},"SP95":{"p":1.545,"d":"2026-07-14"}},"brand":"Sca Agraria San Anton"},{"id":100007378,"lat":37.226611,"lng":-5.306556,"addr":"CARRETERA NACIONAL 334 KM. 69,2","city":"PUEBLA DE CAZALLA (LA)","cp":"41540","fuels":{"Gazole":{"p":1.619,"d":"2026-07-14"},"SP95":{"p":1.569,"d":"2026-07-14"}},"brand":"Repsol"},{"id":100009840,"lat":37.226917,"lng":-5.310778,"addr":"CARRETERA SEVILLA-MALAGA KM. 68","city":"PUEBLA DE CAZALLA (LA)","cp":"41540","fuels":{"Gazole":{"p":1.528,"d":"2026-07-14"}},"brand":"Oleand, S.Coop.And","h24":true},{"id":100007398,"lat":37.229417,"lng":-5.322972,"addr":"CR N-334 67,5","city":"PUEBLA DE CAZALLA (LA)","cp":"41540","fuels":{"Gazole":{"p":1.619,"d":"2026-07-14"},"SP95":{"p":1.569,"d":"2026-07-14"}},"brand":"Campsa"},{"id":100012181,"lat":37.788389,"lng":-5.389972,"addr":"CARRETERA SE-141 KM. 11,325","city":"PUEBLA DE LOS INFANTES","cp":"41479","fuels":{"Gazole":{"p":1.609,"d":"2026-07-14"},"SP95":{"p":1.569,"d":"2026-07-14"},"SP98":{"p":1.679,"d":"2026-07-14"}},"brand":"Agla"},{"id":100010115,"lat":37.781556,"lng":-5.393194,"addr":"CTRA. CONSTANTINA ,S/N km 27,7","city":"PUEBLA DE LOS INFANTES","cp":"41479","fuels":{"Gazole":{"p":1.484,"d":"2026-07-14"}},"brand":"Cepsa","h24":true},{"id":100012819,"lat":37.261111,"lng":-6.076583,"addr":"CALLE CARRIZALES, 2","city":"PUEBLA DEL RIO (LA)","cp":"41130","fuels":{"Gazole":{"p":1.449,"d":"2026-07-14"},"SP95":{"p":1.449,"d":"2026-07-14"}},"brand":"A&b","h24":true},{"id":100006538,"lat":37.262528,"lng":-6.069861,"addr":"AVENIDA ISLA MAYOR, 18","city":"PUEBLA DEL RIO (LA)","cp":"41130","fuels":{"Gazole":{"p":1.439,"d":"2026-07-14"},"SP95":{"p":1.439,"d":"2026-07-14"}},"brand":"Petroprix"},{"id":100009701,"lat":37.080389,"lng":-6.040389,"addr":"FINCA EL REBOSO S/N. (LOS PALACIOS-PINZON km 15)","city":"PUEBLA DEL RIO (LA)","cp":"41130","fuels":{"Gazole":{"p":1.55,"d":"2026-07-14"}},"brand":"Moeve-Arroceros B.G.","h24":true},{"id":100009862,"lat":37.944333,"lng":-6.16525,"addr":"CTRA. A-5.301 km 7.1","city":"REAL DE LA JARA (EL)","cp":"41250","fuels":{"Gazole":{"p":1.52,"d":"2026-07-14"},"SP95":{"p":1.52,"d":"2026-07-14"}},"brand":"Tj Oil"},{"id":100007308,"lat":37.448833,"lng":-5.997139,"addr":"CARRETERA A-431 KM. 133,9","city":"RINCONADA (LA)","cp":"41309","fuels":{"Gazole":{"p":1.758,"d":"2026-07-14"},"SP95":{"p":1.703,"d":"2026-07-14"},"SP98":{"p":1.895,"d":"2026-07-14"}},"brand":"Cepsa"},{"id":100007273,"lat":37.458472,"lng":-5.974444,"addr":"CARRETERA SEVILLA-CAZALLA KM. 6,100","city":"RINCONADA (LA)","cp":"41309","fuels":{"Gazole":{"p":1.429,"d":"2026-07-14"},"SP95":{"p":1.398,"d":"2026-07-14"}},"brand":"E.S. La Catria","h24":true},{"id":100007310,"lat":37.501056,"lng":-5.978306,"addr":"CARRETERA A-8002 KM. 7,6","city":"RINCONADA (LA)","cp":"41309","fuels":{"Gazole":{"p":1.418,"d":"2026-07-14"},"SP95":{"p":1.398,"d":"2026-07-14"}},"brand":"Masfuel","h24":true},{"id":100007309,"lat":37.433444,"lng":-5.834083,"addr":"CARRETERA NACIONAL IV KM. 529,8","city":"RINCONADA (LA)","cp":"41309","fuels":{"Gazole":{"p":1.465,"d":"2026-07-14"},"SP95":{"p":1.449,"d":"2026-07-14"}},"brand":"Easygas","h24":true},{"id":100012202,"lat":37.451444,"lng":-5.976972,"addr":"CARRETERA A-8002 KM. 2","city":"RINCONADA (LA)","cp":"41300","fuels":{"Gazole":{"p":1.649,"d":"2026-07-14"},"SP95":{"p":1.599,"d":"2026-07-14"},"SP98":{"p":1.769,"d":"2026-07-14"}},"brand":"Repsol"},{"id":100010267,"lat":37.485083,"lng":-5.950139,"addr":"CARRERA SEVILLA-BRENES, 3,05","city":"SAN JOSE DE LA RINCONADA","cp":"41300","fuels":{"Gazole":{"p":1.465,"d":"2026-07-14"},"SP95":{"p":1.449,"d":"2026-07-14"}},"brand":"Easygas"},{"id":100007275,"lat":37.486833,"lng":-5.934722,"addr":"CALLE ALFRED NOBEL, 2","city":"SAN JOSE DE LA RINCONADA","cp":"41300","fuels":{"Gazole":{"p":1.655,"d":"2026-07-14"},"SP95":{"p":1.599,"d":"2026-07-14"},"SP98":{"p":1.769,"d":"2026-07-14"},"GPLc":{"p":1.099,"d":"2026-07-14"}},"brand":"BP"},{"id":100013237,"lat":37.489972,"lng":-5.94675,"addr":"AVENIDA DE BOYEROS, 14","city":"SAN JOSE DE LA RINCONADA","cp":"41300","fuels":{"Gazole":{"p":1.459,"d":"2026-07-14"},"SP95":{"p":1.409,"d":"2026-07-14"}},"brand":"Plenergy","h24":true},{"id":100008520,"lat":37.473056,"lng":-5.932306,"addr":"CARRETERA 8005 SEVILLA-LOS ROSALES KM. 10","city":"SAN JOSE DE LA RINCONADA","cp":"41300","fuels":{"Gazole":{"p":1.629,"d":"2026-07-14"},"SP95":{"p":1.599,"d":"2026-07-14"},"SP98":{"p":1.739,"d":"2026-07-14"}},"brand":"Shell"},{"id":100007041,"lat":37.482,"lng":-5.917139,"addr":"AUTOVIA A-3104 KM. 7","city":"SAN JOSE DE LA RINCONADA","cp":"41300","fuels":{"Gazole":{"p":1.459,"d":"2026-07-14"},"SP95":{"p":1.399,"d":"2026-07-14"}},"brand":"Q8","h24":true},{"id":100016206,"lat":37.480389,"lng":-5.937639,"addr":"CAMINO DE LA FABRICA DE TABACO, 1","city":"SAN JOSE DE LA RINCONADA","cp":"41300","fuels":{"Gazole":{"p":1.459,"d":"2026-07-14"},"SP95":{"p":1.409,"d":"2026-07-14"}},"brand":"Petroprix","h24":true},{"id":100007042,"lat":37.475667,"lng":-5.925028,"addr":"CARRETERA CTRA. SE-111 , A-8005 , 14 KM. 10,8","city":"SAN JOSE DE LA RINCONADA","cp":"41300","fuels":{"Gazole":{"p":1.459,"d":"2026-07-14"},"SP95":{"p":1.369,"d":"2026-07-14"}},"brand":"Emc Red Power 24"},{"id":100007138,"lat":37.478889,"lng":-5.952944,"addr":"CR SE-118, 2,5","city":"SAN JOSE DE LA RINCONADA","cp":"41300","fuels":{"Gazole":{"p":1.655,"d":"2026-07-14"},"SP95":{"p":1.599,"d":"2026-07-14"},"SP98":{"p":1.769,"d":"2026-07-14"}},"brand":"Repsol"},{"id":100014255,"lat":37.487722,"lng":-5.933833,"addr":"CALLE MIGUEL SERVET, 2","city":"SAN JOSE DE LA RINCONADA","cp":"41300","fuels":{"Gazole":{"p":1.459,"d":"2026-07-14"},"SP95":{"p":1.409,"d":"2026-07-14"}},"brand":"Ballenoil","h24":true},{"id":100007370,"lat":37.214444,"lng":-4.777056,"addr":"CARRETERA MALAGA, GRANADA, SEVILLA KM. 124,90","city":"RODA DE ANDALUCIA (LA)","cp":"41590","fuels":{"Gazole":{"p":1.629,"d":"2026-07-14"},"SP95":{"p":1.559,"d":"2026-07-14"}},"brand":"Repsol"},{"id":100006440,"lat":37.19775,"lng":-4.796694,"addr":"AUTOVIA AUTOVIA A-92 KM. 123","city":"RODA DE ANDALUCIA (LA)","cp":"41590","fuels":{"Gazole":{"p":1.629,"d":"2026-07-14"},"SP95":{"p":1.599,"d":"2026-07-14"},"SP98":{"p":1.789,"d":"2026-07-14"}},"brand":"Shell"},{"id":100007292,"lat":37.344389,"lng":-4.995861,"addr":"CARRETERA SE-727 KM. 11,2","city":"RUBIO (EL)","cp":"41568","fuels":{"Gazole":{"p":1.639,"d":"2026-07-14"},"SP95":{"p":1.579,"d":"2026-07-14"}},"brand":"Libre"},{"id":100007324,"lat":37.416,"lng":-6.101972,"addr":"SE-510 km 6,5","city":"SALTERAS","cp":"41909","fuels":{"Gazole":{"p":1.549,"d":"2026-07-14"},"SP95":{"p":1.549,"d":"2026-07-14"}},"brand":"Agla"},{"id":100016356,"lat":37.420861,"lng":-6.120222,"addr":"AVENIDA DE LA INDUSTRIA, 1","city":"SALTERAS","cp":"41909","fuels":{"Gazole":{"p":1.469,"d":"2026-07-14"},"SP95":{"p":1.479,"d":"2026-07-14"}},"brand":"Plenergy","h24":true},{"id":100014159,"lat":37.455361,"lng":-6.055028,"addr":"CALLE CASTILLA LA MANCHA, 181","city":"SALTERAS","cp":"41909","fuels":{"Gazole":{"p":1.475,"d":"2026-07-14"},"SP95":{"p":1.465,"d":"2026-07-14"}},"brand":"Tj Oil","h24":true},{"id":100008522,"lat":37.371056,"lng":-6.027944,"addr":"CARRETERA SAN JUAN DE AZNALFARACHE-CAMAS KM. S/N","city":"SAN JUAN DE AZNALFARACHE","cp":"41920","fuels":{"Gazole":{"p":1.649,"d":"2026-07-14"},"SP95":{"p":1.599,"d":"2026-07-14"},"SP98":{"p":1.769,"d":"2026-07-14"}},"brand":"Repsol"},{"id":100007086,"lat":37.362639,"lng":-6.036583,"addr":"CR SE-640, 0,7","city":"SAN JUAN DE AZNALFARACHE","cp":"41920","fuels":{"Gazole":{"p":1.655,"d":"2026-07-14"},"SP95":{"p":1.609,"d":"2026-07-14"},"SP98":{"p":1.779,"d":"2026-07-14"}},"brand":"Repsol"},{"id":100012238,"lat":37.355083,"lng":-6.025444,"addr":"POLIGONO ALAVERA PARCELA 6.1,","city":"SAN JUAN DE AZNALFARACHE","cp":"41920","fuels":{"Gazole":{"p":1.665,"d":"2026-07-14"},"SP95":{"p":1.625,"d":"2026-07-14"},"SP98":{"p":1.749,"d":"2026-07-14"}},"brand":"Repsol Cross","h24":true},{"id":100007288,"lat":37.348389,"lng":-6.026361,"addr":"CARRETERA SE660 KM. 3,75","city":"SAN JUAN DE AZNALFARACHE","cp":"41920","fuels":{"Gazole":{"p":1.655,"d":"2026-07-14"},"SP95":{"p":1.599,"d":"2026-07-14"},"SP98":{"p":1.739,"d":"2026-07-14"}},"brand":"Bp La Palmera"},{"id":100007312,"lat":37.363389,"lng":-6.039167,"addr":"CARRETERA SE-640 KM. 0,750","city":"SAN JUAN DE AZNALFARACHE","cp":"41920","fuels":{"Gazole":{"p":1.664,"d":"2026-07-14"},"SP95":{"p":1.619,"d":"2026-07-14"},"SP98":{"p":1.759,"d":"2026-07-14"},"GPLc":{"p":1.029,"d":"2026-07-14"}},"brand":"Shell"},{"id":100007463,"lat":37.372667,"lng":-6.033667,"addr":"CARRETERA CTRA. TOMARÉS-SEVILLA KM. S/N","city":"SAN JUAN DE AZNALFARACHE","cp":"41920","fuels":{"Gazole":{"p":1.664,"d":"2026-07-14"},"SP95":{"p":1.619,"d":"2026-07-14"},"SP98":{"p":1.759,"d":"2026-07-14"}},"brand":"Galp"},{"id":100007049,"lat":37.364778,"lng":-6.025139,"addr":"CALLE RAMON Y CAJAL, S/N","city":"SAN JUAN DE AZNALFARACHE","cp":"41920","fuels":{"Gazole":{"p":1.499,"d":"2026-07-14"},"SP95":{"p":1.495,"d":"2026-07-14"}},"brand":"Ballenoil","h24":true},{"id":100010849,"lat":37.368861,"lng":-6.035389,"addr":"CARRETERA SAN JUAN DE AZNALFARACHE KM. 1","city":"SAN JUAN DE AZNALFARACHE","cp":"41920","fuels":{"Gazole":{"p":1.599,"d":"2026-07-14"},"SP95":{"p":1.569,"d":"2026-07-14"},"SP98":{"p":1.759,"d":"2026-07-14"}},"brand":"Carrefour","h24":true},{"id":100007356,"lat":37.384917,"lng":-6.193583,"addr":"CARRETERA A-472 KM. 0,2","city":"SANLUCAR LA MAYOR","cp":"41800","fuels":{"Gazole":{"p":1.499,"d":"2026-07-14"},"SP95":{"p":1.495,"d":"2026-07-14"}},"brand":"Ballenoil","h24":true},{"id":100006442,"lat":37.367472,"lng":-6.196583,"addr":"SANLUCAR-BENACAZÓN km 3","city":"SANLUCAR LA MAYOR","cp":"41800","fuels":{"Gazole":{"p":1.529,"d":"2026-07-14"},"SP95":{"p":1.519,"d":"2026-07-14"},"SP98":{"p":1.709,"d":"2026-07-14"}},"brand":"Sajardines"},{"id":100007368,"lat":37.386639,"lng":-6.197472,"addr":"CALLE CRISTOBAL COLON, 49","city":"SANLUCAR LA MAYOR","cp":"41800","fuels":{"Gazole":{"p":1.669,"d":"2026-07-14"},"SP95":{"p":1.649,"d":"2026-07-14"},"SP98":{"p":1.769,"d":"2026-07-14"}},"brand":"Campsa","h24":true},{"id":100006481,"lat":37.4445,"lng":-6.044889,"addr":"AVENIDA EXTREMADURA Nº1 (SE-184 km 1,2)","city":"SANTIPONCE","cp":"41970","fuels":{"Gazole":{"p":1.499,"d":"2026-07-14"},"SP95":{"p":1.459,"d":"2026-07-14"},"E10":{"p":1.459,"d":"2026-07-14"}},"brand":"Italica Oil"},{"id":100007289,"lat":37.429972,"lng":-6.037333,"addr":"CARRETERA N-630 KM. 808,40","city":"SANTIPONCE","cp":"41970","fuels":{"Gazole":{"p":1.659,"d":"2026-07-14"},"SP95":{"p":1.615,"d":"2026-07-14"},"SP98":{"p":1.755,"d":"2026-07-14"}},"brand":"Bp Santiponce","h24":true},{"id":100016292,"lat":37.070889,"lng":-5.08975,"addr":"CALLE FRAY MARTIN POVEA, 51","city":"SAUCEJO (EL)","cp":"41650","fuels":{"Gazole":{"p":1.485,"d":"2026-07-14"},"SP95":{"p":1.505,"d":"2026-07-14"}},"brand":"Gasolinera De La Cooperativa Ntra Sra Del Rosario","h24":true},{"id":100007352,"lat":37.379639,"lng":-5.989611,"addr":"GLORIETA SAN DIEGO, S/N","city":"SEVILLA","cp":"41004","fuels":{"Gazole":{"p":1.649,"d":"2026-07-14"},"SP95":{"p":1.619,"d":"2026-07-14"}},"brand":"Moeve"},{"id":100007350,"lat":37.386944,"lng":-6.000389,"addr":"PASEO CRISTOBAL COLON,","city":"SEVILLA","cp":"41001","fuels":{"Gazole":{"p":1.649,"d":"2026-07-14"},"SP95":{"p":1.619,"d":"2026-07-14"}},"brand":"Moeve"},{"id":100007344,"lat":37.363694,"lng":-6.000694,"addr":"CARRERA DE LA ESCLUSA, 10 (PUERTO OESTE),","city":"SEVILLA","cp":"41001","fuels":{"Gazole":{"p":1.657,"d":"2026-07-14"},"SP95":{"p":1.602,"d":"2026-07-14"},"GPLc":{"p":1.144,"d":"2026-07-14"}},"brand":"Moeve","h24":true},{"id":100007348,"lat":37.383778,"lng":-5.984889,"addr":"CALLE MARQUES DE PARADAS, 53","city":"SEVILLA","cp":"41001","fuels":{"Gazole":{"p":1.477,"d":"2026-07-14"},"SP95":{"p":1.455,"d":"2026-07-14"}},"brand":"Ballenoil","h24":true},{"id":100006547,"lat":37.414389,"lng":-5.983528,"addr":"AVDA. DOCTOR FEDRIANI, 40 (BARRIADA BACHILLERA)","city":"SEVILLA","cp":"41009","fuels":{"Gazole":{"p":1.495,"d":"2026-07-14"},"SP95":{"p":1.399,"d":"2026-07-14"}},"brand":"E.S. San Lazaro"},{"id":100007377,"lat":37.40025,"lng":-5.984556,"addr":"RONDA RONDA DE CAPUCHINOS, 1","city":"SEVILLA","cp":"41009","fuels":{"Gazole":{"p":1.689,"d":"2026-07-14"},"SP95":{"p":1.651,"d":"2026-07-14"},"SP98":{"p":1.781,"d":"2026-07-14"}},"brand":"Repsol","h24":true},{"id":100013556,"lat":37.417806,"lng":-5.975028,"addr":"CALLE SIERRA PARQUE SIERRA CASTRIL, S/N","city":"SEVILLA","cp":"41008","fuels":{"Gazole":{"p":1.489,"d":"2026-07-14"},"SP95":{"p":1.489,"d":"2026-07-14"}},"brand":"Carrefour","h24":true},{"id":100007304,"lat":37.404167,"lng":-5.963361,"addr":"CALLE GRAMIL, SN","city":"SEVILLA","cp":"41008","fuels":{"Gazole":{"p":1.669,"d":"2026-07-14"},"SP95":{"p":1.599,"d":"2026-07-14"},"SP98":{"p":1.78,"d":"2026-07-14"}},"brand":"Cepsa"},{"id":100007089,"lat":37.416611,"lng":-5.955278,"addr":"CARRETERA SE-30 (CRTRA. VALDEZORRAS) KM. 0,1","city":"SEVILLA","cp":"41008","fuels":{"Gazole":{"p":1.635,"d":"2026-07-14"},"SP95":{"p":1.595,"d":"2026-07-14"},"SP98":{"p":1.735,"d":"2026-07-14"},"GPLc":{"p":1.035,"d":"2026-07-14"}},"brand":"Repsol","h24":true},{"id":100007305,"lat":37.416,"lng":-5.957083,"addr":"CALLE ESCARPIA, 1","city":"SEVILLA","cp":"41008","fuels":{"Gazole":{"p":1.669,"d":"2026-07-14"},"SP95":{"p":1.599,"d":"2026-07-14"},"SP98":{"p":1.78,"d":"2026-07-14"}},"brand":"Cepsa","h24":true},{"id":100007303,"lat":37.403583,"lng":-5.962889,"addr":"CALLE GRAMIL, SN","city":"SEVILLA","cp":"41008","fuels":{"Gazole":{"p":1.669,"d":"2026-07-14"},"SP95":{"p":1.599,"d":"2026-07-14"}},"brand":"Cepsa","h24":true},{"id":100006473,"lat":37.43075,"lng":-5.980083,"addr":"AVENIDA MEDINA Y GALNARES, 76","city":"SEVILLA","cp":"41015","fuels":{"Gazole":{"p":1.499,"d":"2026-07-14"},"SP95":{"p":1.459,"d":"2026-07-14"},"GPLc":{"p":0.979,"d":"2026-07-14"}},"brand":"San Jeronimo Gasolinera"},{"id":100007148,"lat":37.427917,"lng":-5.970917,"addr":"CARRETERA SE-111 KM. 1,7","city":"SEVILLA","cp":"41015","fuels":{"Gazole":{"p":1.619,"d":"2026-07-14"},"SP95":{"p":1.629,"d":"2026-07-14"},"SP98":{"p":1.739,"d":"2026-07-14"},"GPLc":{"p":0.969,"d":"2026-07-14"}},"brand":"Moeve","h24":true},{"id":100014117,"lat":37.433528,"lng":-5.971472,"addr":"CALLE GANIMEDES, 9","city":"SEVILLA","cp":"41015","fuels":{"Gazole":{"p":1.528,"d":"2026-07-14"},"SP95":{"p":1.506,"d":"2026-07-14"}},"brand":"Costco"},{"id":100013411,"lat":37.431972,"lng":-5.967361,"addr":"CARRETERA SEVILLA- BRENES S/N PLAN API - DMN - 04 KM. S/N","city":"SEVILLA","cp":"41015","fuels":{"Gazole":{"p":1.649,"d":"2026-07-14"},"SP95":{"p":1.599,"d":"2026-07-14"},"SP98":{"p":1.739,"d":"2026-07-14"}},"brand":"Repsol","h24":true},{"id":100014635,"lat":37.429472,"lng":-5.968306,"addr":"CALLE ESTRELLA VEGA, 20","city":"SEVILLA","cp":"41015","fuels":{"Gazole":{"p":1.539,"d":"2026-07-14"},"SP95":{"p":1.499,"d":"2026-07-14"}},"brand":"Q8","h24":true},{"id":100013672,"lat":37.427361,"lng":-5.9785,"addr":"AVENIDA SAN JERONIMO, S/N","city":"SEVILLA","cp":"41015","fuels":{"Gazole":{"p":1.429,"d":"2026-07-14"},"SP95":{"p":1.398,"d":"2026-07-14"}},"brand":"Ballenoil","h24":true},{"id":100013528,"lat":37.426833,"lng":-5.975417,"addr":"CALLE ASTRONOMIA, 3","city":"SEVILLA","cp":"41015","fuels":{"Gazole":{"p":1.429,"d":"2026-07-14"},"SP95":{"p":1.398,"d":"2026-07-14"}},"brand":"Moove","h24":true},{"id":100011143,"lat":37.431528,"lng":-5.933861,"addr":"CTRA. DE BRENES, A-8008, KM. 1 VALDEZORRAS","city":"SEVILLA","cp":"41015","fuels":{"Gazole":{"p":1.519,"d":"2026-07-14"},"SP95":{"p":1.469,"d":"2026-07-14"}},"brand":"E.S. Parraga"},{"id":100007052,"lat":37.409222,"lng":-5.94025,"addr":"AUTOVIA DE SAN PABLO KM. 535,6","city":"SEVILLA","cp":"41020","fuels":{"Gazole":{"p":1.499,"d":"2026-07-14"},"SP95":{"p":1.519,"d":"2026-07-14"},"SP98":{"p":1.749,"d":"2026-07-14"}},"brand":"Carrefour","h24":true},{"id":100010593,"lat":37.428111,"lng":-5.895639,"addr":"N-IV km 531.75","city":"SEVILLA","cp":"41020","fuels":{"Gazole":{"p":1.609,"d":"2026-07-14"},"SP95":{"p":1.589,"d":"2026-07-14"},"SP98":{"p":1.729,"d":"2026-07-14"}},"brand":"Shell","h24":true},{"id":100007077,"lat":37.410444,"lng":-5.938667,"addr":"CARRETERA N-IV KM. 535,7","city":"SEVILLA","cp":"41020","fuels":{"Gazole":{"p":1.619,"d":"2026-07-14"},"SP95":{"p":1.579,"d":"2026-07-14"}},"brand":"Q8"},{"id":100007229,"lat":37.337278,"lng":-5.972472,"addr":"CARRETERA N-IV KM. 536,7","city":"SEVILLA","cp":"41020","fuels":{"Gazole":{"p":1.599,"d":"2026-07-14"},"SP95":{"p":1.499,"d":"2026-07-14"}},"brand":"Bp Oil"},{"id":100014534,"lat":37.39575,"lng":-5.938722,"addr":"CALLE COJINETE, SN","city":"SEVILLA","cp":"41020","fuels":{"Gazole":{"p":1.447,"d":"2026-07-14"},"SP95":{"p":1.407,"d":"2026-07-14"}},"brand":"Apj"},{"id":100012186,"lat":37.405139,"lng":-5.934972,"addr":"AVENIDA ALCALDE LUIS URUÑUELA, S/N","city":"SEVILLA","cp":"41020","fuels":{"Gazole":{"p":1.624,"d":"2026-07-14"},"SP95":{"p":1.599,"d":"2026-07-14"},"SP98":{"p":1.739,"d":"2026-07-14"},"GPLc":{"p":0.999,"d":"2026-07-14"}},"brand":"Shell"},{"id":100008523,"lat":37.404806,"lng":-5.934444,"addr":"AVENIDA ALCALDE LUIS URUÑUELA, S/N","city":"SEVILLA","cp":"41020","fuels":{"Gazole":{"p":1.524,"d":"2026-07-14"},"SP95":{"p":1.499,"d":"2026-07-14"},"SP98":{"p":1.699,"d":"2026-07-14"}},"brand":"Shell","h24":true},{"id":100007294,"lat":37.394639,"lng":-5.943111,"addr":"CALLE MARTILLO, 18","city":"SEVILLA","cp":"41020","fuels":{"Gazole":{"p":1.668,"d":"2026-07-14"},"SP95":{"p":1.602,"d":"2026-07-14"},"SP98":{"p":1.804,"d":"2026-07-14"}},"brand":"Moeve","h24":true},{"id":100006536,"lat":37.370472,"lng":-5.965194,"addr":"CALLE RONDA DEL TAMARGUILLO, S/N","city":"SEVILLA","cp":"41006","fuels":{"Gazole":{"p":1.424,"d":"2026-07-14"},"SP95":{"p":1.387,"d":"2026-07-14"},"SP98":{"p":1.544,"d":"2026-07-14"}},"brand":"Alcampo S.A.","h24":true},{"id":100009423,"lat":37.362778,"lng":-5.955639,"addr":"AVDA. DE LA PAZ, ESQ SU EMINENCIA","city":"SEVILLA","cp":"41006","fuels":{"Gazole":{"p":1.644,"d":"2026-07-14"},"SP95":{"p":1.614,"d":"2026-07-14"},"SP98":{"p":1.754,"d":"2026-07-14"},"GPLc":{"p":1.029,"d":"2026-07-14"}},"brand":"Shell","h24":true},{"id":100007471,"lat":37.386472,"lng":-5.947333,"addr":"AVENIDA ANDALUCIA, 44","city":"SEVILLA","cp":"41006","fuels":{"Gazole":{"p":1.529,"d":"2026-07-14"},"SP95":{"p":1.479,"d":"2026-07-14"},"SP98":{"p":1.619,"d":"2026-07-14"}},"brand":"Galp","h24":true},{"id":100006545,"lat":37.366528,"lng":-5.954944,"addr":"CTRA. DE SU EMINENCIA S/N","city":"SEVILLA","cp":"41006","fuels":{"Gazole":{"p":1.465,"d":"2026-07-14"},"SP95":{"p":1.389,"d":"2026-07-14"}},"brand":"E.S. Su Eminencia"},{"id":100016293,"lat":37.364722,"lng":-5.956833,"addr":"TRAVESÍA SU EMINENCIA, 2","city":"SEVILLA","cp":"41006","fuels":{"Gazole":{"p":1.419,"d":"2026-07-14"},"SP95":{"p":1.387,"d":"2026-07-14"}},"brand":"Plenergy","h24":true},{"id":100007290,"lat":37.380944,"lng":-5.937917,"addr":"POLIGONO INDUSTRIAL LA NEGRILLA, PERITO, 6 -  PARC","city":"SEVILLA","cp":"41006","fuels":{"Gazole":{"p":1.667,"d":"2026-07-14"},"SP95":{"p":1.624,"d":"2026-07-14"},"SP98":{"p":1.826,"d":"2026-07-14"}},"brand":"Moeve","h24":true},{"id":100007450,"lat":37.387667,"lng":-5.954306,"addr":"CALLE ANTONIO PEÑA Y LOPEZ, 5","city":"SEVILLA","cp":"41007","fuels":{"Gazole":{"p":1.529,"d":"2026-07-14"},"SP95":{"p":1.479,"d":"2026-07-14"},"SP98":{"p":1.619,"d":"2026-07-14"}},"brand":"Galp","h24":true},{"id":100007228,"lat":37.394194,"lng":-5.963361,"addr":"CALLE EFESO, 4","city":"SEVILLA","cp":"41007","fuels":{"Gazole":{"p":1.635,"d":"2026-07-14"},"SP95":{"p":1.599,"d":"2026-07-14"}},"brand":"Moeve"},{"id":100013969,"lat":37.390389,"lng":-5.957694,"addr":"AVENIDA DE LA PRENSA, 1","city":"SEVILLA","cp":"41007","fuels":{"Gazole":{"p":1.589,"d":"2026-07-14"},"SP95":{"p":1.569,"d":"2026-07-14"}},"brand":"Q8 Easy","h24":true},{"id":100014437,"lat":37.405444,"lng":-5.95825,"addr":"CALLE METALURGIA, S/N","city":"SEVILLA","cp":"41007","fuels":{"Gazole":{"p":1.459,"d":"2026-07-14"},"SP95":{"p":1.429,"d":"2026-07-14"}},"brand":"Nueva Calonge"},{"id":100007413,"lat":37.40525,"lng":-5.956306,"addr":"CR N-4, 537,6","city":"SEVILLA","cp":"41007","fuels":{"Gazole":{"p":1.649,"d":"2026-07-14"},"SP95":{"p":1.589,"d":"2026-07-14"},"SP98":{"p":1.749,"d":"2026-07-14"}},"brand":"Repsol"},{"id":100007249,"lat":37.386972,"lng":-5.935028,"addr":"AUTOVIA A-92 KM. 2","city":"SEVILLA","cp":"41007","fuels":{"Gazole":{"p":1.635,"d":"2026-07-14"},"SP95":{"p":1.599,"d":"2026-07-14"},"SP98":{"p":1.769,"d":"2026-07-14"}},"brand":"Repsol"},{"id":100007134,"lat":37.393194,"lng":-5.953472,"addr":"CL AVENIDA MONTESIERRA, S.Nº","city":"SEVILLA","cp":"41007","fuels":{"Gazole":{"p":1.635,"d":"2026-07-14"},"SP95":{"p":1.599,"d":"2026-07-14"},"SP98":{"p":1.769,"d":"2026-07-14"},"GPLc":{"p":1.035,"d":"2026-07-14"}},"brand":"Repsol"},{"id":100015830,"lat":37.393611,"lng":-5.944028,"addr":"AVENIDA FERNANDEZ MURUBE, 10","city":"SEVILLA","cp":"41007","fuels":{"Gazole":{"p":1.625,"d":"2026-07-14"},"SP95":{"p":1.589,"d":"2026-07-14"},"SP98":{"p":1.729,"d":"2026-07-14"}},"brand":"Bp Sevilla Ctra Amarilla"},{"id":100007351,"lat":37.404972,"lng":-5.955861,"addr":"AVENIDA KANSAS CITY, S/N","city":"SEVILLA","cp":"41007","fuels":{"Gazole":{"p":1.629,"d":"2026-07-14"},"SP95":{"p":1.609,"d":"2026-07-14"}},"brand":"Bp Oil"},{"id":100009427,"lat":37.391611,"lng":-5.956667,"addr":"AVDA. MONTESIERRA, 7","city":"SEVILLA","cp":"41007","fuels":{"Gazole":{"p":1.479,"d":"2026-07-14"},"SP95":{"p":1.429,"d":"2026-07-14"}},"brand":"Petroprix","h24":true},{"id":100007070,"lat":37.413833,"lng":-5.949583,"addr":"AUTOVIA SE30 NUDO CALONGE KM. SN","city":"SEVILLA","cp":"41007","fuels":{"Gazole":{"p":1.439,"d":"2026-07-14"},"SP95":{"p":1.398,"d":"2026-07-14"}},"brand":"Ronda Norte","h24":true},{"id":100013765,"lat":37.396444,"lng":-5.945111,"addr":"PLAZA CARLOS FRANCO PINEDA, S/N","city":"SEVILLA","cp":"41007","fuels":{"Gazole":{"p":1.615,"d":"2026-07-14"},"SP95":{"p":1.575,"d":"2026-07-14"}},"brand":"Repsol","h24":true},{"id":100016183,"lat":37.412639,"lng":-5.951139,"addr":"CALLE METALURGIA, S/N","city":"SEVILLA","cp":"41007","fuels":{"Gazole":{"p":1.457,"d":"2026-07-14"},"SP95":{"p":1.407,"d":"2026-07-14"}},"brand":"Plenergy","h24":true},{"id":100007414,"lat":37.405,"lng":-5.956,"addr":"CR N-4, 537,6","city":"SEVILLA","cp":"41007","fuels":{"Gazole":{"p":1.639,"d":"2026-07-14"},"SP95":{"p":1.589,"d":"2026-07-14"},"SP98":{"p":1.749,"d":"2026-07-14"},"GPLc":{"p":1.069,"d":"2026-07-14"}},"brand":"Repsol","h24":true},{"id":100007243,"lat":37.373389,"lng":-5.968806,"addr":"CL AVDA. ALCALDE JUAN FERNANDEZ, S. (A-92 km 4)","city":"SEVILLA","cp":"41005","fuels":{"Gazole":{"p":1.649,"d":"2026-07-14"},"SP95":{"p":1.615,"d":"2026-07-14"},"SP98":{"p":1.785,"d":"2026-07-14"}},"brand":"Repsol"},{"id":100007230,"lat":37.376833,"lng":-5.974806,"addr":"AVENIDA RAMON Y CAJAL, 10","city":"SEVILLA","cp":"41005","fuels":{"Gazole":{"p":1.665,"d":"2026-07-14"},"SP95":{"p":1.629,"d":"2026-07-14"},"SP98":{"p":1.789,"d":"2026-07-14"}},"brand":"Repsol"},{"id":100015075,"lat":37.376917,"lng":-5.962889,"addr":"CALLE FRANCISCO BUENDÍA, 2","city":"SEVILLA","cp":"41005","fuels":{"Gazole":{"p":1.599,"d":"2026-07-14"},"SP95":{"p":1.579,"d":"2026-07-14"}},"brand":"Q8","h24":true},{"id":100007462,"lat":37.38725,"lng":-5.968889,"addr":"CALLE LUIS MONTOTO, 74","city":"SEVILLA","cp":"41018","fuels":{"Gazole":{"p":1.569,"d":"2026-07-14"},"SP95":{"p":1.539,"d":"2026-07-14"}},"brand":"Qp Nervion","h24":true},{"id":100007393,"lat":37.338333,"lng":-5.971194,"addr":"AVENIDA JEREZ, 24","city":"SEVILLA","cp":"41013","fuels":{"Gazole":{"p":1.658,"d":"2026-07-14"},"SP95":{"p":1.608,"d":"2026-07-14"},"SP98":{"p":1.788,"d":"2026-07-14"},"GPLc":{"p":1.068,"d":"2026-07-14"}},"brand":"Repsol","h24":true},{"id":100007051,"lat":37.355111,"lng":-5.951417,"addr":"CARRETERA CRTRA. DE UTRERA  KM 1 KM. 1","city":"SEVILLA","cp":"41013","fuels":{"Gazole":{"p":1.559,"d":"2026-07-14"},"SP95":{"p":1.529,"d":"2026-07-14"},"SP98":{"p":1.719,"d":"2026-07-14"}},"brand":"Carrefour"},{"id":100014834,"lat":37.366806,"lng":-5.984528,"addr":"AVENIDA MANUEL SIUROT, 5","city":"SEVILLA","cp":"41013","fuels":{"Gazole":{"p":1.635,"d":"2026-07-14"},"SP95":{"p":1.605,"d":"2026-07-14"},"SP98":{"p":1.745,"d":"2026-07-14"}},"brand":"Bp Siurot"},{"id":100013770,"lat":37.376389,"lng":-5.918972,"addr":"CALLE PARSI 6, 42","city":"SEVILLA","cp":"41016","fuels":{"Gazole":{"p":1.569,"d":"2026-07-14"},"SP95":{"p":1.469,"d":"2026-07-14"}},"brand":"Gacosur Parsi","h24":true},{"id":100013249,"lat":37.374028,"lng":-5.920278,"addr":"CALLE PARSI 7, 7","city":"SEVILLA","cp":"41016","fuels":{"Gazole":{"p":1.589,"d":"2026-07-14"},"SP95":{"p":1.489,"d":"2026-07-14"}},"brand":"Petroprix","h24":true},{"id":100015011,"lat":37.383889,"lng":-5.923889,"addr":"CALLE PINO CENTRAL, 14","city":"SEVILLA","cp":"41016","fuels":{"Gazole":{"p":1.499,"d":"2026-07-14"},"SP95":{"p":1.429,"d":"2026-07-14"}},"brand":"Tamoil","h24":true},{"id":100015717,"lat":37.37525,"lng":-5.914194,"addr":"CALLE PARSI, 5","city":"SEVILLA","cp":"41016","fuels":{"Gazole":{"p":1.589,"d":"2026-07-14"},"SP95":{"p":1.489,"d":"2026-07-14"}},"brand":"Plenergy","h24":true},{"id":100014604,"lat":37.383944,"lng":-5.893778,"addr":"CALLE GRANITO, 1","city":"SEVILLA","cp":"41017","fuels":{"Gazole":{"p":1.499,"d":"2026-07-14"},"SP95":{"p":1.439,"d":"2026-07-14"}},"brand":"Ballenoil","h24":true},{"id":100007322,"lat":37.415278,"lng":-5.929194,"addr":"CARRETERA E-5/A-4 KM. 535,8","city":"SEVILLA","cp":"41019","fuels":{"Gazole":{"p":1.635,"d":"2026-07-14"},"SP95":{"p":1.589,"d":"2026-07-14"},"SP98":{"p":1.759,"d":"2026-07-14"}},"brand":"Repsol"},{"id":100007323,"lat":37.414917,"lng":-5.928194,"addr":"CARRETERA E-5/A-4 KM. 535,8","city":"SEVILLA","cp":"41019","fuels":{"Gazole":{"p":1.689,"d":"2026-07-14"},"SP95":{"p":1.649,"d":"2026-07-14"},"SP98":{"p":1.799,"d":"2026-07-14"},"GPLc":{"p":1.139,"d":"2026-07-14"}},"brand":"Moeve"},{"id":100006513,"lat":37.428639,"lng":-5.894417,"addr":"CARRETERA N IV MADRID-CADIZ KM 531,5 KM. 531,5","city":"SEVILLA","cp":"41019","fuels":{"Gazole":{"p":1.619,"d":"2026-07-14"},"SP95":{"p":1.589,"d":"2026-07-14"},"SP98":{"p":1.729,"d":"2026-07-14"}},"brand":"BP"},{"id":100007152,"lat":37.361028,"lng":-5.989861,"addr":"AVENIDA RAZA (LA), 66","city":"SEVILLA","cp":"41012","fuels":{"Gazole":{"p":1.639,"d":"2026-07-14"},"SP95":{"p":1.609,"d":"2026-07-14"},"SP98":{"p":1.729,"d":"2026-07-14"}},"brand":"Repsol","h24":true},{"id":100014936,"lat":37.339333,"lng":-5.98525,"addr":"AVENIDA PALMAS ALTAS, S/N","city":"SEVILLA","cp":"41012","fuels":{"Gazole":{"p":1.687,"d":"2026-07-14"},"SP95":{"p":1.61,"d":"2026-07-14"}},"brand":"Moeve"},{"id":100007469,"lat":37.369361,"lng":-5.988139,"addr":"AVENIDA MOLINI, 3","city":"SEVILLA","cp":"41012","fuels":{"Gazole":{"p":1.659,"d":"2026-07-14"},"SP95":{"p":1.619,"d":"2026-07-14"},"SP98":{"p":1.759,"d":"2026-07-14"}},"brand":"Galp"},{"id":100007246,"lat":37.350167,"lng":-5.976917,"addr":"CR N-4, 544","city":"SEVILLA","cp":"41012","fuels":{"Gazole":{"p":1.649,"d":"2026-07-14"},"SP95":{"p":1.619,"d":"2026-07-14"},"SP98":{"p":1.739,"d":"2026-07-14"},"GPLc":{"p":1.069,"d":"2026-07-14"}},"brand":"Repsol","h24":true},{"id":100008151,"lat":37.321889,"lng":-5.969028,"addr":"AVENIDA AVENIDA DE BELLAVISTA, 70","city":"SEVILLA","cp":"41014","fuels":{"Gazole":{"p":1.629,"d":"2026-07-14"},"SP95":{"p":1.599,"d":"2026-07-14"}},"brand":"Repsol"},{"id":100013251,"lat":37.327861,"lng":-5.967028,"addr":"AVENIDA JEREZ, 43","city":"SEVILLA","cp":"41014","fuels":{"Gazole":{"p":1.509,"d":"2026-07-14"},"SP95":{"p":1.525,"d":"2026-07-14"}},"brand":"Petroprix","h24":true},{"id":100013185,"lat":37.335389,"lng":-5.969,"addr":"AVENIDA DE JEREZ, 27","city":"SEVILLA","cp":"41014","fuels":{"Gazole":{"p":1.509,"d":"2026-07-14"},"SP95":{"p":1.525,"d":"2026-07-14"}},"brand":"Plenergy","h24":true},{"id":100006548,"lat":37.372,"lng":-6.006111,"addr":"AVENIDA FLOTA DE INDIAS, S/N","city":"SEVILLA","cp":"41011","fuels":{"Gazole":{"p":1.649,"d":"2026-07-14"},"SP95":{"p":1.609,"d":"2026-07-14"},"SP98":{"p":1.749,"d":"2026-07-14"}},"brand":"Bp  Parque De Los Principes"},{"id":100013126,"lat":37.3895,"lng":-5.950639,"addr":"AVENIDA PRENSA (LA), 30","city":"CALONGE","cp":"41007","fuels":{"Gazole":{"p":1.589,"d":"2026-07-14"},"SP95":{"p":1.529,"d":"2026-07-14"}},"brand":"Petroamarilla","h24":true},{"id":100014858,"lat":37.40375,"lng":-5.96025,"addr":"CALLE METALURGIA, S/N","city":"CALONGE","cp":"41007","fuels":{"Gazole":{"p":1.457,"d":"2026-07-14"},"SP95":{"p":1.407,"d":"2026-07-14"}},"brand":"Pertroprix","h24":true},{"id":100007302,"lat":37.607917,"lng":-5.744778,"addr":"CARRETERA SE4101 KM. 0,800","city":"TOCINA","cp":"41340","fuels":{"Gazole":{"p":1.519,"d":"2026-07-14"},"SP95":{"p":1.559,"d":"2026-07-14"}},"brand":"Agla"},{"id":100007271,"lat":37.589583,"lng":-5.730806,"addr":"AVENIDA AVENIDA DE SEVILLA, 1","city":"ROSALES (LOS)","cp":"41330","fuels":{"Gazole":{"p":1.629,"d":"2026-07-14"},"SP95":{"p":1.579,"d":"2026-07-14"}},"brand":"Repsol"},{"id":100014364,"lat":37.596639,"lng":-5.737889,"addr":"CALLE JOVELLANOS, 10","city":"ROSALES (LOS)","cp":"41340","fuels":{"Gazole":{"p":1.455,"d":"2026-07-14"},"SP95":{"p":1.409,"d":"2026-07-14"}},"brand":"Red Car Oil","h24":true},{"id":100013172,"lat":37.378083,"lng":-6.029306,"addr":"CALLE SAN ROQUE, 54","city":"TOMARES","cp":"41940","fuels":{"Gazole":{"p":1.479,"d":"2026-07-14"},"SP95":{"p":1.469,"d":"2026-07-14"}},"brand":"Ballenoil","h24":true},{"id":100016026,"lat":37.374667,"lng":-6.030528,"addr":"CALLE SALADILLA, 4","city":"TOMARES","cp":"41940","fuels":{"Gazole":{"p":1.529,"d":"2026-07-14"},"SP95":{"p":1.519,"d":"2026-07-14"}},"brand":"Q8","h24":true},