[{"id":100001375,"lat":41.840056,"lng":-1.419444,"addr":"CARRETERA N-122 KM. 53,5","city":"AGON","cp":"50560","fuels":{"Gazole":{"p":1.649,"d":"2026-07-14"},"SP95":{"p":1.649,"d":"2026-07-14"},"SP98":{"p":1.759,"d":"2026-07-14"}},"brand":"Repsol"},{"id":100009133,"lat":41.340278,"lng":-1.264722,"addr":"CARRETERA CALATAYUD CARIÑENA KM. 0","city":"AGUARON","cp":"50408","fuels":{"Gazole":{"p":1.57,"d":"2026-07-14"},"SP95":{"p":1.59,"d":"2026-07-14"}},"brand":"Cooperativa Viticola San Jose","h24":true},{"id":100001440,"lat":41.761111,"lng":-1.149389,"addr":"AUTOVIA A-68 KM. 265","city":"ALAGON","cp":"50630","fuels":{"Gazole":{"p":1.595,"d":"2026-07-14"},"SP95":{"p":1.609,"d":"2026-07-14"},"SP98":{"p":1.779,"d":"2026-07-14"}},"brand":"Repsol"},{"id":100001426,"lat":41.766806,"lng":-1.1265,"addr":"CALLE CARRERA DE CABALLOS, 74","city":"ALAGON","cp":"50630","fuels":{"Gazole":{"p":1.599,"d":"2026-07-14"},"SP95":{"p":1.615,"d":"2026-07-14"}},"brand":"Repsol"},{"id":100009046,"lat":41.764583,"lng":-1.126167,"addr":"VÍA TORREMATA, 5","city":"ALAGON","cp":"50630","fuels":{"Gazole":{"p":1.478,"d":"2026-07-14"},"SP95":{"p":1.394,"d":"2026-07-14"}},"brand":"Sanantonio","h24":true},{"id":100012429,"lat":41.768139,"lng":-1.127056,"addr":"AVENIDA LA JAREA, 66","city":"ALAGON","cp":"50630","fuels":{"Gazole":{"p":1.469,"d":"2026-07-14"},"SP95":{"p":1.389,"d":"2026-07-14"}},"brand":"Ochoa Lores (la Jarea)","h24":true},{"id":100001439,"lat":41.761639,"lng":-1.149528,"addr":"AUTOVIA A-68 KM. 265","city":"ALAGON","cp":"50630","fuels":{"Gazole":{"p":1.595,"d":"2026-07-14"},"SP95":{"p":1.609,"d":"2026-07-14"},"SP98":{"p":1.779,"d":"2026-07-14"}},"brand":"Repsol"},{"id":100001977,"lat":41.606806,"lng":-0.691167,"addr":"CARRETERA NACIONAL II KM. 341","city":"ALFAJARIN","cp":"50172","fuels":{"Gazole":{"p":1.599,"d":"2026-07-14"},"SP95":{"p":1.629,"d":"2026-07-14"},"SP98":{"p":1.749,"d":"2026-07-14"}},"brand":"Repsol"},{"id":100001976,"lat":41.606417,"lng":-0.691639,"addr":"CARRETERA NACIONAL II KM. 341","city":"ALFAJARIN","cp":"50172","fuels":{"Gazole":{"p":1.599,"d":"2026-07-14"},"SP95":{"p":1.629,"d":"2026-07-14"},"SP98":{"p":1.749,"d":"2026-07-14"}},"brand":"Repsol","h24":true},{"id":100014416,"lat":41.604778,"lng":-0.689139,"addr":"CARRETERA NACIONAL II KM. 341,2","city":"ALFAJARIN","cp":"50172","fuels":{"Gazole":{"p":1.519,"d":"2026-07-14"},"SP95":{"p":1.489,"d":"2026-07-14"}},"brand":"Alfa Energy","h24":true},{"id":100001530,"lat":41.436444,"lng":-1.24025,"addr":"CARRETERA A-1304 KM. 7,3","city":"ALFAMEN","cp":"50461","fuels":{"Gazole":{"p":1.589,"d":"2026-07-14"},"SP95":{"p":1.605,"d":"2026-07-14"}},"brand":"Petronor"},{"id":100001403,"lat":41.483222,"lng":-1.371528,"addr":"CARRETERA MADRID KM. 272","city":"ALMUNIA DE DOÑA GODINA (LA)","cp":"50100","fuels":{"Gazole":{"p":1.639,"d":"2026-07-14"},"SP95":{"p":1.615,"d":"2026-07-14"},"SP98":{"p":1.785,"d":"2026-07-14"}},"brand":"Repsol"},{"id":100001488,"lat":41.483056,"lng":-1.379361,"addr":"CARRETERA RICLA (A-121) KM. 43,1","city":"ALMUNIA DE DOÑA GODINA (LA)","cp":"50100","fuels":{"Gazole":{"p":1.649,"d":"2026-07-14"},"SP95":{"p":1.659,"d":"2026-07-14"}},"brand":"Moeve"},{"id":100001264,"lat":41.477278,"lng":-1.379333,"addr":"AVENIDA MADRID, 14","city":"ALMUNIA DE DOÑA GODINA (LA)","cp":"50100","fuels":{"Gazole":{"p":1.589,"d":"2026-07-14"},"SP95":{"p":1.579,"d":"2026-07-14"}},"brand":"Cosanse"},{"id":100014131,"lat":41.490083,"lng":-1.379389,"addr":"CARRETERA NACIONAL A-121 KM. 41","city":"ALMUNIA DE DOÑA GODINA (LA)","cp":"50100","fuels":{"Gazole":{"p":1.569,"d":"2026-07-14"},"SP95":{"p":1.549,"d":"2026-07-14"}},"brand":"Gasolprice"},{"id":100001372,"lat":41.450694,"lng":-1.346556,"addr":"CARRETERA A-220 KM. 3,6","city":"ALMUNIA DE DOÑA GODINA (LA)","cp":"50100","fuels":{"Gazole":{"p":1.569,"d":"2026-07-14"},"SP95":{"p":1.549,"d":"2026-07-14"}},"brand":"Area-220"},{"id":100009003,"lat":41.447028,"lng":-1.706528,"addr":"CALLE LAS TABLAS, S/N","city":"ANIÑON","cp":"50313","fuels":{"Gazole":{"p":1.619,"d":"2026-07-14"},"SP95":{"p":1.649,"d":"2026-07-14"}},"brand":"Petrorcal","h24":true},{"id":100001489,"lat":41.311611,"lng":-2.002722,"addr":"AUTOVIA A-2 KM. 197,2","city":"ARIZA","cp":"50220","fuels":{"Gazole":{"p":1.643,"d":"2026-07-14"},"SP95":{"p":1.632,"d":"2026-07-14"}},"brand":"Moeve","h24":true},{"id":100001490,"lat":41.312611,"lng":-2.001333,"addr":"AUTOVIA A-2 KM. 197,3","city":"ARIZA","cp":"50220","fuels":{"Gazole":{"p":1.633,"d":"2026-07-14"},"SP95":{"p":1.622,"d":"2026-07-14"}},"brand":"Moeve","h24":true},{"id":100010934,"lat":41.312778,"lng":-1.768167,"addr":"AUTOPISTA A-2 KM. 221","city":"ATECA","cp":"50200","fuels":{"Gazole":{"p":1.695,"d":"2026-07-14"},"SP95":{"p":1.695,"d":"2026-07-14"}},"brand":"Arento","h24":true},{"id":100001462,"lat":41.259111,"lng":-0.869,"addr":"CARRETERA A1506 KM. 59","city":"AZUARA","cp":"50140","fuels":{"Gazole":{"p":1.629,"d":"2026-07-14"},"SP95":{"p":1.629,"d":"2026-07-14"}},"brand":"Cepsa"},{"id":100001513,"lat":41.309667,"lng":-0.742333,"addr":"CARRETERA A 222 KM. 28,800","city":"BELCHITE","cp":"50130","fuels":{"Gazole":{"p":1.639,"d":"2026-07-14"},"SP95":{"p":1.629,"d":"2026-07-14"},"SP98":{"p":1.759,"d":"2026-07-14"}},"brand":"Repsol"},{"id":100012836,"lat":41.310306,"lng":-0.744667,"addr":"CAMINO LAS LAVANDERAS, S/N","city":"BELCHITE","cp":"50130","fuels":{"Gazole":{"p":1.519,"d":"2026-07-14"},"SP95":{"p":1.549,"d":"2026-07-14"}},"brand":"Cooperativa San Martin","h24":true},{"id":100001470,"lat":42.260639,"lng":-1.194694,"addr":"CARRETERA LA ESTACION S/N KM. 1","city":"BIOTA","cp":"50695","fuels":{"Gazole":{"p":1.645,"d":"2026-07-14"},"SP95":{"p":1.623,"d":"2026-07-14"}},"brand":"Moeve"},{"id":100009311,"lat":41.832,"lng":-1.520611,"addr":"CARRETERA CANTO CORAL KM. 62","city":"BORJA","cp":"50540","fuels":{"Gazole":{"p":1.579,"d":"2026-07-14"},"SP95":{"p":1.599,"d":"2026-07-14"}},"brand":"Estacion De Servicio Moncayo"},{"id":100010930,"lat":41.831639,"lng":-1.528278,"addr":"CARRETERA AINZON KM. 2","city":"BORJA","cp":"50540","fuels":{"Gazole":{"p":1.47,"d":"2026-07-14"},"SP95":{"p":1.475,"d":"2026-07-14"}},"brand":"Coop Borja","h24":true},{"id":100011844,"lat":41.832806,"lng":-1.516611,"addr":"CALLE BARBALANCA-CENICERO, S/N","city":"BORJA","cp":"50540","fuels":{"Gazole":{"p":1.45,"d":"2026-07-14"},"SP95":{"p":1.45,"d":"2026-07-14"}},"brand":"Bola","h24":true},{"id":100001388,"lat":41.521917,"lng":-1.599833,"addr":"CALLE ORIENTE, 26","city":"BREA DE ARAGON","cp":"50246","fuels":{"Gazole":{"p":1.629,"d":"2026-07-14"},"SP95":{"p":1.605,"d":"2026-07-14"}},"brand":"Repsol"},{"id":100009016,"lat":41.498333,"lng":-0.148083,"addr":"CALLE EXTRAMUROS, 0","city":"BUJARALOZ","cp":"50177","fuels":{"Gazole":{"p":1.39,"d":"2026-07-14"},"SP95":{"p":1.405,"d":"2026-07-14"}},"brand":"Senersa S.L","h24":true},{"id":100001260,"lat":41.475944,"lng":-0.153111,"addr":"CTRA. DE SASTAGO, S/N","city":"BUJARALOZ","cp":"50177","fuels":{"Gazole":{"p":1.384,"d":"2026-07-14"},"SP95":{"p":1.348,"d":"2026-07-14"}},"brand":"BonÀrea","h24":true},{"id":100001535,"lat":41.583361,"lng":-0.774694,"addr":"AUTOVIA A-68 KM. 225,2","city":"BURGO DE EBRO (EL)","cp":"50730","fuels":{"Gazole":{"p":1.605,"d":"2026-07-14"},"SP95":{"p":1.665,"d":"2026-07-14"},"SP98":{"p":1.835,"d":"2026-07-14"}},"brand":"Repsol"},{"id":100012549,"lat":41.561667,"lng":-0.967,"addr":"AVENIDA ZARAGOZA, 35","city":"CADRETE","cp":"50420","fuels":{"Gazole":{"p":1.569,"d":"2026-07-14"},"SP95":{"p":1.499,"d":"2026-07-14"},"SP98":{"p":1.599,"d":"2026-07-14"}},"brand":"Mg","h24":true},{"id":100009253,"lat":41.324611,"lng":-1.667611,"addr":"AUTOVIA A-2 KM. 231","city":"CALATAYUD","cp":"50300","fuels":{"Gazole":{"p":1.635,"d":"2026-07-14"},"SP95":{"p":1.679,"d":"2026-07-14"},"SP98":{"p":1.839,"d":"2026-07-14"}},"brand":"E.S. Valdeherrera","h24":true},{"id":100015063,"lat":41.343528,"lng":-1.641861,"addr":"CALLE CARRETERA DE VALENCIA,, 6","city":"CALATAYUD","cp":"50300","fuels":{"Gazole":{"p":1.39,"d":"2026-07-14"},"SP95":{"p":1.353,"d":"2026-07-14"}},"brand":"BonÀrea","h24":true},{"id":100001356,"lat":41.353083,"lng":-1.630278,"addr":"CARRETERA AVDA/ FUERZAS ARMADAS S/N KM. S/N","city":"CALATAYUD","cp":"50300","fuels":{"Gazole":{"p":1.529,"d":"2026-07-14"},"SP95":{"p":1.519,"d":"2026-07-14"}},"brand":"Q8","h24":true},{"id":100001428,"lat":41.352139,"lng":-1.646528,"addr":"AVENIDA RAMON Y CAJAL, S/N","city":"CALATAYUD","cp":"50300","fuels":{"Gazole":{"p":1.615,"d":"2026-07-14"},"SP95":{"p":1.669,"d":"2026-07-14"},"SP98":{"p":1.839,"d":"2026-07-14"}},"brand":"Repsol"},{"id":100001990,"lat":41.3555,"lng":-1.62025,"addr":"AVENIDA FUERZAS ARMADAS, S/N","city":"CALATAYUD","cp":"50300","fuels":{"Gazole":{"p":1.649,"d":"2026-07-14"},"SP95":{"p":1.649,"d":"2026-07-14"},"SP98":{"p":1.809,"d":"2026-07-14"}},"brand":"Moeve"},{"id":100001360,"lat":41.353,"lng":-1.631528,"addr":"AVENIDA FUERZAS ARMADAS, SN","city":"CALATAYUD","cp":"50300","fuels":{"Gazole":{"p":1.355,"d":"2026-07-14"},"SP95":{"p":1.346,"d":"2026-07-14"},"SP98":{"p":1.509,"d":"2026-07-14"}},"brand":"Alcampo","h24":true},{"id":100010708,"lat":41.327472,"lng":-1.643,"addr":"POLIGONO LA CHARLUCA, CALLE A, 171","city":"CALATAYUD","cp":"50300","fuels":{"Gazole":{"p":1.569,"d":"2026-07-14"},"SP95":{"p":1.595,"d":"2026-07-14"}},"brand":"La Charluca Es","h24":true},{"id":100001985,"lat":41.364917,"lng":-1.586583,"addr":"CARRETERA A-2 KM. 239,75","city":"CALATAYUD","cp":"50300","fuels":{"Gazole":{"p":1.619,"d":"2026-07-14"},"SP95":{"p":1.649,"d":"2026-07-14"},"SP98":{"p":1.799,"d":"2026-07-14"}},"brand":"BP"},{"id":100001385,"lat":41.335389,"lng":-1.642778,"addr":"CARRETERA N-234 KM. 256,4","city":"CALATAYUD","cp":"50300","fuels":{"Gazole":{"p":1.609,"d":"2026-07-14"},"SP95":{"p":1.669,"d":"2026-07-14"},"SP98":{"p":1.789,"d":"2026-07-14"}},"brand":"Repsol"},{"id":100001456,"lat":41.523639,"lng":-1.348194,"addr":"CALLE DOCTOR CARNICERO, S/N","city":"CALATORAO","cp":"50280","fuels":{"Gazole":{"p":1.589,"d":"2026-07-14"},"SP95":{"p":1.609,"d":"2026-07-14"}},"brand":"Calatorao Es","h24":true},{"id":100001502,"lat":41.50175,"lng":-1.32125,"addr":"AUTOPISTA A-2 KM. 276,9","city":"CALATORAO","cp":"50280","fuels":{"Gazole":{"p":1.619,"d":"2026-07-14"},"SP95":{"p":1.619,"d":"2026-07-14"}},"brand":"Moeve"},{"id":100001377,"lat":41.5165,"lng":-1.288111,"addr":"AUTOVIA A-2 KM. 280,100","city":"CALATORAO","cp":"50280","fuels":{"Gazole":{"p":1.639,"d":"2026-07-14"},"SP95":{"p":1.639,"d":"2026-07-14"},"SP98":{"p":1.749,"d":"2026-07-14"}},"brand":"Repsol","h24":true},{"id":100009940,"lat":41.519417,"lng":-1.350722,"addr":"AVENIDA MONARES, 1","city":"CALATORAO","cp":"50280","fuels":{"Gazole":{"p":1.569,"d":"2026-07-14"}},"brand":"Bodega Santo Cristo","h24":true},{"id":100001376,"lat":41.524333,"lng":-1.273361,"addr":"AUTOVIA A-2 KM. 281,6","city":"CALATORAO","cp":"50280","fuels":{"Gazole":{"p":1.639,"d":"2026-07-14"},"SP95":{"p":1.639,"d":"2026-07-14"},"SP98":{"p":1.749,"d":"2026-07-14"}},"brand":"Repsol","h24":true},{"id":100011882,"lat":41.361111,"lng":-1.208056,"addr":"CARRETERA N-330 KM. 46,00","city":"CARIÑENA","cp":"50400","fuels":{"Gazole":{"p":1.589,"d":"2026-07-14"},"SP95":{"p":1.609,"d":"2026-07-14"}},"brand":"Deca 2006","h24":true},{"id":100001464,"lat":41.335639,"lng":-1.219639,"addr":"CARRETERA N-330 KM. 449,6","city":"CARIÑENA","cp":"50400","fuels":{"Gazole":{"p":1.613,"d":"2026-07-14"},"SP95":{"p":1.656,"d":"2026-07-14"}},"brand":"Moeve"},{"id":100001479,"lat":41.235944,"lng":-0.04375,"addr":"AVENIDA COSTA JOAQUIN, 3","city":"CASPE","cp":"50700","fuels":{"Gazole":{"p":1.623,"d":"2026-07-14"},"SP95":{"p":1.601,"d":"2026-07-14"},"SP98":{"p":1.793,"d":"2026-07-14"}},"brand":"Cepsa"},{"id":100001247,"lat":41.227694,"lng":-0.029944,"addr":"AVENIDA MAELLA, 56,5","city":"CASPE","cp":"50700","fuels":{"Gazole":{"p":1.296,"d":"2026-07-14"},"SP95":{"p":1.31,"d":"2026-07-14"}},"brand":"Ganar, S. Coop.","h24":true},{"id":100016082,"lat":41.232778,"lng":-0.058694,"addr":"POLIGONO IND- LOS ARCOS, S/N","city":"CASPE","cp":"50700","fuels":{"Gazole":{"p":1.386,"d":"2026-07-14"},"SP95":{"p":1.349,"d":"2026-07-14"}},"brand":"BonÀrea","h24":true},{"id":100001370,"lat":41.249056,"lng":-0.067917,"addr":"CARRETERA A-230 KM. 1,8","city":"CASPE","cp":"50700","fuels":{"Gazole":{"p":1.649,"d":"2026-07-14"},"SP95":{"p":1.649,"d":"2026-07-14"},"SP98":{"p":1.749,"d":"2026-07-14"}},"brand":"Repsol"},{"id":100001382,"lat":41.305917,"lng":-1.964361,"addr":"CARRETERA ENLACE AUTOVIA ARAGON KM. 200","city":"CETINA","cp":"50292","fuels":{"Gazole":{"p":1.579,"d":"2026-07-14"},"SP95":{"p":1.599,"d":"2026-07-14"}},"brand":"Avia"},{"id":100001519,"lat":41.302944,"lng":-1.945833,"addr":"AUTOVIA AUTOVIA DEL  NORDESTE KM. 202","city":"CETINA","cp":"50292","fuels":{"Gazole":{"p":1.605,"d":"2026-07-14"},"SP95":{"p":1.629,"d":"2026-07-14"},"SP98":{"p":1.749,"d":"2026-07-14"}},"brand":"Repsol","h24":true},{"id":100001520,"lat":41.303611,"lng":-1.946278,"addr":"AUTOVIA NORDESTE KM. 202","city":"CETINA","cp":"50292","fuels":{"Gazole":{"p":1.605,"d":"2026-07-14"},"SP95":{"p":1.629,"d":"2026-07-14"},"SP98":{"p":1.749,"d":"2026-07-14"}},"brand":"Repsol","h24":true},{"id":100011105,"lat":41.595167,"lng":-0.941361,"addr":"CARRETERA VALENCIA KM. 8","city":"CUARTE DE HUERVA","cp":"50410","fuels":{"Gazole":{"p":1.612,"d":"2026-07-14"},"SP95":{"p":1.601,"d":"2026-07-14"},"SP98":{"p":1.793,"d":"2026-07-14"}},"brand":"Cepsa"},{"id":100013416,"lat":41.599139,"lng":-0.925667,"addr":"AVENIDA SAN JOSE, 69","city":"CUARTE DE HUERVA","cp":"50410","fuels":{"Gazole":{"p":1.469,"d":"2026-07-14"},"SP95":{"p":1.469,"d":"2026-07-14"}},"brand":"Low Cost Repost","h24":true},{"id":100012257,"lat":41.587722,"lng":-0.948944,"addr":"CARRETERA VALENCIA KM. 8,8","city":"CUARTE DE HUERVA","cp":"50410","fuels":{"Gazole":{"p":1.385,"d":"2026-07-14"},"SP95":{"p":1.349,"d":"2026-07-14"}},"brand":"Plenergy","h24":true},{"id":100014127,"lat":41.5865,"lng":-0.940194,"addr":"CALLE FONTANA DE TREVI, 247","city":"CUARTE DE HUERVA","cp":"50410","fuels":{"Gazole":{"p":1.468,"d":"2026-07-14"},"SP95":{"p":1.458,"d":"2026-07-14"}},"brand":"Monte Aluma","h24":true},{"id":100001448,"lat":41.117167,"lng":-1.406028,"addr":"CR N-234, 220,2","city":"DAROCA","cp":"50360","fuels":{"Gazole":{"p":1.629,"d":"2026-07-14"},"SP95":{"p":1.609,"d":"2026-07-14"},"SP98":{"p":1.779,"d":"2026-07-14"}},"brand":"Repsol"},{"id":100001473,"lat":42.126806,"lng":-1.144528,"addr":"CARRETERA A-127 KM. 32,3","city":"EJEA DE LOS CABALLEROS","cp":"50600","fuels":{"Gazole":{"p":1.419,"d":"2026-07-14"},"SP95":{"p":1.389,"d":"2026-07-14"}},"brand":"Plenergy","h24":true},{"id":100011419,"lat":42.130639,"lng":-1.127917,"addr":"CARRETERA ERLA KM. 70","city":"EJEA DE LOS CABALLEROS","cp":"50600","fuels":{"Gazole":{"p":1.409,"d":"2026-07-14"},"SP95":{"p":1.379,"d":"2026-07-14"},"SP98":{"p":1.769,"d":"2026-07-14"}},"brand":"Alcampo","h24":true},{"id":100010528,"lat":42.130281,"lng":-1.157506,"addr":"CTRA. TUDELA km 1.300","city":"EJEA DE LOS CABALLEROS","cp":"50600","fuels":{"Gazole":{"p":1.436,"d":"2026-07-14"},"SP95":{"p":1.441,"d":"2026-07-14"}},"brand":"Coop. Virgen Oliva","h24":true},{"id":100011081,"lat":42.130278,"lng":-1.167194,"addr":"POLIGONO VALDEFERRIN, 61","city":"EJEA DE LOS CABALLEROS","cp":"50600","fuels":{"Gazole":{"p":1.495,"d":"2026-07-14"},"SP95":{"p":1.459,"d":"2026-07-14"}},"brand":"Laboil","h24":true},{"id":100001461,"lat":42.118389,"lng":-1.142861,"addr":"CARRETERA A-127 KM. 31,5","city":"EJEA DE LOS CABALLEROS","cp":"50600","fuels":{"Gazole":{"p":1.495,"d":"2026-07-14"},"SP95":{"p":1.459,"d":"2026-07-14"}},"brand":"Laboil","h24":true},{"id":100001973,"lat":42.127861,"lng":-1.130389,"addr":"PASEO DE LA CONSTITUCION, S.N.","city":"EJEA DE LOS CABALLEROS","cp":"50600","fuels":{"Gazole":{"p":1.605,"d":"2026-07-14"},"SP95":{"p":1.639,"d":"2026-07-14"},"SP98":{"p":1.779,"d":"2026-07-14"}},"brand":"Repsol"},{"id":100010537,"lat":42.176528,"lng":-1.197556,"addr":"CALLE PINAR, S/N","city":"BARDENA DEL CAUDILLO","cp":"50694","fuels":{"Gazole":{"p":1.436,"d":"2026-07-14"},"SP95":{"p":1.441,"d":"2026-07-14"}},"brand":"Coop. Virgen Oliva","h24":true},{"id":100011486,"lat":41.538528,"lng":-1.242167,"addr":"AUTOVIA A-2 (MRG.IZDO.) KM. 285","city":"EPILA","cp":"50290","fuels":{"Gazole":{"p":1.612,"d":"2026-07-14"},"SP95":{"p":1.602,"d":"2026-07-14"},"SP98":{"p":1.804,"d":"2026-07-14"},"GPLc":{"p":1.133,"d":"2026-07-14"}},"brand":"Moeve","h24":true},{"id":100001265,"lat":41.59475,"lng":-1.274806,"addr":"CARRETERA MUEL KM. 64","city":"EPILA","cp":"50290","fuels":{"Gazole":{"p":1.429,"d":"2026-07-14"},"SP95":{"p":1.409,"d":"2026-07-14"},"SP98":{"p":1.599,"d":"2026-07-14"}},"brand":"E.S.Epila","h24":true},{"id":100011853,"lat":41.5955,"lng":-1.273194,"addr":"POLIGONO VALDEMUEL, SN","city":"EPILA","cp":"50290","fuels":{"Gazole":{"p":1.449,"d":"2026-07-14"},"SP95":{"p":1.409,"d":"2026-07-14"}},"brand":"Cooperativa San Pedro Arbues","h24":true},{"id":100015732,"lat":41.553806,"lng":-1.208694,"addr":"CARRETERA MUEL-PLATAFORMA LOGISTICA BONAREA KM. 288","city":"EPILA","cp":"50290","fuels":{"Gazole":{"p":1.387,"d":"2026-07-14"},"SP95":{"p":1.35,"d":"2026-07-14"}},"brand":"BonÀrea","h24":true},{"id":100001471,"lat":41.540417,"lng":-1.233833,"addr":"AUTOVIA A-2 KM. 285","city":"EPILA","cp":"50290","fuels":{"Gazole":{"p":1.534,"d":"2026-07-14"},"SP95":{"p":1.529,"d":"2026-07-14"}},"brand":"Moeve"},{"id":100009639,"lat":42.114389,"lng":-0.947806,"addr":"AVENIDA GOYA, 10","city":"ERLA","cp":"50611","fuels":{"Gazole":{"p":1.585,"d":"2026-07-14"},"SP95":{"p":1.605,"d":"2026-07-14"}},"brand":"Petronor"},{"id":100012415,"lat":41.681028,"lng":-0.506944,"addr":"CALLE HORNO (DEL), 1","city":"FARLETE","cp":"50163","fuels":{"Gazole":{"p":1.45,"d":"2026-07-14"}},"brand":"Cooperativa","h24":true},{"id":100011699,"lat":41.244944,"lng":0.332444,"addr":"CALLE CARRETERA DE RONDA, 0","city":"FAYON","cp":"50795","fuels":{"Gazole":{"p":1.625,"d":"2026-07-14"},"SP95":{"p":1.597,"d":"2026-07-14"}},"brand":"No Tiene","h24":true},{"id":100001258,"lat":41.414806,"lng":-1.516972,"addr":"AUTOVIA AUTOVIA ARAGON KM. 253","city":"FRASNO (EL)","cp":"50320","fuels":{"Gazole":{"p":1.609,"d":"2026-07-14"},"SP95":{"p":1.619,"d":"2026-07-14"},"GPLc":{"p":0.999,"d":"2026-07-14"}},"brand":"Mlc Aluenda","h24":true},{"id":100001534,"lat":41.762833,"lng":-1.475639,"addr":"A-121 km 8,1","city":"FUENDEJALON","cp":"50529","fuels":{"Gazole":{"p":1.619,"d":"2026-07-14"},"SP95":{"p":1.605,"d":"2026-07-14"}},"brand":"Repsol"},{"id":100009604,"lat":41.50675,"lng":-0.615611,"addr":"N-232 km 209,100","city":"FUENTES DE EBRO","cp":"50740","fuels":{"Gazole":{"p":1.47,"d":"2026-07-14"}},"brand":"Cova","h24":true},{"id":100001431,"lat":41.514972,"lng":-0.63675,"addr":"PASEO JUSTICIA (DEL), 1","city":"FUENTES DE EBRO","cp":"50740","fuels":{"Gazole":{"p":1.609,"d":"2026-07-14"},"SP95":{"p":1.649,"d":"2026-07-14"},"SP98":{"p":1.809,"d":"2026-07-14"}},"brand":"Repsol"},{"id":100001468,"lat":41.846111,"lng":-1.355389,"addr":"CARRETERA N-232 KM. 286","city":"GALLUR","cp":"50650","fuels":{"Gazole":{"p":1.611,"d":"2026-07-14"},"SP95":{"p":1.633,"d":"2026-07-14"}},"brand":"Avia","h24":true},{"id":100001413,"lat":41.834472,"lng":-1.32,"addr":"AUTOPISTA AP-68 KM. 254","city":"GALLUR","cp":"50650","fuels":{"Gazole":{"p":1.599,"d":"2026-07-14"},"SP95":{"p":1.625,"d":"2026-07-14"},"SP98":{"p":1.745,"d":"2026-07-14"}},"brand":"Repsol"},{"id":100001414,"lat":41.832972,"lng":-1.319722,"addr":"AUTOPISTA AP-68 KM. 254","city":"GALLUR","cp":"50650","fuels":{"Gazole":{"p":1.599,"d":"2026-07-14"},"SP95":{"p":1.625,"d":"2026-07-14"},"SP98":{"p":1.745,"d":"2026-07-14"}},"brand":"Repsol"},{"id":100008994,"lat":41.862528,"lng":-1.312944,"addr":"CALLE AFUERAS, S/N","city":"GALLUR","cp":"50650","fuels":{"Gazole":{"p":1.44,"d":"2026-07-14"},"SP95":{"p":1.46,"d":"2026-07-14"}},"brand":"Cosanpe","h24":true},{"id":100001498,"lat":41.531944,"lng":-1.618056,"addr":"CARRETERA A-1503 KM. 20,1","city":"ILLUECA","cp":"50250","fuels":{"Gazole":{"p":1.629,"d":"2026-07-14"},"SP95":{"p":1.619,"d":"2026-07-14"}},"brand":"Cepsa"},{"id":100010915,"lat":41.531694,"lng":-1.626861,"addr":"CTRA. A-1503, P.K. 22,800 (A-1503-CIRCUNVALACION km 22.800)","city":"ILLUECA","cp":"50250","fuels":{"Gazole":{"p":1.579,"d":"2026-07-14"},"SP95":{"p":1.599,"d":"2026-07-14"},"SP98":{"p":1.699,"d":"2026-07-14"}},"brand":"D P S"},{"id":100001371,"lat":41.736972,"lng":-1.066694,"addr":"CR N 232 KM  257","city":"JOYOSA (LA)","cp":"50692","fuels":{"Gazole":{"p":1.649,"d":"2026-07-14"},"SP95":{"p":1.609,"d":"2026-07-14"}},"brand":"E.S. La Joyosa","h24":true},{"id":100001515,"lat":41.208861,"lng":-0.710861,"addr":"CARRETERA A-222 KM. 40,700","city":"LECERA","cp":"50131","fuels":{"Gazole":{"p":1.639,"d":"2026-07-14"},"SP95":{"p":1.629,"d":"2026-07-14"},"SP98":{"p":1.759,"d":"2026-07-14"}},"brand":"Es Ntra Sra Olivar"},{"id":100014212,"lat":41.202194,"lng":-0.7085,"addr":"CALLE DULA, SN","city":"LECERA","cp":"50131","fuels":{"Gazole":{"p":1.539,"d":"2026-07-14"},"SP95":{"p":1.495,"d":"2026-07-14"}},"brand":"An Energeticos S.L. - Lecera","h24":true},{"id":100008986,"lat":41.793333,"lng":-0.615167,"addr":"CARRETERA SAN MATEO Nº 5 KM.","city":"LECIÑENA","cp":"50160","fuels":{"Gazole":{"p":1.51,"d":"2026-07-14"},"SP95":{"p":1.45,"d":"2026-07-14"}},"brand":"Coop. San Isidro Leciñena"},{"id":100011291,"lat":42.360222,"lng":-1.022694,"addr":"CARRETERA DE EJEA-LUESIA km 31","city":"LUESIA","cp":"50619","fuels":{"Gazole":{"p":1.483,"d":"2026-07-14"},"SP95":{"p":1.451,"d":"2026-07-14"}},"brand":"Coop. San Esteban De Luesia","h24":true},{"id":100008996,"lat":41.633278,"lng":-1.300028,"addr":"AVENIDA CONSTITUCION DE LA, 11","city":"LUMPIAQUE","cp":"50295","fuels":{"Gazole":{"p":1.45,"d":"2026-07-14"}},"brand":"San Francisco De Asis","h24":true},{"id":100009925,"lat":42.164278,"lng":-0.9365,"addr":"VALDANIAS, 2","city":"LUNA","cp":"50610","fuels":{"Gazole":{"p":1.4,"d":"2026-07-14"}},"brand":"Cooperativa De Luna","h24":true},{"id":100010012,"lat":41.119806,"lng":0.140306,"addr":"AVENIDA ARAGON, 110","city":"MAELLA","cp":"50710","fuels":{"Gazole":{"p":1.45,"d":"2026-07-14"}},"brand":"Magalia Energia, S.L.","h24":true},{"id":100008195,"lat":41.12525,"lng":0.135444,"addr":"AVENIDA CASPE, 1","city":"MAELLA","cp":"50710","fuels":{"Gazole":{"p":1.478,"d":"2026-07-14"},"SP95":{"p":1.42,"d":"2026-07-14"},"SP98":{"p":1.627,"d":"2026-07-14"}},"brand":"E.S.Maella"},{"id":100009754,"lat":41.830417,"lng":-1.463611,"addr":"CALLE JOAQUIN COSTA, 8","city":"MAGALLON","cp":"50520","fuels":{"Gazole":{"p":1.509,"d":"2026-07-14"}},"brand":"Santo Cristo De Magallon S.C.C.","h24":true},{"id":100010114,"lat":41.903278,"lng":-1.419667,"addr":"CALLE JUAN CARLOS I REY DE ESPAÑA, 20","city":"MALLEN","cp":"50550","fuels":{"Gazole":{"p":1.498,"d":"2026-07-14"},"SP95":{"p":1.508,"d":"2026-07-14"}},"brand":"Cooperativa Comarcal Stmo Cristo De La Columna","h24":true},{"id":100001516,"lat":41.539889,"lng":-0.996556,"addr":"CR N-330, 480,3","city":"MARIA DE HUERVA","cp":"50430","fuels":{"Gazole":{"p":1.635,"d":"2026-07-14"},"SP95":{"p":1.659,"d":"2026-07-14"},"SP98":{"p":1.829,"d":"2026-07-14"}},"brand":"Repsol"},{"id":100001531,"lat":41.637972,"lng":-0.419389,"addr":"CARRETERA A-1104 KM. 26,1","city":"MONEGRILLO","cp":"50164","fuels":{"Gazole":{"p":1.589,"d":"2026-07-14"},"SP95":{"p":1.605,"d":"2026-07-14"}},"brand":"Repsol"},{"id":100014989,"lat":41.30725,"lng":-2.122833,"addr":"AUTOVIA DEL NORDESTE KM. 186","city":"MONREAL DE ARIZA","cp":"50291","fuels":{"Gazole":{"p":1.609,"d":"2026-07-14"},"SP95":{"p":1.589,"d":"2026-07-14"}},"brand":"BP","h24":true},{"id":100013784,"lat":41.471111,"lng":-1.099722,"addr":"CARRETERA A-1101 KM. 13,000","city":"MUEL","cp":"50540","fuels":{"Gazole":{"p":1.615,"d":"2026-07-14"},"SP95":{"p":1.669,"d":"2026-07-14"},"SP98":{"p":1.789,"d":"2026-07-14"}},"brand":"Repsol","h24":true},{"id":100001503,"lat":41.605778,"lng":-1.077278,"addr":"POLIGONO POLIGONO INDUSTRIAL 5, PARCELA 20 (A-2 PK 306), 20","city":"MUELA (LA)","cp":"50196","fuels":{"Gazole":{"p":1.634,"d":"2026-07-14"},"SP95":{"p":1.656,"d":"2026-07-14"}},"brand":"Moeve","h24":true},{"id":100001266,"lat":41.579444,"lng":-1.113083,"addr":"PASEO REINA SOFIA, 13","city":"MUELA (LA)","cp":"50196","fuels":{"Gazole":{"p":1.499,"d":"2026-07-14"},"SP95":{"p":1.478,"d":"2026-07-14"},"SP98":{"p":1.599,"d":"2026-07-14"}},"brand":"E.S.La Muela"},{"id":100001250,"lat":41.58575,"lng":-1.099611,"addr":"A II, KM km 299,3","city":"MUELA (LA)","cp":"50196","fuels":{"Gazole":{"p":1.639,"d":"2026-07-14"},"SP95":{"p":1.654,"d":"2026-07-14"},"SP98":{"p":1.794,"d":"2026-07-14"},"GPLc":{"p":1.029,"d":"2026-07-14"}},"brand":"Shell","h24":true},{"id":100011028,"lat":41.581722,"lng":-1.113917,"addr":"AVENIDA JUSTICIA DE ARAGON, 33","city":"MUELA (LA)","cp":"50196","fuels":{"Gazole":{"p":1.478,"d":"2026-07-14"}},"brand":"Cosanclemente","h24":true},{"id":100011780,"lat":41.616861,"lng":-1.067556,"addr":"CALLE SANTO DOMINGO, 14","city":"MUELA (LA)","cp":"50196","fuels":{"Gazole":{"p":1.59,"d":"2026-07-14"},"SP95":{"p":1.61,"d":"2026-07-14"}},"brand":"Bola"},{"id":100013060,"lat":41.247056,"lng":-1.705,"addr":"CARRETERA A202 KM. 14,100","city":"MUNEBREGA","cp":"50219","fuels":{"Gazole":{"p":1.61,"d":"2026-07-14"},"SP95":{"p":1.64,"d":"2026-07-14"}},"brand":"El Plano"},{"id":100011820,"lat":41.208861,"lng":0.250611,"addr":"AVENIDA ORBE CANO, 1","city":"NONASPE","cp":"50794","fuels":{"Gazole":{"p":1.56,"d":"2026-07-14"}},"brand":"Carburantes Nonaspe, Sl","h24":true},{"id":100011885,"lat":41.948917,"lng":-1.698444,"addr":"POLIGONO EL NAVALLO PARCELA B2, S/N","city":"NOVALLAS","cp":"50510","fuels":{"Gazole":{"p":1.5,"d":"2026-07-14"},"SP95":{"p":1.49,"d":"2026-07-14"}},"brand":"Coop. Ntra.Sra. Pilar","h24":true},{"id":100010158,"lat":41.773528,"lng":-1.216306,"addr":"CARRETERA N-232 KM. 271,200","city":"PEDROLA","cp":"50690","fuels":{"Gazole":{"p":1.612,"d":"2026-07-14"},"SP95":{"p":1.634,"d":"2026-07-14"}},"brand":"Moeve","h24":true},{"id":100010157,"lat":41.772806,"lng":-1.216889,"addr":"CARRETERA N-232 KM. 271,200","city":"PEDROLA","cp":"50690","fuels":{"Gazole":{"p":1.612,"d":"2026-07-14"},"SP95":{"p":1.634,"d":"2026-07-14"}},"brand":"Moeve","h24":true},{"id":100001975,"lat":41.802611,"lng":-1.256278,"addr":"CARRETERA NACIONAL 232 KM. 276","city":"PEDROLA","cp":"50690","fuels":{"Gazole":{"p":1.605,"d":"2026-07-14"},"SP95":{"p":1.605,"d":"2026-07-14"},"SP98":{"p":1.775,"d":"2026-07-14"}},"brand":"Repsol"},{"id":100010987,"lat":41.802472,"lng":-1.256222,"addr":"CARRETERA N-232 KM. 276","city":"PEDROLA","cp":"50690","fuels":{"Gazole":{"p":1.469,"d":"2026-07-14"},"SP95":{"p":1.499,"d":"2026-07-14"}},"brand":"Beroil"},{"id":100001484,"lat":41.74825,"lng":-0.639972,"addr":"CARRETERA A-129 KM. 18,500","city":"PERDIGUERA","cp":"50161","fuels":{"Gazole":{"p":1.575,"d":"2026-07-14"},"SP95":{"p":1.605,"d":"2026-07-14"},"SP98":{"p":1.789,"d":"2026-07-14"}},"brand":"Sin Rotulo"},{"id":100001992,"lat":41.52425,"lng":-0.395306,"addr":"AUTOPISTA AP-2(MRG.DCHO.) KM. 47,7","city":"PINA DE EBRO","cp":"50750","fuels":{"Gazole":{"p":1.613,"d":"2026-07-14"},"SP95":{"p":1.646,"d":"2026-07-14"},"SP98":{"p":1.826,"d":"2026-07-14"}},"brand":"Cepsa","h24":true},{"id":100001991,"lat":41.525889,"lng":-0.397806,"addr":"AUTOPISTA AP-2(MRG.IZDO.) KM. 47,7","city":"PINA DE EBRO","cp":"50750","fuels":{"Gazole":{"p":1.613,"d":"2026-07-14"},"SP95":{"p":1.666,"d":"2026-07-14"},"SP98":{"p":1.826,"d":"2026-07-14"}},"brand":"Cepsa","h24":true},{"id":100001528,"lat":41.492778,"lng":-0.520222,"addr":"CALLE FERNANDO EL CATOLICO, 56","city":"PINA DE EBRO","cp":"50750","fuels":{"Gazole":{"p":1.605,"d":"2026-07-14"},"SP95":{"p":1.629,"d":"2026-07-14"}},"brand":"Repsol"},{"id":100009061,"lat":41.495222,"lng":-0.512944,"addr":"CARRETERA A1107 KM. 2,51","city":"PINA DE EBRO","cp":"50750","fuels":{"Gazole":{"p":1.448,"d":"2026-07-14"},"SP95":{"p":1.425,"d":"2026-07-14"}},"brand":"Pina De Ebro - An Energeticos","h24":true},{"id":100009232,"lat":41.736028,"lng":-1.072611,"addr":"POLIGONO LOS LEONES, PARCELAS 185-191","city":"PINSEQUE","cp":"50298","fuels":{"Gazole":{"p":1.425,"d":"2026-07-14"}},"brand":"Gasoleos Mercadaiz"},{"id":100001982,"lat":41.738306,"lng":-1.076389,"addr":"AUTOPISTA A-68 KM. 258,2","city":"PINSEQUE","cp":"50298","fuels":{"Gazole":{"p":1.599,"d":"2026-07-14"},"SP95":{"p":1.619,"d":"2026-07-14"},"SP98":{"p":1.789,"d":"2026-07-14"}},"brand":"Repsol"},{"id":100012855,"lat":41.742472,"lng":-1.095944,"addr":"AVENIDA ZARAGOZA, 58","city":"PINSEQUE","cp":"50298","fuels":{"Gazole":{"p":1.479,"d":"2026-07-14"},"SP95":{"p":1.449,"d":"2026-07-14"}},"brand":"Laboil, S.L.","h24":true},{"id":100001409,"lat":41.640722,"lng":-0.754611,"addr":"CR A-2, 333,8","city":"PUEBLA DE ALFINDEN (LA)","cp":"50171","fuels":{"Gazole":{"p":1.605,"d":"2026-07-14"},"SP95":{"p":1.629,"d":"2026-07-14"},"GPLc":{"p":1.035,"d":"2026-07-14"}},"brand":"Repsol","h24":true},{"id":100010682,"lat":41.633611,"lng":-0.756556,"addr":"CARRETERA NACIONAL II  P.K. 335","city":"PUEBLA DE ALFINDEN (LA)","cp":"50171","fuels":{"Gazole":{"p":1.599,"d":"2026-07-14"},"SP95":{"p":1.649,"d":"2026-07-14"},"SP98":{"p":1.819,"d":"2026-07-14"}},"brand":"Repsol"},{"id":100001410,"lat":41.640639,"lng":-0.754694,"addr":"CARRETERA A-2 KM. 333,8","city":"PUEBLA DE ALFINDEN (LA)","cp":"50171","fuels":{"Gazole":{"p":1.605,"d":"2026-07-14"},"SP95":{"p":1.629,"d":"2026-07-14"},"SP98":{"p":1.749,"d":"2026-07-14"},"GPLc":{"p":1.055,"d":"2026-07-14"}},"brand":"Repsol","h24":true},{"id":100001433,"lat":41.432722,"lng":-0.504083,"addr":"CARRETERA N-232A KM. 194","city":"QUINTO","cp":"50770","fuels":{"Gazole":{"p":1.599,"d":"2026-07-14"},"SP95":{"p":1.649,"d":"2026-07-14"}},"brand":"Repsol"},{"id":100009036,"lat":41.435583,"lng":-0.507806,"addr":"CARRETERA CASTELLON KM. 197","city":"QUINTO","cp":"50770","fuels":{"Gazole":{"p":1.449,"d":"2026-07-14"},"SP95":{"p":1.429,"d":"2026-07-14"}},"brand":"Sociedad Cooperativa Agraria Santa Ana","h24":true},{"id":100001517,"lat":41.836167,"lng":-1.177194,"addr":"CARRETERA ALAGON TUDELA KM. 9,700","city":"REMOLINOS","cp":"50637","fuels":{"Gazole":{"p":1.605,"d":"2026-07-14"},"SP95":{"p":1.605,"d":"2026-07-14"},"SP98":{"p":1.775,"d":"2026-07-14"}},"brand":"Repsol"},{"id":100009791,"lat":41.518472,"lng":-1.397111,"addr":"CARRETERA A-121 KM. 37","city":"RICLA","cp":"50270","fuels":{"Gazole":{"p":1.645,"d":"2026-07-14"},"SP95":{"p":1.615,"d":"2026-07-14"},"SP98":{"p":1.785,"d":"2026-07-14"}},"brand":"Repsol"},{"id":100012071,"lat":41.447222,"lng":-1.56025,"addr":"CARRETERA A-1503 KM. 7,500","city":"SABIÑAN","cp":"50299","fuels":{"Gazole":{"p":1.609,"d":"2026-07-14"},"SP95":{"p":1.609,"d":"2026-07-14"}},"brand":"No"},{"id":100009095,"lat":42.278611,"lng":-1.292778,"addr":"CARRETERA DE PINSORO KM. 1","city":"SADABA","cp":"50670","fuels":{"Gazole":{"p":1.5,"d":"2026-07-14"},"SP95":{"p":1.45,"d":"2026-07-14"}},"brand":"Cooperativa San Jose","h24":true},{"id":100001425,"lat":42.283333,"lng":-1.272111,"addr":"CALLE AVDA. URRUTI CANDIDO, 2","city":"SADABA","cp":"50670","fuels":{"Gazole":{"p":1.58,"d":"2026-07-14"},"SP95":{"p":1.6,"d":"2026-07-14"}},"brand":"Coop San Jose - Sádaba","h24":true},{"id":100010285,"lat":41.822944,"lng":-0.773944,"addr":"CARRETERA SANTA ISABEL - SAN MATEO KM. 19,1","city":"SAN MATEO DE GALLEGO","cp":"50840","fuels":{"Gazole":{"p":1.51,"d":"2026-07-14"},"SP95":{"p":1.449,"d":"2026-07-14"}},"brand":"Coop. Virgen Del Rosario","h24":true},{"id":100008982,"lat":42.050222,"lng":-0.909278,"addr":"CARRETERA ZUERA-LUNA KM. 24,100","city":"SIERRA DE LUNA","cp":"50612","fuels":{"Gazole":{"p":1.436,"d":"2026-07-14"},"SP95":{"p":1.441,"d":"2026-07-14"}},"brand":"Coop Sierra De Luna","h24":true},{"id":100001415,"lat":41.730583,"lng":-1.031417,"addr":"AU A-68, 283","city":"SOBRADIEL","cp":"50629","fuels":{"Gazole":{"p":1.609,"d":"2026-07-14"},"SP95":{"p":1.625,"d":"2026-07-14"},"SP98":{"p":1.745,"d":"2026-07-14"}},"brand":"Petronor","h24":true},{"id":100001416,"lat":41.731639,"lng":-1.029833,"addr":"AU A-68, 283","city":"SOBRADIEL","cp":"50629","fuels":{"Gazole":{"p":1.599,"d":"2026-07-14"},"SP95":{"p":1.625,"d":"2026-07-14"},"SP98":{"p":1.745,"d":"2026-07-14"}},"brand":"Repsol","h24":true},{"id":100001518,"lat":42.490944,"lng":-1.215111,"addr":"CARRETERA A-127 KM. 89,00","city":"SOS DEL REY CATOLICO","cp":"50680","fuels":{"Gazole":{"p":1.489,"d":"2026-07-14"},"SP95":{"p":1.479,"d":"2026-07-14"}},"brand":"An Energeticos S,l - Sos Del Rey Catolico","h24":true},{"id":100001472,"lat":41.893972,"lng":-1.721278,"addr":"AVENIDA TERESA CAJAL, 22","city":"TARAZONA","cp":"50500","fuels":{"Gazole":{"p":1.669,"d":"2026-07-14"},"SP95":{"p":1.689,"d":"2026-07-14"},"SP98":{"p":1.819,"d":"2026-07-14"}},"brand":"Moeve"},{"id":100009011,"lat":41.906694,"lng":-1.714694,"addr":"PG. CUNCHILLOS, S/N","city":"TARAZONA","cp":"50500","fuels":{"Gazole":{"p":1.494,"d":"2026-07-14"},"SP95":{"p":1.447,"d":"2026-07-14"}},"brand":"Cooperativa San Atilano","h24":true},{"id":100011557,"lat":41.8905,"lng":-1.709556,"addr":"CALLE CASTILLA, SN","city":"TARAZONA","cp":"50500","fuels":{"SP95":{"p":1.439,"d":"2026-07-14"}},"brand":"El Mayoria Combustibles","h24":true},{"id":100009351,"lat":41.914,"lng":-1.259917,"addr":"CAMINO ABARQUILLO, S/N","city":"TAUSTE","cp":"50660","fuels":{"SP95":{"p":1.422,"d":"2026-07-14"}},"brand":"Cooperativa San Miguel","h24":true},{"id":100012162,"lat":41.893639,"lng":-1.245778,"addr":"AUTOPISTA A-126 KM. 37,850","city":"TAUSTE","cp":"50660","fuels":{"Gazole":{"p":1.479,"d":"2026-07-14"},"SP95":{"p":1.439,"d":"2026-07-14"},"SP98":{"p":1.749,"d":"2026-07-14"}},"brand":"Laboil, S.L.","h24":true},{"id":100001446,"lat":41.925278,"lng":-1.254972,"addr":"AVENIDA CONSTITUCION, SN","city":"TAUSTE","cp":"50660","fuels":{"Gazole":{"p":1.605,"d":"2026-07-14"},"SP95":{"p":1.605,"d":"2026-07-14"},"SP98":{"p":1.775,"d":"2026-07-14"}},"brand":"Repsol","h24":true},{"id":100009807,"lat":41.912194,"lng":-1.255333,"addr":"VÍA PERIMETRAL, S/N","city":"TAUSTE","cp":"50660","fuels":{"Gazole":{"p":1.387,"d":"2026-07-14"},"SP95":{"p":1.35,"d":"2026-07-14"}},"brand":"BonÀrea","h24":true},{"id":100015322,"lat":41.956806,"lng":-1.238889,"addr":"CARRETERA GALLUR-SANGUESA KM. 11","city":"TAUSTE","cp":"50660","fuels":{"Gazole":{"p":1.415,"d":"2026-07-14"}},"brand":"Saso De Mira S.L."},{"id":100009037,"lat":41.943028,"lng":-1.326083,"addr":"CALLE EXTRAMUROS, S/N","city":"SANTA ENGRACIA","cp":"50669","fuels":{"Gazole":{"p":1.57,"d":"2026-07-14"}},"brand":"Cepsa","h24":true},{"id":100001529,"lat":41.665806,"lng":-1.239167,"addr":"AV ZARAGOZA, S/Nº (A-122 km 13,8)","city":"URREA DE JALON","cp":"50296","fuels":{"Gazole":{"p":1.599,"d":"2026-07-14"},"SP95":{"p":1.599,"d":"2026-07-14"}},"brand":"Repsol"},{"id":100001474,"lat":41.695694,"lng":-0.989639,"addr":"AUTOVIA CARRETERA NACIONAL  232 KM. 249,5","city":"UTEBO","cp":"50180","fuels":{"Gazole":{"p":1.609,"d":"2026-07-14"},"SP95":{"p":1.629,"d":"2026-07-14"},"SP98":{"p":1.799,"d":"2026-07-14"}},"brand":"Repsol"},{"id":100001500,"lat":41.703694,"lng":-1.004139,"addr":"CARRETERA N-232A KM. 250,9","city":"UTEBO","cp":"50180","fuels":{"Gazole":{"p":1.59,"d":"2026-07-14"},"SP95":{"p":1.655,"d":"2026-07-14"}},"brand":"Cepsa"},{"id":100011348,"lat":41.701889,"lng":-1.001306,"addr":"CARRETERA ZARAGOZA-LOGROÑO KM. 12,300","city":"UTEBO","cp":"50180","fuels":{"Gazole":{"p":1.425,"d":"2026-07-14"},"SP95":{"p":1.386,"d":"2026-07-14"},"SP98":{"p":1.505,"d":"2026-07-14"}},"brand":"Alcampo","h24":true},{"id":100001522,"lat":41.678639,"lng":-0.961806,"addr":"AUTOPISTA AUTOPISTA A-68 KM. 246","city":"UTEBO","cp":"50180","fuels":{"Gazole":{"p":1.609,"d":"2026-07-14"},"SP95":{"p":1.629,"d":"2026-07-14"},"SP98":{"p":1.799,"d":"2026-07-14"}},"brand":"Repsol"},{"id":100001521,"lat":41.677167,"lng":-0.957889,"addr":"AUTOPISTA A-68 KM. 246","city":"UTEBO","cp":"50180","fuels":{"Gazole":{"p":1.609,"d":"2026-07-14"},"SP95":{"p":1.629,"d":"2026-07-14"},"SP98":{"p":1.799,"d":"2026-07-14"}},"brand":"Repsol"},{"id":100012983,"lat":41.710833,"lng":-1.019611,"addr":"CALLE DINAMARCA, S/N","city":"UTEBO","cp":"50180","fuels":{"Gazole":{"p":1.385,"d":"2026-07-14"},"SP95":{"p":1.349,"d":"2026-07-14"}},"brand":"BonÀrea","h24":true},{"id":100012004,"lat":41.17075,"lng":-1.292528,"addr":"AUTOVIA A 23 SOMPRT-SAGUNTO KM. 215","city":"VILLADOZ","cp":"50490","fuels":{"Gazole":{"p":1.589,"d":"2026-07-14"},"SP95":{"p":1.589,"d":"2026-07-14"},"SP98":{"p":1.729,"d":"2026-07-14"}},"brand":"BP","h24":true},{"id":100008984,"lat":41.692917,"lng":-0.775972,"addr":"CAMINO MOLINO, DEL, 105","city":"VILLAMAYOR DE GALLEGO","cp":"50162","fuels":{"Gazole":{"p":1.563,"d":"2026-07-14"},"SP95":{"p":1.587,"d":"2026-07-14"}},"brand":"El Pueyo","h24":true},{"id":100014924,"lat":41.777417,"lng":-0.828444,"addr":"CALLE CARRETERA ZARAGOZA, PG 29, PARCELA 183, S/N","city":"VILLANUEVA DE GALLEGO","cp":"50830","fuels":{"Gazole":{"p":1.385,"d":"2026-07-14"},"SP95":{"p":1.349,"d":"2026-07-14"}},"brand":"BonÀrea","h24":true},{"id":100001449,"lat":41.761472,"lng":-0.831278,"addr":"CARRETERA CARRETERA N-330 KM. 513","city":"VILLANUEVA DE GALLEGO","cp":"50830","fuels":{"Gazole":{"p":1.625,"d":"2026-07-14"},"SP95":{"p":1.649,"d":"2026-07-14"},"SP98":{"p":1.769,"d":"2026-07-14"}},"brand":"Repsol"},{"id":100012408,"lat":41.754444,"lng":-0.8375,"addr":"POLIGONO SAN MIGUEL, 512","city":"VILLANUEVA DE GALLEGO","cp":"50820","fuels":{"Gazole":{"p":1.421,"d":"2026-07-14"},"SP95":{"p":1.421,"d":"2026-07-14"}},"brand":"Us San Miguel","h24":true},{"id":100014652,"lat":41.778472,"lng":-0.8305,"addr":"CARRETERA A23 PG IND 28 PARCELA 49 KM. 304","city":"COMERCIO (EL)","cp":"50830","fuels":{"Gazole":{"p":1.649,"d":"2026-07-14"},"SP95":{"p":1.639,"d":"2026-07-14"},"SP98":{"p":1.749,"d":"2026-07-14"}},"brand":"Moeve"},{"id":100001466,"lat":41.350472,"lng":-1.038972,"addr":"CARRETERA A1101 KM. 16,5","city":"VILLANUEVA DE HUERVA","cp":"50153","fuels":{"Gazole":{"p":1.629,"d":"2026-07-14"},"SP95":{"p":1.629,"d":"2026-07-14"}},"brand":"Cepsa"},{"id":100001394,"lat":41.466056,"lng":-1.787278,"addr":"CALLE GASCA, 108","city":"VILLARROYA DE LA SIERRA","cp":"50310","fuels":{"Gazole":{"p":1.585,"d":"2026-07-14"},"SP95":{"p":1.605,"d":"2026-07-14"},"SP98":{"p":1.775,"d":"2026-07-14"}},"brand":"Petronor"},{"id":100014327,"lat":41.665417,"lng":-0.866639,"addr":"CALLE MARQUES DE LA CADENA, 68","city":"ZARAGOZA","cp":"50001","fuels":{"Gazole":{"p":1.489,"d":"2026-07-14"},"SP95":{"p":1.479,"d":"2026-07-14"}},"brand":"Autonetoil","h24":true},{"id":100001494,"lat":41.65375,"lng":-0.869194,"addr":"PASEO ECHEGARAY Y CABALLERO, 99","city":"ZARAGOZA","cp":"50001","fuels":{"Gazole":{"p":1.319,"d":"2026-07-14"},"SP95":{"p":1.332,"d":"2026-07-14"}},"brand":"Ballenoil","h24":true},{"id":100001986,"lat":41.647444,"lng":-0.877444,"addr":"PASEO DE LA MINA, 12","city":"ZARAGOZA","cp":"50001","fuels":{"Gazole":{"p":1.619,"d":"2026-07-14"},"SP95":{"p":1.645,"d":"2026-07-14"},"SP98":{"p":1.765,"d":"2026-07-14"}},"brand":"Repsol"},{"id":100001381,"lat":41.644972,"lng":-0.857667,"addr":"AVENIDA 3ER CINTURON, S/N","city":"ZARAGOZA","cp":"50002","fuels":{"Gazole":{"p":1.625,"d":"2026-07-14"},"SP95":{"p":1.649,"d":"2026-07-14"},"SP98":{"p":1.819,"d":"2026-07-14"}},"brand":"Repsol"},{"id":100001493,"lat":41.648556,"lng":-0.868222,"addr":"AVENIDA CAMINO DE LOS TORRES, 2","city":"ZARAGOZA","cp":"50008","fuels":{"Gazole":{"p":1.578,"d":"2026-07-14"},"SP95":{"p":1.588,"d":"2026-07-14"}},"brand":"Moeve"},{"id":100001979,"lat":41.647083,"lng":-0.895194,"addr":"AVENIDA VALENCIA, 20","city":"ZARAGOZA","cp":"50005","fuels":{"Gazole":{"p":1.628,"d":"2026-07-14"},"SP95":{"p":1.628,"d":"2026-07-14"},"SP98":{"p":1.768,"d":"2026-07-14"}},"brand":"Repsol"},{"id":100001523,"lat":41.640833,"lng":-0.893778,"addr":"PLAZA SAN FRANCISCO, 5","city":"ZARAGOZA","cp":"50006","fuels":{"Gazole":{"p":1.625,"d":"2026-07-14"},"SP95":{"p":1.645,"d":"2026-07-14"}},"brand":"Repsol"},{"id":100001379,"lat":41.625472,"lng":-0.888389,"addr":"AVENIDA FRAY JULIAN GARCES, 112","city":"ZARAGOZA","cp":"50007","fuels":{"Gazole":{"p":1.629,"d":"2026-07-14"},"SP95":{"p":1.649,"d":"2026-07-14"},"SP98":{"p":1.819,"d":"2026-07-14"}},"brand":"Petronor"},{"id":100013290,"lat":41.632583,"lng":-0.983889,"addr":"AUTOVIA A-2 KM. 311","city":"ZARAGOZA","cp":"50010","fuels":{"Gazole":{"p":1.386,"d":"2026-07-14"},"SP95":{"p":1.349,"d":"2026-07-14"}},"brand":"BonÀrea","h24":true},{"id":100001430,"lat":41.633389,"lng":-0.908694,"addr":"CL AVENIDA HISPANIDAD, 15","city":"ZARAGOZA","cp":"50009","fuels":{"Gazole":{"p":1.619,"d":"2026-07-14"},"SP95":{"p":1.649,"d":"2026-07-14"},"SP98":{"p":1.769,"d":"2026-07-14"}},"brand":"Repsol","h24":true},{"id":100001429,"lat":41.634222,"lng":-0.9085,"addr":"CL AVENIDA HISPANIDAD, 16","city":"ZARAGOZA","cp":"50009","fuels":{"Gazole":{"p":1.619,"d":"2026-07-14"},"SP95":{"p":1.649,"d":"2026-07-14"},"SP98":{"p":1.769,"d":"2026-07-14"},"GPLc":{"p":1.059,"d":"2026-07-14"}},"brand":"Repsol"},{"id":100008183,"lat":41.64675,"lng":-0.905583,"addr":"CALLE DUQUESA DE VILLAHERMOSA, S/N","city":"ZARAGOZA","cp":"50009","fuels":{"Gazole":{"p":1.559,"d":"2026-07-14"}},"brand":"Q8"},{"id":100011816,"lat":41.659278,"lng":-0.918972,"addr":"AVENIDA NAVARRA, 180","city":"ZARAGOZA","cp":"50011","fuels":{"Gazole":{"p":1.549,"d":"2026-07-14"},"SP95":{"p":1.589,"d":"2026-07-14"},"SP98":{"p":1.729,"d":"2026-07-14"}},"brand":"Carrefour","h24":true},{"id":100001480,"lat":41.663389,"lng":-0.930833,"addr":"CARRETERA CTRA.LOGROÑO 42 KM. 243,420","city":"ZARAGOZA","cp":"50011","fuels":{"Gazole":{"p":1.628,"d":"2026-07-14"},"SP95":{"p":1.648,"d":"2026-07-14"},"SP98":{"p":1.798,"d":"2026-07-14"}},"brand":"Es Miralbueno Cepsa","h24":true},{"id":100001980,"lat":41.660139,"lng":-0.925194,"addr":"AUTOVIA LOGROÑO KM. 0,3","city":"ZARAGOZA","cp":"50011","fuels":{"Gazole":{"p":1.649,"d":"2026-07-14"},"SP95":{"p":1.659,"d":"2026-07-14"},"SP98":{"p":1.759,"d":"2026-07-14"},"GPLc":{"p":1.159,"d":"2026-07-14"}},"brand":"Repsol","h24":true},{"id":100013482,"lat":41.661222,"lng":-0.953611,"addr":"CALLE CARRETERA DEL AEROPUERTO, 236","city":"ZARAGOZA","cp":"50011","fuels":{"Gazole":{"p":1.509,"d":"2026-07-14"},"SP95":{"p":1.499,"d":"2026-07-14"}},"brand":"Nafte","h24":true},{"id":100001460,"lat":41.649944,"lng":-0.919139,"addr":"AVENIDA HISPANIDAD, 87,89","city":"ZARAGOZA","cp":"50011","fuels":{"Gazole":{"p":1.59,"d":"2026-07-14"},"SP95":{"p":1.602,"d":"2026-07-14"},"GPLc":{"p":1.177,"d":"2026-07-14"}},"brand":"Moeve","h24":true},{"id":100014697,"lat":41.660778,"lng":-0.927083,"addr":"AUTOVIA LOGROÑO KM. 243","city":"ZARAGOZA","cp":"50011","fuels":{"Gazole":{"p":1.649,"d":"2026-07-14"},"SP95":{"p":1.659,"d":"2026-07-14"},"SP98":{"p":1.769,"d":"2026-07-14"}},"brand":"Repsol"},{"id":100001248,"lat":41.5755,"lng":-0.960417,"addr":"CARRETERA N-330 KM. 485,410","city":"ZARAGOZA","cp":"50012","fuels":{"Gazole":{"p":1.499,"d":"2026-07-14"},"SP95":{"p":1.529,"d":"2026-07-14"}},"brand":"Haxx"},{"id":100012944,"lat":41.634222,"lng":-0.923278,"addr":"AVENIDA GOMEZ LAGUNA, 151","city":"ZARAGOZA","cp":"50012","fuels":{"Gazole":{"p":1.449,"d":"2026-07-14"},"SP95":{"p":1.419,"d":"2026-07-14"},"GPLc":{"p":0.859,"d":"2026-07-14"}},"brand":"Gasolprime","h24":true},{"id":100013122,"lat":41.621972,"lng":-0.913139,"addr":"CALLE IBERICA, VIA, 89","city":"ZARAGOZA","cp":"50012","fuels":{"Gazole":{"p":1.479,"d":"2026-07-14"},"SP95":{"p":1.459,"d":"2026-07-14"}},"brand":"Nafte","h24":true},{"id":100012516,"lat":41.644083,"lng":-0.936028,"addr":"CARRETERA MADRID KM. 315,2","city":"ZARAGOZA","cp":"50012","fuels":{"Gazole":{"p":1.395,"d":"2026-07-14"},"SP95":{"p":1.403,"d":"2026-07-14"},"SP98":{"p":1.499,"d":"2026-07-14"}},"brand":"Alcampo","h24":true},{"id":100001984,"lat":41.647278,"lng":-0.935167,"addr":"RONDA OLIVER, S/N","city":"ZARAGOZA","cp":"50012","fuels":{"Gazole":{"p":1.638,"d":"2026-07-14"},"SP95":{"p":1.648,"d":"2026-07-14"},"SP98":{"p":1.828,"d":"2026-07-14"}},"brand":"Repsol","h24":true},{"id":100011786,"lat":41.626667,"lng":-0.922778,"addr":"AVENIDA LA ILUSTRACION, 1","city":"ZARAGOZA","cp":"50012","fuels":{"Gazole":{"p":1.629,"d":"2026-07-14"},"SP95":{"p":1.649,"d":"2026-07-14"},"SP98":{"p":1.769,"d":"2026-07-14"}},"brand":"Repsol"},{"id":100001454,"lat":41.621972,"lng":-0.913694,"addr":"CARRETERA N-330 KM. 491,9","city":"ZARAGOZA","cp":"50012","fuels":{"Gazole":{"p":1.629,"d":"2026-07-14"},"SP95":{"p":1.645,"d":"2026-07-14"},"SP98":{"p":1.815,"d":"2026-07-14"}},"brand":"Repsol"},{"id":100001445,"lat":41.625083,"lng":-1.009972,"addr":"AUTOVIA MADRID KM. 309","city":"ZARAGOZA","cp":"50012","fuels":{"Gazole":{"p":1.659,"d":"2026-07-14"},"SP95":{"p":1.659,"d":"2026-07-14"},"SP98":{"p":1.769,"d":"2026-07-14"}},"brand":"Repsol","h24":true},{"id":100001444,"lat":41.624556,"lng":-1.010028,"addr":"AUTOVIA MADRID KM. 309","city":"ZARAGOZA","cp":"50012","fuels":{"Gazole":{"p":1.659,"d":"2026-07-14"},"SP95":{"p":1.659,"d":"2026-07-14"}},"brand":"Repsol"},{"id":100013218,"lat":41.633222,"lng":-0.860917,"addr":"CALLE MIGUEL SERVET, 280","city":"ZARAGOZA","cp":"50013","fuels":{"Gazole":{"p":1.509,"d":"2026-07-14"},"SP95":{"p":1.499,"d":"2026-07-14"}},"brand":"Nafte","h24":true},{"id":100011275,"lat":41.622972,"lng":-0.939389,"addr":"AVENIDA CASABLANCA, 11","city":"ZARAGOZA","cp":"50013","fuels":{"Gazole":{"p":1.629,"d":"2026-07-14"},"SP95":{"p":1.649,"d":"2026-07-14"}},"brand":"Repsol"},{"id":100001378,"lat":41.634528,"lng":-0.861833,"addr":"AVENIDA MIGUEL SERVET, 254","city":"ZARAGOZA","cp":"50013","fuels":{"Gazole":{"p":1.615,"d":"2026-07-14"},"SP95":{"p":1.649,"d":"2026-07-14"}},"brand":"Repsol"},{"id":100012002,"lat":41.623167,"lng":-0.845917,"addr":"AUTOVIA CTRA. CASTELLON ( A 68) KM. 233,150","city":"CARTUJA BAJA","cp":"50720","fuels":{"Gazole":{"p":1.639,"d":"2026-07-14"},"SP95":{"p":1.639,"d":"2026-07-14"},"SP98":{"p":1.779,"d":"2026-07-14"},"GPLc":{"p":0.849,"d":"2026-07-14"}},"brand":"BP"},{"id":100001497,"lat":41.60075,"lng":-0.816361,"addr":"CARRETERA N-232 KM. 229,2","city":"CARTUJA BAJA","cp":"50720","fuels":{"Gazole":{"p":1.625,"d":"2026-07-14"},"SP95":{"p":1.595,"d":"2026-07-14"}},"brand":"Cepsa"},{"id":100011371,"lat":41.611111,"lng":-0.835,"addr":"CRTA.A-68 km 231,170","city":"CARTUJA BAJA","cp":"50720","fuels":{"Gazole":{"p":1.609,"d":"2026-07-14"},"SP95":{"p":1.629,"d":"2026-07-14"},"SP98":{"p":1.769,"d":"2026-07-14"}},"brand":"Shell"},{"id":100001505,"lat":41.622861,"lng":-0.846444,"addr":"CARRETERA CASTELLON KM. 3,7","city":"CARTUJA BAJA","cp":"50013","fuels":{"Gazole":{"p":1.639,"d":"2026-07-14"},"SP95":{"p":1.649,"d":"2026-07-14"},"SP98":{"p":1.779,"d":"2026-07-14"}},"brand":"Bp Avellanas","h24":true},{"id":100001491,"lat":41.678917,"lng":-0.889917,"addr":"CALLE POETA MARIA ZAMBRANO, 2","city":"ZARAGOZA","cp":"50018","fuels":{"Gazole":{"p":1.649,"d":"2026-07-14"},"SP95":{"p":1.679,"d":"2026-07-14"}},"brand":"Cepsa"},{"id":100008317,"lat":41.677889,"lng":-0.89,"addr":"CALLE MARIA ZAMBRANO, S/N","city":"ZARAGOZA","cp":"50018","fuels":{"Gazole":{"p":1.549,"d":"2026-07-14"},"SP95":{"p":1.589,"d":"2026-07-14"},"SP98":{"p":1.729,"d":"2026-07-14"}},"brand":"Carrefour","h24":true},{"id":100001501,"lat":41.698889,"lng":-0.867667,"addr":"AUTOVIA A-23 KM. 505","city":"ZARAGOZA","cp":"50015","fuels":{"Gazole":{"p":1.622,"d":"2026-07-14"},"SP95":{"p":1.613,"d":"2026-07-14"}},"brand":"Cepsa","h24":true},{"id":100001988,"lat":41.666222,"lng":-0.876944,"addr":"CALLE VALLE DE BROTO, S/N","city":"ZARAGOZA","cp":"50015","fuels":{"Gazole":{"p":1.619,"d":"2026-07-14"},"SP95":{"p":1.639,"d":"2026-07-14"},"SP98":{"p":1.779,"d":"2026-07-14"}},"brand":"Galp"},{"id":100012120,"lat":41.662111,"lng":-0.887417,"addr":"AVENIDA RANILLAS, 18","city":"ZARAGOZA","cp":"50015","fuels":{"Gazole":{"p":1.625,"d":"2026-07-14"},"SP95":{"p":1.635,"d":"2026-07-14"}},"brand":"Repsol"},{"id":100001478,"lat":41.661389,"lng":-0.885917,"addr":"AVENIDA RANILLAS, 20","city":"ZARAGOZA","cp":"50015","fuels":{"Gazole":{"p":1.625,"d":"2026-07-14"},"SP95":{"p":1.635,"d":"2026-07-14"},"SP98":{"p":1.755,"d":"2026-07-14"}},"brand":"Repsol"},{"id":100001399,"lat":41.707889,"lng":-0.863222,"addr":"CR A-23, 506,5","city":"ZARAGOZA","cp":"50015","fuels":{"Gazole":{"p":1.615,"d":"2026-07-14"},"SP95":{"p":1.645,"d":"2026-07-14"},"SP98":{"p":1.765,"d":"2026-07-14"}},"brand":"Repsol","h24":true},{"id":100013368,"lat":41.667417,"lng":-0.859833,"addr":"CALLE JUAN DE LA CIERVA, 15","city":"ZARAGOZA","cp":"50014","fuels":{"Gazole":{"p":1.495,"d":"2026-07-14"},"SP95":{"p":1.479,"d":"2026-07-14"},"SP98":{"p":1.667,"d":"2026-07-14"}},"brand":"Confort Auto"},{"id":100001267,"lat":41.667556,"lng":-0.851083,"addr":"AVENIDA CATALUÑA 254-258","city":"ZARAGOZA","cp":"50014","fuels":{"Gazole":{"p":1.518,"d":"2026-07-14"},"SP95":{"p":1.528,"d":"2026-07-14"},"SP98":{"p":1.668,"d":"2026-07-14"}},"brand":"Shell"},{"id":100001398,"lat":41.670917,"lng":-0.861139,"addr":"AVENIDA ALCALDE CABALLERO, 22","city":"ZARAGOZA","cp":"50014","fuels":{"Gazole":{"p":1.615,"d":"2026-07-14"},"SP95":{"p":1.639,"d":"2026-07-14"},"SP98":{"p":1.789,"d":"2026-07-14"}},"brand":"Repsol"},{"id":100012882,"lat":41.668694,"lng":-0.860556,"addr":"CALLE JUAN DE LA CIERVA, 21","city":"ZARAGOZA","cp":"50014","fuels":{"Gazole":{"p":1.499,"d":"2026-07-14"},"SP95":{"p":1.479,"d":"2026-07-14"}},"brand":"Nafte","h24":true},{"id":100001432,"lat":41.660278,"lng":-0.868889,"addr":"AVENIDA CATALUÑA, 44","city":"ZARAGOZA","cp":"50014","fuels":{"Gazole":{"p":1.618,"d":"2026-07-14"},"SP95":{"p":1.638,"d":"2026-07-14"},"SP98":{"p":1.788,"d":"2026-07-14"}},"brand":"Dago","h24":true},{"id":100001495,"lat":41.672528,"lng":-0.862111,"addr":"AVENIDA ALCALDE CABALLERO-JUAN DE LA CIERVA, 60","city":"ZARAGOZA","cp":"50014","fuels":{"Gazole":{"p":1.568,"d":"2026-07-14"},"SP95":{"p":1.588,"d":"2026-07-14"}},"brand":"Moeve"},{"id":100009034,"lat":41.681972,"lng":-0.852556,"addr":"CARRETERA COGULLADA KM. S/N","city":"ZARAGOZA","cp":"50014","fuels":{"Gazole":{"p":1.533,"d":"2026-07-14"},"SP95":{"p":1.453,"d":"2026-07-14"}},"brand":"Cooperativa San Lamberto","h24":true},{"id":100001487,"lat":41.682333,"lng":-0.853361,"addr":"POLIGONO INDUSTRIAL MERCAZARAGOZA-CTRA COGULLADA S/N (A-2 KM 351), 1","city":"ZARAGOZA","cp":"50014","fuels":{"Gazole":{"p":1.6,"d":"2026-07-14"},"SP95":{"p":1.601,"d":"2026-07-14"}},"brand":"Moeve","h24":true},{"id":100001362,"lat":41.738667,"lng":-0.844917,"addr":"CARRETERA N-330 KM. S/N","city":"SAN JUAN DE MOZARRIFAR","cp":"50820","fuels":{"Gazole":{"p":1.657,"d":"2026-07-14"}},"brand":"Ids","h24":true},{"id":100001259,"lat":41.750806,"lng":-0.801806,"addr":"CARRETERA A123 KM. 10,4","city":"PEÑAFLOR","cp":"50193","fuels":{"Gazole":{"p":1.62,"d":"2026-07-14"},"SP95":{"p":1.643,"d":"2026-07-14"}},"brand":"Moeve"},{"id":100001383,"lat":41.681361,"lng":-0.780861,"addr":"CARRETERA A-129 KM. 4,1","city":"VILLAMAYOR","cp":"50162","fuels":{"Gazole":{"p":1.605,"d":"2026-07-14"},"SP95":{"p":1.629,"d":"2026-07-14"},"SP98":{"p":1.799,"d":"2026-07-14"}},"brand":"Repsol"},{"id":100001496,"lat":41.658944,"lng":-0.80725,"addr":"CARRETERA N-II A KM. 329,647","city":"MOVERA","cp":"50194","fuels":{"Gazole":{"p":1.645,"d":"2026-07-14"},"SP95":{"p":1.623,"d":"2026-07-14"}},"brand":"Moeve"},{"id":100001477,"lat":41.670278,"lng":-0.839722,"addr":"AVENIDA SANTA ISABEL, 7","city":"ZARAGOZA","cp":"50016","fuels":{"Gazole":{"p":1.623,"d":"2026-07-14"},"SP95":{"p":1.634,"d":"2026-07-14"},"SP98":{"p":1.826,"d":"2026-07-14"}},"brand":"Moeve"},{"id":100001492,"lat":41.656861,"lng":-0.782333,"addr":"POLIGONO INDUSTRIAL MALPICA CALLE A, 3","city":"ZARAGOZA","cp":"50016","fuels":{"Gazole":{"p":1.695,"d":"2026-07-14"},"SP95":{"p":1.675,"d":"2026-07-14"}},"brand":"Cepsa"},{"id":100001417,"lat":41.667167,"lng":-0.813833,"addr":"AUTOVIA A-2 KM. 328","city":"ZARAGOZA","cp":"50016","fuels":{"Gazole":{"p":1.677,"d":"2026-07-14"},"SP95":{"p":1.559,"d":"2026-07-14"}},"brand":"Oilprix","h24":true},{"id":100009844,"lat":41.651722,"lng":-0.795111,"addr":"CARRETERA BARCELONA,NACIONAL II A KM. 331","city":"ZARAGOZA","cp":"50016","fuels":{"Gazole":{"p":1.609,"d":"2026-07-14"},"SP95":{"p":1.639,"d":"2026-07-14"},"SP98":{"p":1.819,"d":"2026-07-14"}},"brand":"Repsol"},{"id":100009847,"lat":41.6725,"lng":-0.832944,"addr":"AVENIDA INDUSTRIS, S/N","city":"ZARAGOZA","cp":"50016","fuels":{"Gazole":{"p":1.609,"d":"2026-07-14"},"SP95":{"p":1.639,"d":"2026-07-14"},"SP98":{"p":1.819,"d":"2026-07-14"}},"brand":"Repsol"},{"id":100012396,"lat":41.609722,"lng":-0.881944,"addr":"CALLE ISLA DE MURANO, S/N","city":"ZARAGOZA","cp":"50020","fuels":{"Gazole":{"p":1.625,"d":"2026-07-14"},"SP95":{"p":1.655,"d":"2026-07-14"},"SP98":{"p":1.775,"d":"2026-07-14"},"GPLc":{"p":1.035,"d":"2026-07-14"}},"brand":"Repsol"},{"id":100001458,"lat":41.618389,"lng":-1.042444,"addr":"AUTOVIA A-2 KM. 306,0","city":"GARRAPINILLOS","cp":"50190","fuels":{"Gazole":{"p":1.634,"d":"2026-07-14"},"SP95":{"p":1.659,"d":"2026-07-14"}},"brand":"Galp"},{"id":100001987,"lat":41.6155,"lng":-1.058833,"addr":"AUTOVIA ALMENARETA-2 KM. 0","city":"GARRAPINILLOS","cp":"50190","fuels":{"Gazole":{"p":1.634,"d":"2026-07-14"},"SP95":{"p":1.659,"d":"2026-07-14"}},"brand":"Galp","h24":true},{"id":100011519,"lat":41.651444,"lng":-0.981111,"addr":"RONDA CANAL IMPERIAL DE ARAGON, 8","city":"GARRAPINILLOS","cp":"50190","fuels":{"Gazole":{"p":1.339,"d":"2026-07-14"},"SP95":{"p":1.329,"d":"2026-07-14"},"SP98":{"p":1.429,"d":"2026-07-14"}},"brand":"Family Energy"},{"id":100001483,"lat":41.663639,"lng":-0.983306,"addr":"CARRETERA N-125 KM. 5,6","city":"GARRAPINILLOS","cp":"50190","fuels":{"Gazole":{"p":1.623,"d":"2026-07-14"},"SP95":{"p":1.623,"d":"2026-07-14"},"SP98":{"p":1.815,"d":"2026-07-14"}},"brand":"Moeve"},{"id":100001475,"lat":41.695306,"lng":-0.990167,"addr":"N-232 km 249,4","city":"GARRAPINILLOS","cp":"50190","fuels":{"Gazole":{"p":1.609,"d":"2026-07-14"},"SP95":{"p":1.629,"d":"2026-07-14"}},"brand":"Repsol"},{"id":100008275,"lat":41.740389,"lng":-1.078944,"addr":"AUTOVIA A-68 KM. 258,25","city":"VILLARRAPA","cp":"50692","fuels":{"Gazole":{"p":1.599,"d":"2026-07-14"},"SP95":{"p":1.619,"d":"2026-07-14"},"SP98":{"p":1.789,"d":"2026-07-14"}},"brand":"Repsol"},{"id":100016494,"lat":41.610694,"lng":-0.886083,"addr":"PASEO GRAN CANAL, 11","city":"ZARAGOZA","cp":"50021","fuels":{"Gazole":{"p":1.419,"d":"2026-07-14"},"SP95":{"p":1.419,"d":"2026-07-14"}},"brand":"Gasexpress Puerto Venecia","h24":true},{"id":100011276,"lat":41.636028,"lng":-0.991167,"addr":"AVENIDA DIAGONAL PLAZA, 13, 13","city":"ZARAGOZA","cp":"50197","fuels":{"Gazole":{"p":1.615,"d":"2026-07-14"},"SP95":{"p":1.655,"d":"2026-07-14"},"SP98":{"p":1.815,"d":"2026-07-14"}},"brand":"Repsol","h24":true},{"id":100012289,"lat":41.636528,"lng":-0.990111,"addr":"AVENIDA DIAGONAL PLAZA, 22","city":"ZARAGOZA","cp":"50197","fuels":{"Gazole":{"p":1.615,"d":"2026-07-14"},"SP95":{"p":1.645,"d":"2026-07-14"}},"brand":"Repsol/ Casa Cosme"},{"id":100012472,"lat":41.637944,"lng":-0.986389,"addr":"RONDA FERIA DE MUESTRAS, DE LA, 20","city":"ZARAGOZA","cp":"50197","fuels":{"Gazole":{"p":1.656,"d":"2026-07-14"}},"brand":"Ids","h24":true},{"id":100016258,"lat":41.638639,"lng":-0.992556,"addr":"AVENIDA DIAGONAL, 19","city":"ZARAGOZA","cp":"50197","fuels":{"Gazole":{"p":1.499,"d":"2026-07-14"},"SP95":{"p":1.499,"d":"2026-07-14"}},"brand":"Nieves","h24":true},{"id":100016078,"lat":41.637639,"lng":-0.977472,"addr":"CALLE ISLA DE PANTELARIA, 38","city":"ZARAGOZA","cp":"50197","fuels":{"Gazole":{"p":1.41,"d":"2026-07-14"},"SP95":{"p":1.421,"d":"2026-07-14"}},"brand":"Costco"},{"id":100016379,"lat":41.635528,"lng":-0.989722,"addr":"AVENIDA DE LA DIAGONAL, 12","city":"ZARAGOZA","cp":"50197","fuels":{"Gazole":{"p":1.339,"d":"2026-07-14"},"SP95":{"p":1.329,"d":"2026-07-14"}},"brand":"Plenergy","h24":true},{"id":100009085,"lat":41.883583,"lng":-0.782833,"addr":"CALLE AUSTRIA, 11,17","city":"ZUERA","cp":"50800","fuels":{"Gazole":{"p":1.495,"d":"2026-07-14"},"SP95":{"p":1.521,"d":"2026-07-14"}},"brand":"An Energeticos - Zuera","h24":true},{"id":100001452,"lat":41.857,"lng":-0.794,"addr":"CARRETERA N-330A KM. 24,000","city":"ZUERA","cp":"50800","fuels":{"Gazole":{"p":1.619,"d":"2026-07-14"},"SP95":{"p":1.635,"d":"2026-07-14"},"SP98":{"p":1.805,"d":"2026-07-14"}},"brand":"Repsol"},{"id":100009068,"lat":41.93875,"lng":-0.757611,"addr":"CALLE COOPERATIVA, 2","city":"ONTINAR DE SALZ","cp":"50810","fuels":{"Gazole":{"p":1.5,"d":"2026-07-14"},"SP95":{"p":1.48,"d":"2026-07-14"}},"brand":"Cooperativa San Isidro","h24":true}]