[{"id":200067091,"lat":40.36175,"lng":-7.34262,"addr":"Varanda de Pilatos","city":"Belmonte","cp":"6250-020","fuels":{"Gazole":{"p":1.729,"d":"2026-07-14"},"SP95":{"p":1.779,"d":"2026-07-14"},"SP98":{"p":1.989,"d":"2026-07-14"}},"brand":"Intermarché"},{"id":200093515,"lat":40.268307,"lng":-7.505144,"addr":"Alameda Pêro da Covilhã - Quinta das Laranjeiras","city":"Covilhã","cp":"6200-507","fuels":{"Gazole":{"p":1.739,"d":"2026-07-13"},"SP95":{"p":1.789,"d":"2026-07-13"}},"brand":"Petroprix"},{"id":200078617,"lat":39.812378,"lng":-8.10804,"addr":"EN 2","city":"Sertã-São João do Couto","cp":"6100-698","fuels":{"Gazole":{"p":1.739,"d":"2026-07-14"},"SP95":{"p":1.809,"d":"2026-07-14"},"SP98":{"p":1.989,"d":"2026-07-14"}},"brand":"Intermarché"},{"id":200094724,"lat":40.27064,"lng":-7.494,"addr":"Av.Infante D.Henrique","city":"Covilhã","cp":"6200-506","fuels":{"Gazole":{"p":1.749,"d":"2026-07-13"},"SP95":{"p":1.799,"d":"2026-07-13"}},"brand":"Intermarché"},{"id":200091078,"lat":40.152292,"lng":-7.497614,"addr":"Vale de Canas","city":"Fundão","cp":"6230-481","fuels":{"Gazole":{"p":1.774,"d":"2026-07-13"},"SP95":{"p":1.834,"d":"2026-07-13"}},"brand":"Intermarché"},{"id":200067334,"lat":39.80939,"lng":-7.52527,"addr":"Zona Industrial - Lote  P 6 C","city":"Castelo Branco","cp":"6000-991","fuels":{"Gazole":{"p":1.789,"d":"2026-07-13"},"SP95":{"p":1.839,"d":"2026-07-13"}},"brand":"Intermarché"},{"id":200090701,"lat":39.75096,"lng":-7.91761,"addr":"Lugar São Bartolomeu","city":"Proença-a-Nova","cp":"6150-503","fuels":{"Gazole":{"p":1.789,"d":"2026-07-14"},"SP95":{"p":1.839,"d":"2026-07-14"}},"brand":"Intermarché"},{"id":200066417,"lat":40.279561,"lng":-7.5022,"addr":"Rua Marquês de Avila e Bolama nº 210","city":"Covilhã","cp":"6200-053","fuels":{"Gazole":{"p":1.794,"d":"2026-07-14"},"SP95":{"p":1.821,"d":"2026-07-14"}}},{"id":200067259,"lat":39.81447,"lng":-7.521308,"addr":"Zona Industrial Castelo Branco","city":"Castelo Branco","cp":"6000-459","fuels":{"Gazole":{"p":1.799,"d":"2026-07-13"},"SP95":{"p":1.839,"d":"2026-07-13"},"GPLc":{"p":0.959,"d":"2026-07-13"}},"brand":"Auchan"},{"id":200070739,"lat":39.74906,"lng":-7.9174,"addr":"São Bartolomeu","city":"Proença-a-Nova","cp":"6150-555","fuels":{"Gazole":{"p":1.803,"d":"2026-07-13"},"SP95":{"p":1.847,"d":"2026-07-13"},"SP98":{"p":2.007,"d":"2026-07-13"}}},{"id":200070748,"lat":39.80789,"lng":-7.51844,"addr":"Zona Industrial lote K","city":"Castelo Branco","cp":"6001-459","fuels":{"Gazole":{"p":1.803,"d":"2026-07-13"},"SP95":{"p":1.847,"d":"2026-07-13"}}},{"id":200077814,"lat":39.933403,"lng":-7.238221,"addr":"Estrada Nacional nº 353, Km 11","city":"Idanha-A-Nova","cp":"6060-715","fuels":{"Gazole":{"p":1.819,"d":"2026-07-13"},"SP95":{"p":1.879,"d":"2026-07-13"}},"brand":"Rede Energia"},{"id":200067745,"lat":39.93026,"lng":-7.24106,"addr":"Zona Nova Expansão","city":"Idanha-A-Nova","cp":"6060-101","fuels":{"Gazole":{"p":1.819,"d":"2026-07-14"},"SP95":{"p":1.879,"d":"2026-07-14"}},"brand":"Intermarché"},{"id":200068483,"lat":39.91574,"lng":-7.4651,"addr":"Estrada de São Domingos","city":"ALCAINS","cp":"6005-010","fuels":{"Gazole":{"p":1.819,"d":"2026-07-14"},"SP95":{"p":1.879,"d":"2026-07-14"},"SP98":{"p":1.939,"d":"2026-07-14"}},"brand":"Intermarché"},{"id":200081832,"lat":40.24711,"lng":-7.284975,"addr":"Bairro de S. José n22","city":"Escarigo","cp":"6230-165","fuels":{"Gazole":{"p":1.829,"d":"2026-07-07"},"SP95":{"p":1.929,"d":"2026-07-07"}},"brand":"Repsol"},{"id":200067054,"lat":40.162777,"lng":-7.186296,"addr":"Estrada Nacional - Sitio do Areeiro","city":"Penamacor","cp":"6090-000","fuels":{"Gazole":{"p":1.83,"d":"2026-07-13"},"SP95":{"p":1.9,"d":"2026-07-13"},"SP98":{"p":2,"d":"2026-07-13"}}},{"id":200080208,"lat":39.80937,"lng":-7.51502,"addr":"Avª Professor Egas Moniz, Centro Comercial Forum","city":"Castelo Branco","cp":"6000-056","fuels":{"Gazole":{"p":1.831,"d":"2026-07-14"},"SP95":{"p":1.863,"d":"2026-07-14"}},"brand":"Pingo Doce"},{"id":200066869,"lat":40.162156,"lng":-7.498763,"addr":"Quinta da Arieira","city":"Fundão","cp":"6230-205","fuels":{"Gazole":{"p":1.831,"d":"2026-07-14"},"SP95":{"p":1.863,"d":"2026-07-14"}},"brand":"Pingo Doce"},{"id":200068779,"lat":39.81659,"lng":-7.50138,"addr":"Av. Infante de Sagres","city":"Castelo Branco","cp":"6000-082","fuels":{"Gazole":{"p":1.834,"d":"2026-07-06"},"SP95":{"p":1.917,"d":"2026-07-06"}},"brand":"Galp"},{"id":200093158,"lat":39.831863,"lng":-7.480762,"addr":"Estrada Nacional 233, Km 108.2 - Cruz de Montalvão","city":"Castelo Branco","cp":"6000-082","fuels":{"Gazole":{"p":1.834,"d":"2026-07-06"},"SP95":{"p":1.917,"d":"2026-07-06"}},"brand":"Galp"},{"id":200094819,"lat":40.17998,"lng":-7.695849,"addr":"Rua do Caramoço - Sitio da Gruta","city":"Casegas","cp":"6225-127","fuels":{"Gazole":{"p":1.864,"d":"2026-07-07"},"SP95":{"p":1.96,"d":"2026-07-07"},"SP98":{"p":2.113,"d":"2026-07-07"}}},{"id":200094141,"lat":40.26658,"lng":-7.495633,"addr":"Alameda Pêro da Covilhã","city":"Covilhã","cp":"6200-507","fuels":{"Gazole":{"p":1.881,"d":"2026-07-13"},"SP95":{"p":1.918,"d":"2026-07-13"}},"brand":"Cepsa"},{"id":200093857,"lat":40.235985,"lng":-7.486086,"addr":"Ponte Pedrinha","city":"Ferro","cp":"6200-570","fuels":{"Gazole":{"p":1.884,"d":"2026-07-14"},"SP95":{"p":1.95,"d":"2026-07-14"}},"brand":"Repsol"},{"id":200066506,"lat":39.806209,"lng":-7.512566,"addr":"Rua do Terminal nº 6","city":"Montalvão","cp":"6000-198","fuels":{"Gazole":{"p":1.889,"d":"2026-07-13"},"SP95":{"p":1.929,"d":"2026-07-13"}},"brand":"Repsol"},{"id":200091326,"lat":39.808372,"lng":-7.511121,"addr":"Estrada Nacional 18, km 108.255 - Cruz do Montalvão","city":"Castelo Branco","cp":"6000-050","fuels":{"Gazole":{"p":1.889,"d":"2026-07-14"},"SP95":{"p":1.929,"d":"2026-07-13"}},"brand":"BP"},{"id":200065885,"lat":39.830833,"lng":-7.495811,"addr":"Rua da Mina","city":"Castelo Branco","cp":"6000-170","fuels":{"Gazole":{"p":1.889,"d":"2026-07-14"},"SP95":{"p":1.929,"d":"2026-07-14"}},"brand":"BP"},{"id":200073077,"lat":40.22551,"lng":-7.24381,"addr":"Rua da Fonte Velha","city":"Benquerença","cp":"6096-344","fuels":{"Gazole":{"p":1.894,"d":"2026-07-13"},"SP95":{"p":1.949,"d":"2026-07-13"}},"brand":"Repsol"},{"id":200065220,"lat":39.83191,"lng":-7.4968,"addr":"EN 18 (Rua da Mina) Km 104,7","city":"Castelo Branco","cp":"6000-170","fuels":{"Gazole":{"p":1.894,"d":"2026-07-14"},"SP95":{"p":1.931,"d":"2026-07-14"}},"brand":"Galp"},{"id":200070880,"lat":39.87753,"lng":-7.55889,"addr":"EN 112 - Cruzamento do Palvarinho","city":"Salgueiro do Campo","cp":"6000-631","fuels":{"Gazole":{"p":1.9,"d":"2026-07-13"},"SP95":{"p":1.973,"d":"2026-07-13"},"SP98":{"p":2.223,"d":"2026-07-13"}}},{"id":200067101,"lat":39.809929,"lng":-8.193969,"addr":"Rua Nossa Senhora da Conceição, n.º75","city":"Cernache do Bonjardim","cp":"6100-266","fuels":{"Gazole":{"p":1.908,"d":"2026-07-13"},"SP95":{"p":1.945,"d":"2026-07-13"}}},{"id":200066502,"lat":39.773658,"lng":-8.109689,"addr":"Estrada Vila de Rei","city":"Sertã - Cumeada","cp":"6100-732","fuels":{"Gazole":{"p":1.909,"d":"2026-07-13"},"SP95":{"p":1.949,"d":"2026-07-13"},"GPLc":{"p":0.979,"d":"2026-07-13"}},"brand":"Repsol"},{"id":200068628,"lat":40.10869,"lng":-7.223459,"addr":"EN233,162","city":"Águas","cp":"6090-017","fuels":{"Gazole":{"p":1.909,"d":"2026-07-13"},"SP95":{"p":1.946,"d":"2026-07-13"}},"brand":"Galp"},{"id":200081499,"lat":39.857197,"lng":-7.459347,"addr":"EN 233 ao Km 104,750","city":"Lanço Grande","cp":"6000-067","fuels":{"Gazole":{"p":1.909,"d":"2026-07-13"},"SP95":{"p":1.949,"d":"2026-07-13"},"GPLc":{"p":0.979,"d":"2026-07-13"}},"brand":"Repsol"},{"id":200068287,"lat":39.81495,"lng":-8.10892,"addr":"Paque Industrial, Lote 15Ap. 10","city":"Sertã","cp":"6104-909","fuels":{"Gazole":{"p":1.909,"d":"2026-07-13"},"SP95":{"p":1.946,"d":"2026-07-13"}},"brand":"Galp"},{"id":200070456,"lat":39.84562,"lng":-7.63673,"addr":"Estrada Nacional 233","city":"S.Domingos","cp":"6000-707","fuels":{"Gazole":{"p":1.909,"d":"2026-07-13"},"SP95":{"p":1.946,"d":"2026-07-13"}},"brand":"Galp"},{"id":200065629,"lat":39.819511,"lng":-8.179675,"addr":"EN 238 Km 33,45","city":"Cernache do Bonjardim","cp":"6100-000","fuels":{"Gazole":{"p":1.909,"d":"2026-07-14"},"SP95":{"p":1.946,"d":"2026-07-14"}},"brand":"Galp"},{"id":200065630,"lat":39.803629,"lng":-8.101364,"addr":"EN 238 (Lugar de Santo Amaro)","city":"Sertã","cp":"6100-000","fuels":{"Gazole":{"p":1.909,"d":"2026-07-14"},"SP95":{"p":1.946,"d":"2026-07-14"}},"brand":"Galp"},{"id":200084483,"lat":40.1777,"lng":-7.490709,"addr":"Zona Industrial Fundão, lote 171","city":"Fundão","cp":"6230-483","fuels":{"Gazole":{"p":1.916,"d":"2026-07-13"},"GPLc":{"p":0.995,"d":"2026-07-13"}}},{"id":200066077,"lat":39.656713,"lng":-7.660509,"addr":"EN 18","city":"Vila Velha de Ródão","cp":"6030-223","fuels":{"Gazole":{"p":1.919,"d":"2026-07-13"},"SP95":{"p":1.959,"d":"2026-07-13"},"SP98":{"p":2.239,"d":"2026-07-13"}},"brand":"BP"},{"id":200086466,"lat":40.299593,"lng":-7.365259,"addr":"Rua da Igreja","city":"Caria","cp":"6520-111","fuels":{"Gazole":{"p":1.919,"d":"2026-07-13"},"SP95":{"p":1.959,"d":"2026-07-13"}},"brand":"Repsol"},{"id":200094582,"lat":40.37086,"lng":-7.34567,"addr":"E. N. 18, Km 24,100 - Ginjal","city":"Ginjal","cp":"6250-076","fuels":{"Gazole":{"p":1.919,"d":"2026-07-13"},"SP95":{"p":1.951,"d":"2026-07-13"}},"brand":"Galp"},{"id":200092962,"lat":40.302082,"lng":-7.370389,"addr":"E.N. 18-3","city":"Caria","cp":"6250-111","fuels":{"Gazole":{"p":1.919,"d":"2026-07-13"},"SP95":{"p":1.951,"d":"2026-07-13"}},"brand":"Galp"},{"id":200069011,"lat":39.79967,"lng":-8.09258,"addr":"RUA DE PROÊNÇA-A-NOVA","city":"Sertã","cp":"6100-751","fuels":{"Gazole":{"p":1.919,"d":"2026-07-13"},"SP95":{"p":1.959,"d":"2026-07-13"}},"brand":"BP"},{"id":200094496,"lat":40.264874,"lng":-7.491277,"addr":"Quinta do Alvito","city":"Covilhã","cp":"6200-251","fuels":{"Gazole":{"p":1.919,"d":"2026-07-13"},"SP95":{"p":1.951,"d":"2026-07-13"}},"brand":"Galp"},{"id":200066501,"lat":40.26687,"lng":-7.49996,"addr":"Quinta da Olivosa, Acesso à Variante","city":"Covilhã","cp":"6200-000","fuels":{"Gazole":{"p":1.919,"d":"2026-07-13"},"SP95":{"p":1.959,"d":"2026-07-13"}},"brand":"Repsol"},{"id":200066508,"lat":39.913347,"lng":-7.472142,"addr":"Zona Industrial de Alcains, Lote 3E.N. 18","city":"Alcains","cp":"6005-118","fuels":{"Gazole":{"p":1.924,"d":"2026-07-13"},"SP95":{"p":1.971,"d":"2026-07-13"},"SP98":{"p":2.121,"d":"2026-07-13"}},"brand":"Alves Bandeira"},{"id":200066568,"lat":40.370665,"lng":-7.344731,"addr":"Sítio do Ginjal  Acesso da EN 18","city":"Belmonte","cp":"6250-079","fuels":{"Gazole":{"p":1.924,"d":"2026-07-13"},"SP95":{"p":1.971,"d":"2026-07-13"}},"brand":"Alves Bandeira"},{"id":200067822,"lat":40.253975,"lng":-7.506749,"addr":"Quinta das Amendoeiras - Eixo TCT","city":"Covilhã","cp":"6200-190","fuels":{"Gazole":{"p":1.924,"d":"2026-07-13"},"SP95":{"p":1.971,"d":"2026-07-13"},"SP98":{"p":2.121,"d":"2026-07-13"}},"brand":"Alves Bandeira"},{"id":200079928,"lat":39.7955,"lng":-7.79573,"addr":"E.N. 233","city":"CATRAIA CIMEIRA","cp":"6150-116","fuels":{"Gazole":{"p":1.924,"d":"2026-07-13"},"SP95":{"p":1.964,"d":"2026-07-13"}},"brand":"Prio"},{"id":200066507,"lat":39.773824,"lng":-7.847984,"addr":"Sobreira Formosa","city":"Sobreira Formosa","cp":"6150-000","fuels":{"Gazole":{"p":1.929,"d":"2026-07-13"},"SP95":{"p":1.969,"d":"2026-07-13"}},"brand":"Repsol"},{"id":200068998,"lat":40.14157,"lng":-7.66532,"addr":"Vale das Relvas","city":"Silvares","cp":"6230-670","fuels":{"Gazole":{"p":1.933,"d":"2026-07-13"},"SP95":{"p":1.997,"d":"2026-07-13"}},"brand":"Freitas"},{"id":200093706,"lat":40.217026,"lng":-7.623127,"addr":"E.N. 343 - 1 - Granjeira","city":"Paul","cp":"6215-323","fuels":{"Gazole":{"p":1.933,"d":"2026-07-13"},"SP95":{"p":1.997,"d":"2026-07-13"}}},{"id":200069326,"lat":40.25104,"lng":-7.62083,"addr":"Avenida 1º de Maio, 12 (EN230)","city":"Unhais da Serra","cp":"6215-517","fuels":{"Gazole":{"p":1.934,"d":"2026-07-13"},"SP95":{"p":1.981,"d":"2026-07-13"}},"brand":"Alves Bandeira"},{"id":200094889,"lat":40.173374,"lng":-7.493131,"addr":"Zona Industrial do Fundão, Lote 72","city":"Fundão","cp":"6230-483","fuels":{"Gazole":{"p":1.948,"d":"2026-07-13"},"SP95":{"p":1.985,"d":"2026-07-13"}},"brand":"Alves Bandeira"},{"id":200088899,"lat":40.03261,"lng":-7.0094,"addr":"EN 239 - km 36,4","city":"Penha Garcia","cp":"6060-302","fuels":{"Gazole":{"p":1.949,"d":"2026-07-13"},"SP95":{"p":1.989,"d":"2026-07-13"}},"brand":"BP"},{"id":200094116,"lat":40.143818,"lng":-7.497855,"addr":"Rua Cidade da Covilha","city":"Fundão","cp":"6230-346","fuels":{"Gazole":{"p":1.949,"d":"2026-07-13"},"SP95":{"p":1.986,"d":"2026-07-13"}},"brand":"Galp"},{"id":200093860,"lat":39.913292,"lng":-7.680331,"addr":"Bairro Novo, 2","city":"Pousafoles","cp":"6000-703","fuels":{"Gazole":{"p":1.949,"d":"2026-07-13"},"SP95":{"p":1.996,"d":"2026-07-13"}}},{"id":200065767,"lat":39.75248,"lng":-7.616475,"addr":"N3, km 196.700","city":"Sarnadas do Ródão","cp":"6030-116","fuels":{"Gazole":{"p":1.949,"d":"2026-07-14"},"SP95":{"p":1.986,"d":"2026-07-14"}},"brand":"Galp"},{"id":200065628,"lat":39.90387,"lng":-8.131163,"addr":"EN 2 Km 327,58","city":"Pedrogão Pequeno","cp":"6100-000","fuels":{"Gazole":{"p":1.949,"d":"2026-07-14"},"SP95":{"p":1.986,"d":"2026-07-14"}},"brand":"Galp"},{"id":200092666,"lat":39.96004,"lng":-7.828128,"addr":"Estrada Nacional - Ameixoeira","city":"Ameixoeira","cp":"6160-101","fuels":{"Gazole":{"p":1.95,"d":"2026-07-13"},"SP95":{"p":1.997,"d":"2026-07-13"}},"brand":"Galp"},{"id":200068823,"lat":40.0257,"lng":-7.79607,"addr":"Lugar da Costa","city":"Orvalho","cp":"6185-303","fuels":{"Gazole":{"p":1.953,"d":"2026-07-13"},"SP95":{"p":1.997,"d":"2026-07-13"}},"brand":"Freitas"},{"id":200067052,"lat":39.917868,"lng":-7.908097,"addr":"EN 238","city":"Oleiros - Casal de Sta. Margarida","cp":"6160-301","fuels":{"Gazole":{"p":1.953,"d":"2026-07-13"},"SP95":{"p":1.997,"d":"2026-07-13"}},"brand":"Galp"},{"id":200065920,"lat":40.14067,"lng":-7.49803,"addr":"Av. da Liberdade","city":"Fundão","cp":"6234-909","fuels":{"Gazole":{"p":1.959,"d":"2026-07-13"},"SP95":{"p":1.999,"d":"2026-07-13"}},"brand":"BP"},{"id":200069855,"lat":40.275993,"lng":-7.505951,"addr":"Sítio da Palmatória","city":"Covilhã","cp":"6200-161","fuels":{"Gazole":{"p":1.959,"d":"2026-07-13"},"SP95":{"p":1.999,"d":"2026-07-13"}},"brand":"BP"},{"id":200065719,"lat":39.678694,"lng":-8.14244,"addr":"EN 2 Km 365,9","city":"Vila de Rei","cp":"6110-202","fuels":{"Gazole":{"p":1.959,"d":"2026-07-14"},"SP95":{"p":1.996,"d":"2026-07-14"}},"brand":"Galp"},{"id":200065299,"lat":40.09677,"lng":-7.46729,"addr":"EN 18","city":"Alpedrinha","cp":"6230-000","fuels":{"Gazole":{"p":1.959,"d":"2026-07-14"},"SP95":{"p":1.996,"d":"2026-07-14"}},"brand":"Galp"},{"id":200065255,"lat":40.23535,"lng":-7.52772,"addr":"EN 230 - Av. Viriato nº42","city":"Tortozendo","cp":"6200-725","fuels":{"Gazole":{"p":1.96,"d":"2026-07-14"},"SP95":{"p":2.07,"d":"2026-07-14"}},"brand":"Repsol"},{"id":200069213,"lat":40.038784,"lng":-7.476565,"addr":"ESTRADA DAS ENGUIAS","city":"Soalheira","cp":"6005-300","fuels":{"Gazole":{"p":1.969,"d":"2026-07-14"},"SP95":{"p":1.999,"d":"2026-07-14"},"SP98":{"p":2.162,"d":"2026-07-14"}}},{"id":200065765,"lat":39.574207,"lng":-7.782874,"addr":"A23 - Km 80 - Fratel","city":"Gardete","cp":"6030-013","fuels":{"Gazole":{"p":1.999,"d":"2026-07-14"},"SP95":{"p":2.044,"d":"2026-07-14"},"GPLc":{"p":0.999,"d":"2026-07-14"}},"brand":"Galp"},{"id":200065766,"lat":39.572548,"lng":-7.78226,"addr":"A23 - Km 80 - Fratel","city":"Fratel","cp":"6030-012","fuels":{"Gazole":{"p":1.999,"d":"2026-07-14"},"SP95":{"p":2.044,"d":"2026-07-14"},"GPLc":{"p":0.999,"d":"2026-07-14"}},"brand":"Galp"},{"id":200069061,"lat":40.190697,"lng":-7.486373,"addr":"A23, LANÇO KM 18,5 TEIXOSO ALQUERIA","city":"Fundão","cp":"6230-198","fuels":{"Gazole":{"p":1.999,"d":"2026-07-14"},"SP95":{"p":2.044,"d":"2026-07-14"},"GPLc":{"p":0.976,"d":"2026-07-14"}},"brand":"Moeve"},{"id":200069062,"lat":40.190334,"lng":-7.488123,"addr":"A23, LANÇO KM 18,5 TEIXOSO ALQUERIA, APT. 370","city":"Alcaria","cp":"6230-022","fuels":{"Gazole":{"p":1.999,"d":"2026-07-14"},"SP95":{"p":2.044,"d":"2026-07-14"},"GPLc":{"p":0.976,"d":"2026-07-14"}},"brand":"Moeve"},{"id":200069060,"lat":39.88884,"lng":-7.48802,"addr":"A23, KM 127, SUBLANÇO CASTELO BRANCO, APT. 86","city":"Alcains","cp":"6005-999","fuels":{"Gazole":{"p":1.999,"d":"2026-07-14"},"SP95":{"p":2.044,"d":"2026-07-14"},"GPLc":{"p":0.976,"d":"2026-07-14"}},"brand":"Moeve"},{"id":200069059,"lat":39.88772,"lng":-7.487027,"addr":"A23, KM 127, SUBLANÇO CASTELO BRANCO, APT. 86","city":"Alcains","cp":"6005-999","fuels":{"Gazole":{"p":1.999,"d":"2026-07-14"},"SP95":{"p":2.044,"d":"2026-07-14"},"GPLc":{"p":0.976,"d":"2026-07-14"}},"brand":"Moeve"},{"id":200069982,"lat":39.63756,"lng":-7.84444,"addr":"São Pedro do Esteval","city":"São Pedro do Esteval","cp":"6100-623","fuels":{"Gazole":{"p":2,"d":"2026-07-13"},"SP95":{"p":2.145,"d":"2026-07-13"}}},{"id":200077098,"lat":39.83517,"lng":-7.25866,"addr":"EN 240","city":"Ladoeiro","cp":"6060-261","fuels":{"Gazole":{"p":2.003,"d":"2026-07-13"},"SP95":{"p":2.052,"d":"2026-07-13"}}},{"id":200077099,"lat":39.84468,"lng":-7.06811,"addr":"Av.Dr.Antonio M.Boavida, Nº98","city":"Zebreira","cp":"6060-557","fuels":{"Gazole":{"p":2.003,"d":"2026-07-13"},"SP95":{"p":2.052,"d":"2026-07-13"}},"brand":"Freitas"},{"id":200066907,"lat":39.97335,"lng":-7.34772,"addr":"EN 233 - KM 87,845 - PONTE DE SÃO GENS","city":"Oledo","cp":"6060-621","fuels":{"Gazole":{"p":2.019,"d":"2026-07-13"},"SP95":{"p":2.039,"d":"2026-07-13"}},"brand":"BP"},{"id":200077169,"lat":39.7513,"lng":-7.929256,"addr":"Rua da Sertã","city":"Proença-a-Nova","cp":"6150-000","fuels":{"Gazole":{"p":2.034,"d":"2026-07-13"},"SP95":{"p":2.076,"d":"2026-07-13"}},"brand":"Prio"},{"id":200094412,"lat":40.348125,"lng":-7.348793,"addr":"Sitio da Tapada do Muro - Variante a Belmonte","city":"Ginjal","cp":"6250-076","fuels":{"SP95":{"p":1.934,"d":"2026-07-13"}},"brand":"Prio"},{"id":200070136,"lat":40.29479,"lng":-7.48117,"addr":"EN 18 Km 39,155 (Rua Gen. Humberto Delgado)","city":"Canhoso","cp":"6200-014","fuels":{"SP95":{"p":1.954,"d":"2026-07-13"}},"brand":"Prio"},{"id":200065218,"lat":39.91552,"lng":-7.471436,"addr":"Estrada Nacional 18- Km 95","city":"Alcains","cp":"6005-100","fuels":{"SP95":{"p":1.991,"d":"2026-07-13"}},"brand":"Prio"},{"id":200069733,"lat":39.91938,"lng":-7.90713,"addr":"Rua José Esteves Garcia","city":"Oleiros","cp":"6160-414","fuels":{"SP95":{"p":1.993,"d":"2026-07-14"}},"brand":"Prio"},{"id":200081766,"lat":39.750923,"lng":-7.568679,"addr":"Rua do outeiro","city":"Cebolais de Cima","cp":"6000-500","fuels":{"SP95":{"p":2.051,"d":"2026-07-13"}},"brand":"Prio"},{"id":200067522,"lat":40.04614,"lng":-7.184454,"addr":"Estrada da Lameira (N239)","city":"Medelim","cp":"6060-996","fuels":{"SP95":{"p":2.061,"d":"2026-07-13"}},"brand":"Prio"},{"id":200089358,"lat":40.28293,"lng":-7.49028,"addr":"Eixo Teixoso Canhoso Tortosendo (TCT)","city":"Covilhã","cp":"6200-544","fuels":{"GPLc":{"p":0.982,"d":"2026-07-06"}},"brand":"Galp"}]