[{"id":200077091,"lat":40.68313,"lng":-7.91929,"addr":"Av. Tenente Coronel Silva Simões, 156","city":"Abraveses","cp":"3515-150","fuels":{"Gazole":{"p":1.717,"d":"2026-07-07"},"SP95":{"p":1.859,"d":"2026-07-07"}}},{"id":200093094,"lat":40.688106,"lng":-7.927116,"addr":"Avenida do alto de Abraveses - EN 16  Pascoal","city":"Pascoal","cp":"3515-828","fuels":{"Gazole":{"p":1.717,"d":"2026-07-07"},"SP95":{"p":1.859,"d":"2026-07-07"},"SP98":{"p":1.919,"d":"2026-07-07"}}},{"id":200094887,"lat":40.667889,"lng":-7.891063,"addr":"São João da Carreira","city":"Travassos","cp":"3505-361","fuels":{"Gazole":{"p":1.717,"d":"2026-07-07"},"SP95":{"p":1.859,"d":"2026-07-07"},"SP98":{"p":1.919,"d":"2026-07-07"}}},{"id":200070018,"lat":40.69249,"lng":-7.7466,"addr":"EN 229,2 Km 13,1","city":"Sequeiros - S. Miguel de Vila Boa","cp":"3560-125","fuels":{"Gazole":{"p":1.747,"d":"2026-07-07"},"SP95":{"p":1.889,"d":"2026-07-07"},"SP98":{"p":1.989,"d":"2026-07-07"}}},{"id":200091808,"lat":40.64686,"lng":-7.87269,"addr":"Rua da Ribeira, Póvoa de Sobrinhos","city":"Rio de Loba","cp":"3505-488","fuels":{"Gazole":{"p":1.769,"d":"2026-07-13"},"SP95":{"p":1.809,"d":"2026-07-13"}},"brand":"Intermarché"},{"id":200068215,"lat":40.745,"lng":-7.73626,"addr":"Rua Cidade de Lescar","city":"Sátão","cp":"3560-196","fuels":{"Gazole":{"p":1.769,"d":"2026-07-13"},"SP95":{"p":1.819,"d":"2026-07-13"},"SP98":{"p":1.889,"d":"2026-07-13"}},"brand":"Intermarché"},{"id":200070637,"lat":40.65154,"lng":-7.884722,"addr":"Estrada de Mangualde","city":"Lugar do Viso","cp":"3501-903","fuels":{"Gazole":{"p":1.774,"d":"2026-07-14"}},"brand":"Recheio"},{"id":200084359,"lat":40.75282,"lng":-8.07019,"addr":"Quinta de Santa Cruz","city":"São Pedro do Sul","cp":"3660-683","fuels":{"Gazole":{"p":1.779,"d":"2026-07-13"},"SP95":{"p":1.824,"d":"2026-07-13"},"SP98":{"p":1.934,"d":"2026-07-13"}},"brand":"Intermarché"},{"id":200092960,"lat":40.710724,"lng":-7.953193,"addr":"EN 16, km 86,700 - Recta da Ribeira - Travanca da Bodiosa","city":"Travanca da Bodiosa","cp":"3515-692","fuels":{"Gazole":{"p":1.779,"d":"2026-07-13"},"SP95":{"p":1.869,"d":"2026-07-13"}}},{"id":200070679,"lat":40.84792,"lng":-7.970101,"addr":"ESTRADA CARVALHA DE ALVA","city":"Alva","cp":"3600-021","fuels":{"Gazole":{"p":1.779,"d":"2026-07-13"},"SP95":{"p":1.869,"d":"2026-07-13"},"SP98":{"p":2.083,"d":"2026-07-13"}}},{"id":200069978,"lat":40.65684,"lng":-7.95772,"addr":"E.N 337, Tondelinha","city":"Tondelinha - Orgens","cp":"3510-694","fuels":{"Gazole":{"p":1.787,"d":"2026-07-13"},"SP95":{"p":1.884,"d":"2026-07-13"},"SP98":{"p":2.014,"d":"2026-07-13"}}},{"id":200068640,"lat":40.720055,"lng":-8.180377,"addr":"Rua Tapada dos Piteiros","city":"Tapada da Piteira","cp":"3680-146","fuels":{"Gazole":{"p":1.789,"d":"2026-07-13"},"SP95":{"p":1.839,"d":"2026-07-13"},"SP98":{"p":1.959,"d":"2026-07-13"}},"brand":"Intermarché"},{"id":200067260,"lat":40.63785,"lng":-7.908987,"addr":"Qta. da Alagoa Estrada Nelas","city":"Nelas","cp":"3520-000","fuels":{"Gazole":{"p":1.789,"d":"2026-07-13"},"SP95":{"p":1.819,"d":"2026-07-13"},"GPLc":{"p":0.959,"d":"2026-07-13"}},"brand":"Auchan"},{"id":200093413,"lat":40.53929,"lng":-7.85531,"addr":"Avenida Professor Doutor Fortunato de Almeida nº4","city":"NELAS","cp":"3520-056","fuels":{"Gazole":{"p":1.799,"d":"2026-07-13"},"SP95":{"p":1.829,"d":"2026-07-13"},"SP98":{"p":1.959,"d":"2026-07-13"}},"brand":"Intermarché"},{"id":200092927,"lat":41.14546,"lng":-7.411216,"addr":"Av. João do Nascimento Costa","city":"São João da Pesqueira","cp":"5130-369","fuels":{"Gazole":{"p":1.799,"d":"2026-07-13"},"SP95":{"p":1.849,"d":"2026-07-13"},"SP98":{"p":2.049,"d":"2026-07-13"}},"brand":"Intermarché"},{"id":200067423,"lat":40.89734,"lng":-7.92837,"addr":"Av. 25 de Abril","city":"Castro Daire","cp":"3600-124","fuels":{"Gazole":{"p":1.803,"d":"2026-07-13"},"SP95":{"p":1.847,"d":"2026-07-13"},"SP98":{"p":2.027,"d":"2026-07-13"}},"brand":"Intermarché"},{"id":200067433,"lat":41.07462,"lng":-8.09627,"addr":"Lugar de Outeirinhos","city":"Cinfaes","cp":"4690-892","fuels":{"Gazole":{"p":1.803,"d":"2026-07-13"},"SP95":{"p":1.847,"d":"2026-07-13"},"SP98":{"p":2.027,"d":"2026-07-13"}},"brand":"Intermarché"},{"id":200069759,"lat":40.57759,"lng":-7.94474,"addr":"AV. JOÃO PADEIRO","city":"Pindelo","cp":"3500-543","fuels":{"Gazole":{"p":1.809,"d":"2026-07-07"},"SP95":{"p":1.884,"d":"2026-07-07"},"GPLc":{"p":0.979,"d":"2026-07-07"}},"brand":"Nova"},{"id":200093210,"lat":40.40157,"lng":-8.2249,"addr":"Av. dos Bombeiros Voluntários","city":"Mortágua","cp":"3450-122","fuels":{"Gazole":{"p":1.809,"d":"2026-07-14"},"SP95":{"p":1.839,"d":"2026-07-14"},"SP98":{"p":2.039,"d":"2026-07-14"}},"brand":"Intermarché"},{"id":200077175,"lat":40.40342,"lng":-8.12875,"addr":"Av. Santo Estevão nº20","city":"Santa Comba Dão","cp":"3440-323","fuels":{"Gazole":{"p":1.809,"d":"2026-07-14"},"SP95":{"p":1.839,"d":"2026-07-14"},"SP98":{"p":2.039,"d":"2026-07-14"}},"brand":"Intermarché"},{"id":200093305,"lat":40.727108,"lng":-8.210157,"addr":"EN 16 km 53,400","city":"Pinheiro de Lafões","cp":"3680-176","fuels":{"Gazole":{"p":1.819,"d":"2026-07-13"},"SP95":{"p":1.899,"d":"2026-07-13"}},"brand":"Nova"},{"id":200093704,"lat":40.73332,"lng":-8.300371,"addr":"QUINTA DO LADARIO","city":"Quinta Ladario","cp":"3680-232","fuels":{"Gazole":{"p":1.829,"d":"2026-07-07"}},"brand":"Galp"},{"id":200074440,"lat":40.43594,"lng":-7.99122,"addr":"Rua Tenente Leonardo Meireles nº46","city":"Carregal do Sal","cp":"3430-000","fuels":{"Gazole":{"p":1.831,"d":"2026-07-14"},"SP95":{"p":1.863,"d":"2026-07-14"}},"brand":"Pingo Doce"},{"id":200077631,"lat":40.61551,"lng":-7.75893,"addr":"Av. Heróis do Ultramar","city":"Lavandeira","cp":"3530-261","fuels":{"Gazole":{"p":1.831,"d":"2026-07-14"},"SP95":{"p":1.863,"d":"2026-07-14"},"SP98":{"p":1.963,"d":"2026-07-14"}},"brand":"Pingo Doce"},{"id":200066996,"lat":40.52982,"lng":-8.08765,"addr":"Estrada Municipal 627","city":"MOLELOS","cp":"3460-269","fuels":{"Gazole":{"p":1.831,"d":"2026-07-14"},"SP95":{"p":1.863,"d":"2026-07-14"}},"brand":"Pingo Doce"},{"id":200076859,"lat":40.74627,"lng":-7.731664,"addr":"Rua do Cardal, 48","city":"Sátão","cp":"3560-133","fuels":{"Gazole":{"p":1.837,"d":"2026-07-13"},"SP95":{"p":1.899,"d":"2026-07-13"},"SP98":{"p":1.979,"d":"2026-07-13"}}},{"id":200069777,"lat":40.74685,"lng":-7.80962,"addr":"EM 323","city":"Cepões","cp":"3500-000","fuels":{"Gazole":{"p":1.848,"d":"2026-07-06"},"SP95":{"p":1.848,"d":"2026-07-06"}},"brand":"Galp"},{"id":200093214,"lat":40.4311,"lng":-7.99496,"addr":"Arruamento Urbano a Sul da Vila s/nCarregal do Sal","city":"Carregal do Sal","cp":"3430-154","fuels":{"Gazole":{"p":1.851,"d":"2026-07-14"},"SP95":{"p":1.888,"d":"2026-07-14"},"GPLc":{"p":0.976,"d":"2026-07-14"}},"brand":"Cepsa"},{"id":200066367,"lat":40.402206,"lng":-8.130463,"addr":"Av Santo Estêvão","city":"Santa Comba Dão","cp":"3440-323","fuels":{"Gazole":{"p":1.851,"d":"2026-07-14"},"SP95":{"p":1.888,"d":"2026-07-14"}},"brand":"Moeve"},{"id":200093618,"lat":40.825466,"lng":-7.462063,"addr":"Peroferreiro - N226","city":"Cunha","cp":"3640-050","fuels":{"Gazole":{"p":1.852,"d":"2026-07-09"},"SP95":{"p":1.955,"d":"2026-07-09"},"SP98":{"p":2.1,"d":"2026-07-09"}}},{"id":200080373,"lat":40.618379,"lng":-7.614118,"addr":"EN 16, Nº 2, 3530-031 Chãs de Tavares","city":"Chãs de Tavares","cp":"3530-031","fuels":{"Gazole":{"p":1.859,"d":"2026-07-07"},"SP95":{"p":1.944,"d":"2026-07-07"}},"brand":"Prio"},{"id":200072630,"lat":40.473843,"lng":-7.976222,"addr":"Avenida Dr. Aristides de Sousa Mendes, s/n","city":"Cabanas de Viriato","cp":"3430-607","fuels":{"Gazole":{"p":1.859,"d":"2026-07-07"},"SP95":{"p":1.952,"d":"2026-07-07"}},"brand":"Alves Bandeira"},{"id":200094611,"lat":40.52817,"lng":-7.85764,"addr":"Rua Dr. Eurico Amaral","city":"Nelas","cp":"3520-050","fuels":{"Gazole":{"p":1.859,"d":"2026-07-09"},"SP95":{"p":1.937,"d":"2026-07-09"}},"brand":"Galp"},{"id":200068608,"lat":40.58189,"lng":-8.081256,"addr":"Av. do Campo de Futebol, nº 20","city":"Aldeia de Vilar","cp":"3465-190","fuels":{"Gazole":{"p":1.864,"d":"2026-07-14"},"SP95":{"p":1.899,"d":"2026-07-14"}},"brand":"Nova"},{"id":200071804,"lat":40.7019,"lng":-8.245872,"addr":"Paredes de Gravo","city":"Paredes de Gravo","cp":"3680-174","fuels":{"Gazole":{"p":1.869,"d":"2026-07-14"},"SP95":{"p":1.914,"d":"2026-07-14"},"SP98":{"p":2.039,"d":"2026-07-14"},"GPLc":{"p":1.169,"d":"2026-07-14"}},"brand":"Beq"},{"id":200092961,"lat":40.77846,"lng":-7.807243,"addr":"EN 323 Km 99,6 Vouguinha","city":"Vouguinha","cp":"3505-239","fuels":{"Gazole":{"p":1.873,"d":"2026-07-13"},"SP95":{"p":1.917,"d":"2026-07-13"},"SP98":{"p":2.083,"d":"2026-07-13"}}},{"id":200068605,"lat":41.01661,"lng":-7.404,"addr":"EN 229","city":"Granja-Quinta da Picoila","cp":"3630-113","fuels":{"Gazole":{"p":1.879,"d":"2026-07-07"},"SP95":{"p":1.964,"d":"2026-07-07"}},"brand":"Shell"},{"id":200094427,"lat":40.77368,"lng":-8.11931,"addr":"EN 227, Km 62,270","city":"Carvalhais","cp":"3660-055","fuels":{"Gazole":{"p":1.879,"d":"2026-07-13"},"SP95":{"p":1.879,"d":"2026-07-13"},"SP98":{"p":2.019,"d":"2026-07-13"}}},{"id":200093264,"lat":40.57122,"lng":-7.882231,"addr":"EN 231 km 14,750 - Recta Casal Sancho","city":"Casal Sancho","cp":"3520-111","fuels":{"Gazole":{"p":1.881,"d":"2026-07-13"},"SP95":{"p":1.918,"d":"2026-07-13"}},"brand":"Cepsa"},{"id":200067297,"lat":40.558067,"lng":-7.835172,"addr":"Est. Nacional 234 km 95,6","city":"Nelas","cp":"3520-095","fuels":{"Gazole":{"p":1.881,"d":"2026-07-13"},"SP95":{"p":1.918,"d":"2026-07-13"},"GPLc":{"p":0.916,"d":"2026-07-13"}},"brand":"Cepsa"},{"id":200069194,"lat":40.668633,"lng":-7.915817,"addr":"Av. da Bélgica, São José","city":"Viseu","cp":"3510-159","fuels":{"Gazole":{"p":1.881,"d":"2026-07-13"},"SP95":{"p":1.918,"d":"2026-07-13"}},"brand":"Moeve"},{"id":200081593,"lat":40.603413,"lng":-7.927036,"addr":"EN 232 - OLIVEIRA DE BARREIROS","city":"Oliveira de Barreiros","cp":"3500-892","fuels":{"Gazole":{"p":1.881,"d":"2026-07-13"},"SP95":{"p":1.918,"d":"2026-07-13"},"SP98":{"p":2.13,"d":"2026-07-13"}},"brand":"Moeve"},{"id":200066292,"lat":40.49813,"lng":-7.89497,"addr":"Av. das Pedras Altas","city":"Canas de Senhorim","cp":"3525-040","fuels":{"Gazole":{"p":1.881,"d":"2026-07-14"},"SP95":{"p":1.918,"d":"2026-07-14"}},"brand":"Cepsa"},{"id":200068982,"lat":41.02934,"lng":-7.5491,"addr":"E.N. 323 - Lugar do Barreiro - Sendim - Tabuaço","city":"Vila","cp":"5120-000","fuels":{"Gazole":{"p":1.889,"d":"2026-07-07"},"SP95":{"p":1.989,"d":"2026-07-07"},"SP98":{"p":2.079,"d":"2026-07-07"}}},{"id":200070065,"lat":40.47761,"lng":-8.310977,"addr":"EN 334","city":"Mortágua","cp":"","fuels":{"Gazole":{"p":1.889,"d":"2026-07-07"},"SP95":{"p":1.979,"d":"2026-07-07"}},"brand":"Shell"},{"id":200066080,"lat":40.655517,"lng":-7.902734,"addr":"Rua Cónego Barreiros nº 270","city":"Viseu","cp":"3500-093","fuels":{"Gazole":{"p":1.889,"d":"2026-07-07"},"SP95":{"p":1.969,"d":"2026-07-07"}},"brand":"BP"},{"id":200070195,"lat":40.952507,"lng":-7.735805,"addr":"EN 329","city":"Espinheiro","cp":"3620-000","fuels":{"Gazole":{"p":1.889,"d":"2026-07-14"},"SP95":{"p":1.929,"d":"2026-07-14"},"SP98":{"p":2.029,"d":"2026-07-14"}},"brand":"Redil"},{"id":200094723,"lat":41.001286,"lng":-7.665691,"addr":"Lugar da Craveira - Sarzedo","city":"Sarzedo","cp":"3620-480","fuels":{"Gazole":{"p":1.889,"d":"2026-07-14"},"SP95":{"p":1.929,"d":"2026-07-14"},"SP98":{"p":2.029,"d":"2026-07-14"}}},{"id":200068987,"lat":40.49729,"lng":-8.187524,"addr":"Rua Deputado Luís Martins, 369","city":"Tourigo","cp":"3465-195","fuels":{"Gazole":{"p":1.899,"d":"2026-07-13"},"SP95":{"p":1.949,"d":"2026-07-13"},"SP98":{"p":2.059,"d":"2026-07-13"}},"brand":"Prio"},{"id":200071054,"lat":40.863808,"lng":-7.747667,"addr":"EN 329","city":"Vale do Carro","cp":"3650-201","fuels":{"Gazole":{"p":1.899,"d":"2026-07-13"},"SP95":{"p":1.914,"d":"2026-07-13"},"SP98":{"p":2.049,"d":"2026-07-13"}},"brand":"Etc"},{"id":200081396,"lat":40.71449,"lng":-8.19116,"addr":"Zona Industrial de Oliveira de Frades","city":"Zona Industrial","cp":"3680-323","fuels":{"Gazole":{"p":1.899,"d":"2026-07-13"},"SP95":{"p":1.945,"d":"2026-07-13"},"SP98":{"p":2.158,"d":"2026-07-13"}}},{"id":200093844,"lat":40.979572,"lng":-7.7127,"addr":"Largo da Neta","city":"Alvite","cp":"3620-030","fuels":{"Gazole":{"p":1.899,"d":"2026-07-14"},"SP95":{"p":1.929,"d":"2026-07-14"}},"brand":"BP"},{"id":200069124,"lat":40.348698,"lng":-8.172457,"addr":"IP 3, LANÇO CHAMADOURO - RAIVA (ANTIGA EN2), KM 222,100","city":"São Joaninho","cp":"3440-070","fuels":{"Gazole":{"p":1.901,"d":"2026-07-13"},"SP95":{"p":1.938,"d":"2026-07-13"},"GPLc":{"p":0.976,"d":"2026-07-13"}},"brand":"Moeve"},{"id":200069125,"lat":40.349323,"lng":-8.172613,"addr":"IP 3, LANÇO CHAMADOURO - RAIVA (ANTIGA EN2), KM 222,100","city":"Santa Comba Dão","cp":"3440-308","fuels":{"Gazole":{"p":1.901,"d":"2026-07-13"},"SP95":{"p":1.938,"d":"2026-07-13"},"GPLc":{"p":0.976,"d":"2026-07-13"}},"brand":"Moeve"},{"id":200069195,"lat":40.691658,"lng":-8.188015,"addr":"PAREDES VELHAS ( E.N.333-3)","city":"Paredes Velhas","cp":"3670-049","fuels":{"Gazole":{"p":1.901,"d":"2026-07-13"},"SP95":{"p":1.938,"d":"2026-07-13"}},"brand":"Moeve"},{"id":200093531,"lat":41.14701,"lng":-7.406998,"addr":"EN 222 - KM 168, 45AV. MARQUÊS SOVERAL N.69","city":"São João da Pesqueira","cp":"5130-321","fuels":{"Gazole":{"p":1.901,"d":"2026-07-13"},"SP95":{"p":1.938,"d":"2026-07-13"}},"brand":"Moeve"},{"id":200077997,"lat":40.85201,"lng":-7.727834,"addr":"AV. AQUILINO RIBEIRO, LARGO DO RAMALHAL","city":"Vila Nova de Paiva","cp":"3650-195","fuels":{"Gazole":{"p":1.901,"d":"2026-07-13"},"SP95":{"p":1.938,"d":"2026-07-13"}},"brand":"Cepsa"},{"id":200093292,"lat":40.98431,"lng":-7.637532,"addr":"Av. Leodomiro, nº 12 - Alto da Portela","city":"Leomil","cp":"3620-162","fuels":{"Gazole":{"p":1.901,"d":"2026-07-13"},"SP95":{"p":1.938,"d":"2026-07-13"}},"brand":"Cepsa"},{"id":200094908,"lat":41.066383,"lng":-7.647468,"addr":"EN 313 (km 99.8), Lugar de Maria João","city":"São Cosmado","cp":"5110-590","fuels":{"Gazole":{"p":1.901,"d":"2026-07-13"},"SP95":{"p":1.938,"d":"2026-07-13"}},"brand":"Moeve"},{"id":200095200,"lat":40.716824,"lng":-7.831499,"addr":"CAVERNÃES","city":"Viseu","cp":"","fuels":{"Gazole":{"p":1.909,"d":"2026-07-13"},"SP95":{"p":1.949,"d":"2026-07-13"}},"brand":"Repsol"},{"id":200066838,"lat":40.716339,"lng":-7.831411,"addr":"Cavernães","city":"Viseu","cp":"3500-000","fuels":{"Gazole":{"p":1.909,"d":"2026-07-13"},"SP95":{"p":1.949,"d":"2026-07-13"}},"brand":"Repsol"},{"id":200080070,"lat":40.6349,"lng":-7.845321,"addr":"Avenida Forte da Gama, Nº16, Fragosela","city":"Viseu","cp":"3505-639","fuels":{"Gazole":{"p":1.909,"d":"2026-07-13"},"SP95":{"p":1.946,"d":"2026-07-13"}},"brand":"Galp"},{"id":200069403,"lat":40.65532,"lng":-7.98769,"addr":"E.N. 337","city":"Carriça","cp":"3510-899","fuels":{"Gazole":{"p":1.909,"d":"2026-07-13"},"SP95":{"p":1.949,"d":"2026-07-13"}},"brand":"Repsol"},{"id":200066824,"lat":40.66386,"lng":-7.91913,"addr":"Av. Capitão Homem Ribeiro","city":"Viseu","cp":"3500-000","fuels":{"Gazole":{"p":1.909,"d":"2026-07-13"},"SP95":{"p":1.949,"d":"2026-07-13"},"GPLc":{"p":0.964,"d":"2026-07-13"}},"brand":"Repsol"},{"id":200066843,"lat":40.64829,"lng":-7.92049,"addr":"Av. Regimento de Infantaria nº 14","city":"Viseu","cp":"3510-104","fuels":{"Gazole":{"p":1.909,"d":"2026-07-13"},"SP95":{"p":1.949,"d":"2026-07-13"}},"brand":"Repsol"},{"id":200066831,"lat":40.672462,"lng":-7.920519,"addr":"Av. de Bélgica","city":"Viseu","cp":"3500-000","fuels":{"Gazole":{"p":1.909,"d":"2026-07-13"},"SP95":{"p":1.949,"d":"2026-07-13"}},"brand":"Repsol"},{"id":200066832,"lat":40.65475,"lng":-7.89611,"addr":"Rua Pedro Alvares Cabral nº 288","city":"Viseu","cp":"3500-000","fuels":{"Gazole":{"p":1.909,"d":"2026-07-13"},"SP95":{"p":1.949,"d":"2026-07-13"}},"brand":"Repsol"},{"id":200094538,"lat":40.3902,"lng":-8.247742,"addr":"Avenida Infante D. Henrique, 103A - Vale de Açores","city":"Vale de Açores","cp":"3450-202","fuels":{"Gazole":{"p":1.909,"d":"2026-07-14"},"SP95":{"p":1.946,"d":"2026-07-14"}},"brand":"Galp"},{"id":200073621,"lat":40.57166,"lng":-8.17111,"addr":"Av. Dr. Jerónimo de Lacerda n.º 1186","city":"Caramulo","cp":"3475-046","fuels":{"Gazole":{"p":1.91,"d":"2026-07-14"},"SP95":{"p":1.961,"d":"2026-07-14"},"SP98":{"p":2.113,"d":"2026-07-14"}}},{"id":200094622,"lat":40.62839,"lng":-7.94025,"addr":"Posto Galp, Estr. Nac. N.2, KM 178,Repeses","city":"Viseu","cp":"3500-719","fuels":{"Gazole":{"p":1.914,"d":"2026-07-13"},"SP95":{"p":1.946,"d":"2026-07-13"}},"brand":"Galp"},{"id":200093816,"lat":40.537693,"lng":-8.109386,"addr":"Rua Dr. António Marques da Costa (Rua do Fundão)","city":"Molelos","cp":"3460-008","fuels":{"Gazole":{"p":1.914,"d":"2026-07-13"},"SP95":{"p":1.973,"d":"2026-07-13"}},"brand":"Galp"},{"id":200065773,"lat":40.659527,"lng":-7.922799,"addr":"Av. Almirante Afonso Cerqueira (Prac.Carlos Lopes)","city":"Viseu","cp":"3500-000","fuels":{"Gazole":{"p":1.914,"d":"2026-07-14"},"SP95":{"p":1.946,"d":"2026-07-14"}},"brand":"Galp"},{"id":200065775,"lat":40.64252,"lng":-7.86342,"addr":"Recta do Caçador","city":"Rio de Loba","cp":"3500-000","fuels":{"Gazole":{"p":1.914,"d":"2026-07-14"},"SP95":{"p":1.946,"d":"2026-07-14"}},"brand":"Galp"},{"id":200065778,"lat":40.66333,"lng":-7.905845,"addr":"Rua de Arrabalde (Estrada da Circunvalação - EN2)","city":"Viseu","cp":"3500-084","fuels":{"Gazole":{"p":1.914,"d":"2026-07-14"},"SP95":{"p":1.946,"d":"2026-07-14"}},"brand":"Galp"},{"id":200092253,"lat":40.39775,"lng":-8.12854,"addr":"R. Miguel Neves","city":"Santa Comba Dão","cp":"3440-384","fuels":{"Gazole":{"p":1.919,"d":"2026-07-13"},"SP95":{"p":1.959,"d":"2026-07-13"},"GPLc":{"p":0.944,"d":"2026-07-13"}},"brand":"Repsol"},{"id":200085148,"lat":40.4961,"lng":-7.9047,"addr":"Rua da Estação - Lugar da Raposeira","city":"Canas de Senhorim","cp":"3525-018","fuels":{"Gazole":{"p":1.919,"d":"2026-07-13"},"SP95":{"p":1.959,"d":"2026-07-13"},"GPLc":{"p":0.944,"d":"2026-07-13"}},"brand":"Repsol"},{"id":200074719,"lat":40.39214,"lng":-8.0899,"addr":"EN234 KM67,7 - CANCELA, SÃO JOAO DA AREIA","city":"STA COMBA DAO","cp":"3440-451","fuels":{"Gazole":{"p":1.919,"d":"2026-07-13"},"SP95":{"p":1.959,"d":"2026-07-13"}},"brand":"Repsol"},{"id":200069768,"lat":40.66475,"lng":-8.22308,"addr":"Sitio da Feiteira - Campia","city":"Vouzela - Campia","cp":"3670-056","fuels":{"Gazole":{"p":1.919,"d":"2026-07-13"},"SP95":{"p":1.959,"d":"2026-07-13"}},"brand":"Repsol"},{"id":200094422,"lat":40.619534,"lng":-8.094141,"addr":"Estrada Nacional 228 nº 1799","city":"CAPARROSA","cp":"3465-101","fuels":{"Gazole":{"p":1.919,"d":"2026-07-13"},"SP95":{"p":1.959,"d":"2026-07-13"}},"brand":"Repsol"},{"id":200095205,"lat":41.05134,"lng":-7.46969,"addr":"EN 505, BAIRRO DO CRUZEIRO 57","city":"Paredes da Beira","cp":"5130-272","fuels":{"Gazole":{"p":1.919,"d":"2026-07-13"},"SP95":{"p":1.959,"d":"2026-07-13"}},"brand":"Repsol"},{"id":200094487,"lat":41.097977,"lng":-7.685744,"addr":"LUGAR BICA DO HOSPITAL","city":"Armamar","cp":"5110-152","fuels":{"Gazole":{"p":1.919,"d":"2026-07-13"},"SP95":{"p":1.959,"d":"2026-07-13"},"GPLc":{"p":1.024,"d":"2026-07-13"}},"brand":"Repsol"},{"id":200094507,"lat":40.397537,"lng":-8.129578,"addr":"P. Galp-Av General Humberto Delgado","city":"Santa Comba Dão","cp":"3440-325","fuels":{"Gazole":{"p":1.919,"d":"2026-07-13"},"SP95":{"p":1.951,"d":"2026-07-13"}},"brand":"Galp"},{"id":200094621,"lat":40.72417,"lng":-8.110905,"addr":"Variante de Vouzela","city":"Vouzela","cp":"3670-234","fuels":{"Gazole":{"p":1.919,"d":"2026-07-13"},"SP95":{"p":1.956,"d":"2026-07-13"},"GPLc":{"p":0.989,"d":"2026-07-13"}},"brand":"Galp"},{"id":200066834,"lat":40.9777,"lng":-7.61265,"addr":"Av. 25 de Abril nº 25 A","city":"Moimenta da Beira","cp":"3620-000","fuels":{"Gazole":{"p":1.919,"d":"2026-07-13"},"SP95":{"p":1.959,"d":"2026-07-13"}},"brand":"Repsol"},{"id":200066135,"lat":40.42621,"lng":-8.01439,"addr":"Av. Nª Srª das Febres - EN 234","city":"Currelos","cp":"3430-039","fuels":{"Gazole":{"p":1.919,"d":"2026-07-13"},"SP95":{"p":1.959,"d":"2026-07-13"}},"brand":"Repsol"},{"id":200066829,"lat":40.52932,"lng":-7.85549,"addr":"Praça Dr. José Veiga Simão","city":"Nelas","cp":"3520-000","fuels":{"Gazole":{"p":1.919,"d":"2026-07-13"},"SP95":{"p":1.959,"d":"2026-07-13"}},"brand":"Repsol"},{"id":200094498,"lat":41.107143,"lng":-7.692947,"addr":"Av. Dr. Oliveira Salazar","city":"Armamar","cp":"5110-122","fuels":{"Gazole":{"p":1.919,"d":"2026-07-13"},"SP95":{"p":1.951,"d":"2026-07-13"}},"brand":"Galp"},{"id":200069222,"lat":40.537857,"lng":-8.052477,"addr":"EN2 - Lugar de Naia","city":"Póvoa do Arcediago","cp":"3460-016","fuels":{"Gazole":{"p":1.919,"d":"2026-07-13"},"SP95":{"p":1.964,"d":"2026-07-13"},"GPLc":{"p":0.999,"d":"2026-07-13"}},"brand":"Prio"},{"id":200066828,"lat":41.0696,"lng":-8.232653,"addr":"Santa Eulália - Souselo","city":"Cinfães","cp":"4690-666","fuels":{"Gazole":{"p":1.919,"d":"2026-07-13"},"SP95":{"p":1.959,"d":"2026-07-13"}},"brand":"Repsol"},{"id":200066836,"lat":40.61653,"lng":-7.75982,"addr":"IP 5","city":"Lavandeira","cp":"3530-000","fuels":{"Gazole":{"p":1.919,"d":"2026-07-13"},"SP95":{"p":1.959,"d":"2026-07-13"},"GPLc":{"p":0.994,"d":"2026-07-13"}},"brand":"Repsol"},{"id":200093028,"lat":40.43128,"lng":-8.00802,"addr":"Av. Nª Srª das Febres, 34","city":"Carregal do Sal","cp":"3430-039","fuels":{"Gazole":{"p":1.919,"d":"2026-07-13"},"SP95":{"p":1.966,"d":"2026-07-13"}},"brand":"Alves Bandeira"},{"id":200071953,"lat":40.54424,"lng":-7.98026,"addr":"Av. do Areeiro nº1608","city":"Lageosa do Dão","cp":"3460-153","fuels":{"Gazole":{"p":1.919,"d":"2026-07-13"},"SP95":{"p":1.966,"d":"2026-07-13"},"SP98":{"p":2.136,"d":"2026-07-13"}},"brand":"Alves Bandeira"},{"id":200092470,"lat":40.706636,"lng":-8.168476,"addr":"R. Principal Cajadães","city":"SÃO VICENTE DE LAFÕES","cp":"3680-281","fuels":{"Gazole":{"p":1.919,"d":"2026-07-13"},"SP95":{"p":1.966,"d":"2026-07-13"},"SP98":{"p":2.116,"d":"2026-07-13"}},"brand":"Alves Bandeira"},{"id":200070211,"lat":41.079857,"lng":-7.430372,"addr":"Lg. Sra. da Graça / Av. do Progresso","city":"Trevões","cp":"5130-421","fuels":{"Gazole":{"p":1.919,"d":"2026-07-14"},"SP95":{"p":1.966,"d":"2026-07-14"},"SP98":{"p":2.106,"d":"2026-07-14"}},"brand":"Alves Bandeira"},{"id":200065613,"lat":40.75877,"lng":-8.06522,"addr":"Rua Dr. José Correia de Oliveira nº 85","city":"São Pedro do Sul","cp":"3660-000","fuels":{"Gazole":{"p":1.919,"d":"2026-07-14"},"SP95":{"p":1.956,"d":"2026-07-14"}},"brand":"Galp"},{"id":200065614,"lat":40.75895,"lng":-8.06529,"addr":"Rua Dr. José Correia de Oliveira","city":"São Pedro do Sul","cp":"3660-000","fuels":{"Gazole":{"p":1.919,"d":"2026-07-14"},"SP95":{"p":1.956,"d":"2026-07-14"}},"brand":"Galp"},{"id":200065501,"lat":40.728591,"lng":-8.17579,"addr":"Av.Dr Armenio Maia","city":"Oliveira de Frades","cp":"3680-115","fuels":{"Gazole":{"p":1.919,"d":"2026-07-14"},"SP95":{"p":1.956,"d":"2026-07-14"}},"brand":"Galp"},{"id":200093397,"lat":41.08775,"lng":-7.798573,"addr":"Quinta dos Prados de Baixo - Lugar da Rina","city":"Lamego","cp":"5100-196","fuels":{"Gazole":{"p":1.919,"d":"2026-07-14"},"SP95":{"p":1.959,"d":"2026-07-14"},"GPLc":{"p":0.915,"d":"2026-07-14"}},"brand":"Leclerc"},{"id":200094200,"lat":40.60447,"lng":-7.769239,"addr":"EN 16, Km 109,800 - Avenida dos Capitães","city":"Mangualde","cp":"3530-114","fuels":{"Gazole":{"p":1.919,"d":"2026-07-14"},"SP95":{"p":1.951,"d":"2026-07-14"}},"brand":"Galp"},{"id":200093767,"lat":40.821686,"lng":-7.995565,"addr":"Rua Principal, Nº8","city":"Ladreda","cp":"3660-116","fuels":{"Gazole":{"p":1.921,"d":"2026-07-13"},"SP95":{"p":1.962,"d":"2026-07-13"},"SP98":{"p":2.104,"d":"2026-07-13"}}},{"id":200095206,"lat":40.80595,"lng":-7.963794,"addr":"RUA DA LIBERDADE Nº47","city":"Pindelo dos Milagres","cp":"3660-174","fuels":{"Gazole":{"p":1.929,"d":"2026-07-13"},"SP95":{"p":1.969,"d":"2026-07-13"}},"brand":"Repsol"},{"id":200095203,"lat":40.82101,"lng":-8.045627,"addr":"RUA DA ABENEIRA - OLIVEIRA, SUL","city":"Oliveira","cp":"3660-625","fuels":{"Gazole":{"p":1.929,"d":"2026-07-13"},"SP95":{"p":1.969,"d":"2026-07-13"}},"brand":"Repsol"},{"id":200068664,"lat":40.55441,"lng":-8.03513,"addr":"Av. da Igreja - Canas Santa Maria - Tondela","city":"Tondela","cp":"3460-000","fuels":{"Gazole":{"p":1.929,"d":"2026-07-13"},"SP95":{"p":1.976,"d":"2026-07-13"}},"brand":"Alves Bandeira"},{"id":200067823,"lat":40.628082,"lng":-7.882887,"addr":"PARQUE IND.COIMBRÕES,LT E - COIMBRÕES","city":"Viseu","cp":"3500-885","fuels":{"Gazole":{"p":1.929,"d":"2026-07-13"},"SP95":{"p":1.976,"d":"2026-07-13"},"SP98":{"p":2.126,"d":"2026-07-13"}},"brand":"Alves Bandeira"},{"id":200066952,"lat":40.77911,"lng":-7.69609,"addr":"EM 581 (Estrada Principal)","city":"Lamas","cp":"3560-049","fuels":{"Gazole":{"p":1.929,"d":"2026-07-14"},"SP95":{"p":1.965,"d":"2026-07-14"},"SP98":{"p":2.069,"d":"2026-07-14"}},"brand":"BP"},{"id":200093357,"lat":41.005608,"lng":-8.186789,"addr":"Largo Francisco Sá CarneiroN225 65, 4690, Portugal","city":"S.bras Vila chá Lugar da Cruz","cp":"4690-343","fuels":{"Gazole":{"p":1.939,"d":"2026-07-13"},"SP95":{"p":1.989,"d":"2026-07-13"},"SP98":{"p":2.157,"d":"2026-07-13"}},"brand":"Freitas"},{"id":200074749,"lat":40.588932,"lng":-7.764251,"addr":"AV. MONTES HERMÍNIOS","city":"Mangualde","cp":"3530-116","fuels":{"Gazole":{"p":1.939,"d":"2026-07-13"},"SP95":{"p":1.979,"d":"2026-07-13"}},"brand":"BP"},{"id":200071585,"lat":40.608196,"lng":-7.727546,"addr":"RUA AZURARA DA BEIRA, 475","city":"Mangualde","cp":"3530-272","fuels":{"Gazole":{"p":1.939,"d":"2026-07-13"},"SP95":{"p":1.979,"d":"2026-07-13"},"SP98":{"p":2.239,"d":"2026-07-13"}},"brand":"BP"},{"id":200065224,"lat":40.910305,"lng":-7.928194,"addr":"Avenida Maria Alcina Fadista, 1156","city":"Castro Daire","cp":"3600-199","fuels":{"Gazole":{"p":1.949,"d":"2026-07-13"},"SP95":{"p":1.986,"d":"2026-07-13"},"GPLc":{"p":0.984,"d":"2026-07-13"}},"brand":"Galp"},{"id":200094692,"lat":41.07877,"lng":-8.197262,"addr":"Lugar do Negrão- Pinheiro Tarouquela","city":"Pinheiro","cp":"4690-722","fuels":{"Gazole":{"p":1.949,"d":"2026-07-13"},"SP95":{"p":1.999,"d":"2026-07-13"}},"brand":"Freitas"},{"id":200084891,"lat":40.68089,"lng":-7.926881,"addr":"RIBEIRA DE MIDE - VISEU","city":"Viseu","cp":"3515-419","fuels":{"Gazole":{"p":1.949,"d":"2026-07-13"},"SP95":{"p":1.989,"d":"2026-07-13"},"GPLc":{"p":0.999,"d":"2026-07-13"}},"brand":"BP"},{"id":200089556,"lat":40.898415,"lng":-7.485933,"addr":"Bairro do Sulminheiro","city":"Sernancelhe","cp":"3640-229","fuels":{"Gazole":{"p":1.949,"d":"2026-07-13"},"SP95":{"p":1.986,"d":"2026-07-13"}},"brand":"Galp"},{"id":200070777,"lat":40.625816,"lng":-7.780835,"addr":"Área de Serviço Roda - A25 - Km 103.4","city":"Roda","cp":"3530-254","fuels":{"Gazole":{"p":1.949,"d":"2026-07-14"},"SP95":{"p":1.989,"d":"2026-07-14"}},"brand":"BP"},{"id":200070796,"lat":40.62519,"lng":-7.781214,"addr":"Área de Serviço Roda - A 25 - Km 103,4","city":"Roda","cp":"3530-254","fuels":{"Gazole":{"p":1.949,"d":"2026-07-14"},"SP95":{"p":1.989,"d":"2026-07-14"}},"brand":"BP"},{"id":200065537,"lat":40.990119,"lng":-7.39852,"addr":"Curva da Costinha","city":"Penedono","cp":"3630-000","fuels":{"Gazole":{"p":1.949,"d":"2026-07-14"},"SP95":{"p":1.986,"d":"2026-07-14"}},"brand":"Galp"},{"id":200065239,"lat":41.07314,"lng":-8.09386,"addr":"EN 321- Km 24,792","city":"Lugar dos Outeirinhos","cp":"4690-000","fuels":{"Gazole":{"p":1.949,"d":"2026-07-14"},"SP95":{"p":1.986,"d":"2026-07-14"}},"brand":"Galp"},{"id":200065781,"lat":40.686817,"lng":-8.230022,"addr":"A25 km 53,600","city":"Campia","cp":"3670-056","fuels":{"Gazole":{"p":1.949,"d":"2026-07-14"},"SP95":{"p":1.989,"d":"2026-07-14"},"GPLc":{"p":0.999,"d":"2026-07-14"}},"brand":"Galp"},{"id":200065782,"lat":40.686275,"lng":-8.232481,"addr":"A.E. A25 - IP5, Km 7,90 e 8,30 do Sub -Lanço Talhadas/Vouzela - Lanço Nódo IC2","city":"Campia","cp":"3670-056","fuels":{"Gazole":{"p":1.949,"d":"2026-07-14"},"SP95":{"p":1.989,"d":"2026-07-14"},"GPLc":{"p":0.999,"d":"2026-07-14"}},"brand":"Galp"},{"id":200066825,"lat":40.62436,"lng":-7.931222,"addr":"A 25 Sub lanço Nó de Fail/Nelas, entre KM 2,300 e  o Km 2,700","city":"Vil de Soito","cp":"3510-899","fuels":{"Gazole":{"p":1.949,"d":"2026-07-14"},"SP95":{"p":1.989,"d":"2026-07-14"}},"brand":"Repsol"},{"id":200066826,"lat":40.623898,"lng":-7.933134,"addr":"A 25 Sub lanço Nó de Fail/Nelas, entre KM 2,300 e  o Km 2,700","city":"Vil de Soito","cp":"3510-899","fuels":{"Gazole":{"p":1.949,"d":"2026-07-14"},"SP95":{"p":1.989,"d":"2026-07-14"}},"brand":"Repsol"},{"id":200078756,"lat":41.08588,"lng":-8.042415,"addr":"Rua de Oliveira do Douro, nº 2003","city":"Oliveira do Douro","cp":"4690-420","fuels":{"Gazole":{"p":1.949,"d":"2026-07-14"},"SP95":{"p":1.986,"d":"2026-07-14"}},"brand":"Freitas"},{"id":200066239,"lat":40.507565,"lng":-8.080571,"addr":"Av. Dr. Francisco Sá Carneiro, 600","city":"Tondela","cp":"3460-523","fuels":{"Gazole":{"p":1.951,"d":"2026-07-13"},"SP95":{"p":1.988,"d":"2026-07-13"}},"brand":"Cepsa"},{"id":200066945,"lat":41.1638,"lng":-7.47092,"addr":"EN 222 Km 163,5(Rua da Praça nº 47)","city":"Ervedosa do Douro","cp":"5130-072","fuels":{"Gazole":{"p":1.953,"d":"2026-07-13"},"SP95":{"p":1.997,"d":"2026-07-13"}},"brand":"Galp"},{"id":200069773,"lat":40.725243,"lng":-7.909513,"addr":"EST. NAC. Nº 2 - MUNA","city":"São João de Lourosa","cp":"3500-000","fuels":{"Gazole":{"p":1.953,"d":"2026-07-13"},"SP95":{"p":1.997,"d":"2026-07-13"}},"brand":"Galp"},{"id":200065617,"lat":40.75569,"lng":-7.72737,"addr":"EN 229 Km 69.800","city":"Longra","cp":"3560-085","fuels":{"Gazole":{"p":1.953,"d":"2026-07-13"},"SP95":{"p":1.997,"d":"2026-07-13"},"GPLc":{"p":0.959,"d":"2026-07-13"}},"brand":"Galp"},{"id":200065503,"lat":40.73261,"lng":-8.17657,"addr":"EN 16 (Rua António José Almeida)","city":"Oliveira de Frades","cp":"3680-000","fuels":{"Gazole":{"p":1.953,"d":"2026-07-13"},"SP95":{"p":1.997,"d":"2026-07-13"}},"brand":"Gaspe"},{"id":200091105,"lat":40.96613,"lng":-8.007909,"addr":"Portas de Montemuro - Parada de Ester - Castro Daire","city":"Parada de Ester","cp":"3600-508","fuels":{"Gazole":{"p":1.953,"d":"2026-07-13"},"SP95":{"p":1.997,"d":"2026-07-13"}},"brand":"Galp"},{"id":200093817,"lat":40.77644,"lng":-7.915753,"addr":"Av. das Amoreiras","city":"Calde","cp":"3515-726","fuels":{"Gazole":{"p":1.953,"d":"2026-07-14"},"SP95":{"p":1.997,"d":"2026-07-14"},"SP98":{"p":2.17,"d":"2026-07-14"}},"brand":"Alves Bandeira"},{"id":200094506,"lat":40.517345,"lng":-8.081781,"addr":"Av. Visconde de Tondela","city":"Tondela","cp":"3460-589","fuels":{"Gazole":{"p":1.954,"d":"2026-07-13"},"SP95":{"p":1.991,"d":"2026-07-13"}},"brand":"Galp"},{"id":200066393,"lat":40.736244,"lng":-7.726742,"addr":"Avenida Conde Dom Henrique, nº 1034","city":"Sátão","cp":"3560-183","fuels":{"Gazole":{"p":1.959,"d":"2026-07-13"},"SP95":{"p":1.999,"d":"2026-07-13"}},"brand":"BP"},{"id":200067705,"lat":40.90167,"lng":-7.93316,"addr":"Av. General Humberto Delgado, n.º53","city":"Castro Daire","cp":"3600-187","fuels":{"Gazole":{"p":1.959,"d":"2026-07-13"},"SP95":{"p":1.999,"d":"2026-07-13"}},"brand":"BP"},{"id":200065584,"lat":41.10586,"lng":-7.95642,"addr":"EN 222 Km 104,05","city":"Resende- Cruz","cp":"4660-226","fuels":{"Gazole":{"p":1.959,"d":"2026-07-14"},"SP95":{"p":1.996,"d":"2026-07-14"}},"brand":"Galp"},{"id":200094335,"lat":41.031574,"lng":-7.775302,"addr":"Avª Ordem de Cister","city":"Castanheiro do Ouro","cp":"3610-103","fuels":{"Gazole":{"p":1.959,"d":"2026-07-14"},"SP95":{"p":1.999,"d":"2026-07-14"}},"brand":"Galp"},{"id":200073235,"lat":40.985801,"lng":-7.56649,"addr":"EN 323","city":"Baldos - Ladeiras","cp":"3620-085","fuels":{"Gazole":{"p":1.96,"d":"2026-07-13"},"SP95":{"p":2.004,"d":"2026-07-13"},"SP98":{"p":2.104,"d":"2026-07-13"}},"brand":"Freitas"},{"id":200066143,"lat":41.079297,"lng":-8.102443,"addr":"EN 222","city":"Lugar de Quintela","cp":"4690-058","fuels":{"Gazole":{"p":1.961,"d":"2026-07-13"},"SP95":{"p":1.998,"d":"2026-07-13"}},"brand":"Cepsa"},{"id":200065982,"lat":40.403808,"lng":-8.231257,"addr":"EN 234 Km 52","city":"Mortágua - Gandarada","cp":"3450-153","fuels":{"Gazole":{"p":1.969,"d":"2026-07-13"},"SP95":{"p":2.009,"d":"2026-07-13"}},"brand":"BP"},{"id":200066837,"lat":40.67025,"lng":-7.707789,"addr":"Penalva do Castelo","city":"Penalva do Castelo","cp":"3550-000","fuels":{"Gazole":{"p":1.969,"d":"2026-07-13"},"SP95":{"p":2.009,"d":"2026-07-13"}},"brand":"Repsol"},{"id":200081370,"lat":41.095556,"lng":-7.818333,"addr":"Rotunda Dr. Fernando Amaral,\nAlmacave","city":"Lamego","cp":"5100-201","fuels":{"Gazole":{"p":1.969,"d":"2026-07-13"},"SP95":{"p":2.009,"d":"2026-07-13"}},"brand":"Repsol"},{"id":200070423,"lat":40.78334,"lng":-8.25148,"addr":"EN 227","city":"Conlela de São João da Serra","cp":"3680-262","fuels":{"Gazole":{"p":1.969,"d":"2026-07-13"},"SP95":{"p":2.016,"d":"2026-07-13"},"SP98":{"p":2.166,"d":"2026-07-13"}},"brand":"Alves Bandeira"},{"id":200065615,"lat":40.759145,"lng":-8.064687,"addr":"Rua Dr. José Correia de Oliveira nº 85","city":"São Pedro do Sul","cp":"3660-462","fuels":{"Gazole":{"p":1.969,"d":"2026-07-13"},"SP95":{"p":1.999,"d":"2026-07-13"}},"brand":"BP"},{"id":200065339,"lat":41.09896,"lng":-7.80726,"addr":"EN 2 (Rua Infantaria nº9)","city":"Cidade de Lamego","cp":"5100-000","fuels":{"Gazole":{"p":1.969,"d":"2026-07-14"},"SP95":{"p":2.009,"d":"2026-07-14"}},"brand":"Galp"},{"id":200065340,"lat":41.09254,"lng":-7.80468,"addr":"Desterro, Estrada Nova, Sé","city":"Largo do Desterro","cp":"5100-000","fuels":{"Gazole":{"p":1.969,"d":"2026-07-14"},"SP95":{"p":2.009,"d":"2026-07-14"}},"brand":"Galp"},{"id":200093410,"lat":40.693032,"lng":-7.929335,"addr":"AVª. ALTO DE ABRAVESES - EN16","city":"VISEU","cp":"3515-828","fuels":{"Gazole":{"p":1.979,"d":"2026-07-13"},"SP95":{"p":2.014,"d":"2026-07-13"}},"brand":"Shell"},{"id":200069925,"lat":40.69431,"lng":-8.14016,"addr":"Lamas - Estr.Nacional 333","city":"Paços de Vilharigues","cp":"3670-151","fuels":{"Gazole":{"p":1.979,"d":"2026-07-13"},"SP95":{"p":2.019,"d":"2026-07-13"}},"brand":"BP"},{"id":200066936,"lat":41.11792,"lng":-7.890853,"addr":"Rua 11 de Novembro 3198","city":"Nogueiras","cp":"4660-376","fuels":{"Gazole":{"p":1.989,"d":"2026-07-13"},"SP95":{"p":2.039,"d":"2026-07-13"}},"brand":"BP"},{"id":200092263,"lat":41.109461,"lng":-7.953167,"addr":"EN222, R. Seminário, s/n","city":"Resende","cp":"4660-210","fuels":{"Gazole":{"p":1.989,"d":"2026-07-13"},"SP95":{"p":2.039,"d":"2026-07-13"}},"brand":"BP"},{"id":200075180,"lat":40.7075,"lng":-7.943055,"addr":"A24 Castro Daire Sul – Nó do IP5","city":"Bodiosa a Nova","cp":"3515-512","fuels":{"Gazole":{"p":1.998,"d":"2026-07-13"},"SP95":{"p":2.037,"d":"2026-07-13"},"GPLc":{"p":0.999,"d":"2026-07-13"}}},{"id":200074435,"lat":40.96754,"lng":-7.889919,"addr":"A24 Entre Bigorne e Reconcos","city":"Mézio","cp":"3600-403","fuels":{"Gazole":{"p":1.998,"d":"2026-07-13"},"SP95":{"p":2.037,"d":"2026-07-13"}},"brand":"OZ Energia"},{"id":200067896,"lat":41.028057,"lng":-7.765267,"addr":"E. N. 226","city":"Dalvares","cp":"3610-013","fuels":{"Gazole":{"p":1.999,"d":"2026-07-13"},"SP95":{"p":2.039,"d":"2026-07-13"}},"brand":"BP"},{"id":200067700,"lat":40.553726,"lng":-8.132674,"addr":"Av. Dr. Afonso Costa","city":"Campo de Besteiros","cp":"3465-051","fuels":{"Gazole":{"p":1.999,"d":"2026-07-13"},"SP95":{"p":2.039,"d":"2026-07-13"}},"brand":"BP"},{"id":200068888,"lat":40.52489,"lng":-8.08522,"addr":"Rua Eduardo António Coimbra","city":"Tondela","cp":"3460-591","fuels":{"Gazole":{"p":1.999,"d":"2026-07-13"},"SP95":{"p":2.039,"d":"2026-07-13"}},"brand":"BP"},{"id":200077257,"lat":41.06233,"lng":-7.78948,"addr":"EN226, ao Km 17, Lugar da Estrada Nova","city":"Britiande","cp":"5100-345","fuels":{"Gazole":{"p":1.999,"d":"2026-07-13"},"SP95":{"p":2.039,"d":"2026-07-13"}},"brand":"BP"},{"id":200068713,"lat":40.52366,"lng":-8.07253,"addr":"Av. Eng. Adelino Amaro da Costa, 1095","city":"Tondela","cp":"3460-592","fuels":{"Gazole":{"p":1.999,"d":"2026-07-14"},"SP95":{"p":2.039,"d":"2026-07-14"}},"brand":"BP"},{"id":200077871,"lat":40.85823,"lng":-7.71581,"addr":"RUA PADRE MANUEL RAMOS PINTO Nº63","city":"Vila Nova de Paiva","cp":"3650-240","fuels":{"SP95":{"p":1.924,"d":"2026-07-07"},"SP98":{"p":2.119,"d":"2026-07-07"}},"brand":"Prio"},{"id":200065536,"lat":40.66995,"lng":-7.70897,"addr":"EN 329-1 (Frente à Adega Cooperativa)","city":"Sangemil","cp":"3550-166","fuels":{"SP95":{"p":1.934,"d":"2026-07-07"},"SP98":{"p":2.109,"d":"2026-07-07"}},"brand":"Prio"},{"id":200082301,"lat":40.9034,"lng":-7.47205,"addr":"EN 229","city":"Sarzeda","cp":"3640-229","fuels":{"SP95":{"p":1.949,"d":"2026-07-07"},"SP98":{"p":2.119,"d":"2026-07-07"}},"brand":"Prio"},{"id":200066849,"lat":40.714237,"lng":-8.204861,"addr":"Zona Industrial de Oliveira de Frades, Lote 82","city":"Vilarinho","cp":"3684-001","fuels":{"SP95":{"p":1.954,"d":"2026-07-13"}},"brand":"Prio"},{"id":200081378,"lat":40.648167,"lng":-7.874167,"addr":"Antiga EN 16, Póvoa de Sobrinhos, Rio de Loba","city":"Rio de Loba","cp":"3505-481","fuels":{"SP95":{"p":1.954,"d":"2026-07-13"}},"brand":"Prio"},{"id":200071526,"lat":41.115917,"lng":-7.575432,"addr":"Estrada Nacional 226-2 Km 44.1 - Lugar da Sertã","city":"Sertã","cp":"5120-373","fuels":{"SP95":{"p":1.954,"d":"2026-07-13"}},"brand":"Prio"},{"id":200069761,"lat":40.689682,"lng":-8.056518,"addr":"EN 337","city":"Queirã","cp":"3670-174","fuels":{"SP95":{"p":1.954,"d":"2026-07-13"}},"brand":"Prio"},{"id":200066293,"lat":40.44715,"lng":-7.968369,"addr":"ESTRADA NACIONAL 234, KM 77,900, OLIVEIRINHA","city":"Oliveira do Conde","cp":"3430-341","fuels":{"SP95":{"p":1.954,"d":"2026-07-13"}},"brand":"Prio"}]