[{"id":2400008,"lat":49.043,"lng":3.395,"addr":"13 Avenue Jules Lefèbvre","city":"Château-Thierry","cp":"02400","fuels":{"Gazole":{"p":2.299,"d":"2026-04-22"},"E10":{"p":2.199,"d":"2026-04-22"},"SP98":{"p":2.249,"d":"2026-04-22"}},"brand":"Avia","h24":true,"services":["Toilettes publiques","Boutique alimentaire","Restauration à emporter","Restauration sur place","Vente de gaz domestique (Butane, Propane)","Automate CB 24/24"]},{"id":2420001,"lat":49.96029,"lng":3.2316,"addr":"39 Rue de Picardie","city":"Bellicourt","cp":"02420","fuels":{"Gazole":{"p":2.09,"d":"2026-05-01"},"SP95":{"p":1.99,"d":"2026-04-14"}},"brand":"Total Contact","services":["Toilettes publiques","Boutique alimentaire","Boutique non alimentaire","Restauration à emporter","Restauration sur place","Bar","Station de gonflage","Carburant additivé","Piste poids lourds","Lavage manuel"]},{"id":2460003,"lat":49.184986815428,"lng":3.1213787735998997,"addr":"12 rue de villers","city":"La Ferté-Milon","cp":"02460","fuels":{"Gazole":{"p":2.249,"d":"2026-04-29"},"SP95":{"p":2.15,"d":"2026-03-24"},"E85":{"p":0.89,"d":"2026-04-21"},"SP98":{"p":2.25,"d":"2026-03-24"}},"brand":"Carrefour","h24":true,"services":["Relais colis","Vente de gaz domestique (Butane, Propane)","Automate CB 24/24"]},{"id":2100018,"lat":49.842,"lng":3.284,"addr":"25 Boulevard Victor Hugo","city":"SAINT-QUENTIN","cp":"02100","fuels":{"Gazole":{"p":2.199,"d":"2026-04-29"},"E10":{"p":1.999,"d":"2026-04-29"}},"brand":"D.M. Combustibles","h24":true,"services":["Vente de fioul domestique","Carburant additivé","Vente de gaz domestique (Butane, Propane)","Automate CB 24/24","DAB (Distributeur automatique de billets)"]},{"id":2480002,"lat":49.73353618049801,"lng":3.2450595752320996,"addr":"Rond point de la victoire","city":"Jussy","cp":"02480","fuels":{"Gazole":{"p":2.229,"d":"2026-04-28"},"E85":{"p":0.849,"d":"2026-04-17"},"E10":{"p":2.032,"d":"2026-04-28"},"SP98":{"p":2.156,"d":"2026-04-28"}},"brand":"Carrefour","services":["Boutique alimentaire","Restauration à emporter","Carburant additivé","Piste poids lourds","Vente de gaz domestique (Butane, Propane)","DAB (Distributeur automatique de billets)"]},{"id":2200010,"lat":49.37046,"lng":3.32985,"addr":"43 Avenue de Château-Thierry","city":"Belleu","cp":"02200","fuels":{"Gazole":{"p":2.159,"d":"2026-04-30"},"E85":{"p":0.818,"d":"2026-04-17"},"E10":{"p":1.979,"d":"2026-04-30"},"SP98":{"p":2.058,"d":"2026-04-30"}},"brand":"Intermarché","services":["Vente de gaz domestique (Butane, Propane)"]},{"id":2230002,"lat":49.958,"lng":3.43,"addr":"1000 rue jean jaures","city":"Fresnoy-le-Grand","cp":"02230","fuels":{"Gazole":{"p":2.18,"d":"2026-04-30"},"SP95":{"p":2.032,"d":"2026-04-30"},"SP98":{"p":2.12,"d":"2026-04-30"}},"brand":"Carrefour","services":["Station de gonflage","Vente de gaz domestique (Butane, Propane)"]},{"id":2310001,"lat":48.976,"lng":3.28,"addr":"route de pavant","city":"CHARLY","cp":"02310","fuels":{"Gazole":{"p":2.139,"d":"2026-04-29"},"SP95":{"p":1.994,"d":"2026-04-29"},"E85":{"p":0.749,"d":"2026-04-29"},"SP98":{"p":2.047,"d":"2026-04-29"}},"brand":"Système U","services":["Laverie","Relais colis","Station de gonflage","Location de véhicule","Lavage manuel","Vente de gaz domestique (Butane, Propane)","DAB (Distributeur automatique de billets)"]},{"id":2450003,"lat":49.9772968,"lng":3.6768151000000002,"addr":"16 RUE DU 2 SEPTEMBRE 1944","city":"La Neuville-lès-Dorengt","cp":"02450","fuels":{"Gazole":{"p":2.164,"d":"2026-04-25"},"SP95":{"p":2.047,"d":"2026-04-25"},"SP98":{"p":2.133,"d":"2026-04-25"}},"brand":"Carrefour","services":["Laverie","Relais colis","Vente de gaz domestique (Butane, Propane)"]},{"id":2190007,"lat":49.435036675202,"lng":3.9668949241097,"addr":"3 Rue Pierre Curtil","city":"Guignicourt","cp":"02190","fuels":{"Gazole":{"p":2.149,"d":"2026-04-23"},"SP95":{"p":2.029,"d":"2026-04-23"},"SP98":{"p":2.089,"d":"2026-04-23"}},"brand":"Carrefour","h24":true,"services":["Automate CB 24/24"]},{"id":2400007,"lat":49.055315837997,"lng":3.3991661028551,"addr":"ZC LA MOISERIE ROUTE DE SOISSONS","city":"Château-Thierry","cp":"02400","fuels":{"Gazole":{"p":2.189,"d":"2026-04-30"},"SP95":{"p":2.07,"d":"2026-04-30"},"SP98":{"p":2.135,"d":"2026-04-30"}},"brand":"Netto","services":["DAB (Distributeur automatique de billets)"]},{"id":2300001,"lat":49.64287,"lng":3.2595,"addr":"RD 338","city":"Viry-Noureuil","cp":"02300","fuels":{"Gazole":{"p":2.149,"d":"2026-04-27"},"E85":{"p":0.819,"d":"2026-04-27"},"E10":{"p":1.999,"d":"2026-04-27"},"SP98":{"p":2.099,"d":"2026-04-27"}},"brand":"Auchan","services":["Toilettes publiques","Boutique non alimentaire","Restauration à emporter","Restauration sur place","Bar","Vente de fioul domestique","Vente de pétrole lampant","Station de gonflage","Carburant additivé","Lavage automatique","Espace bébé","Vente de gaz domestique (Butane, Propane)","DAB (Distributeur automatique de billets)"]},{"id":2130005,"lat":49.125859309723,"lng":3.536447669516,"addr":"autoroute A4 aire de tardenois sud","city":"Fresnes-en-Tardenois","cp":"02130","fuels":{"Gazole":{"p":2.359,"d":"2026-04-26"},"GPLc":{"p":1.13,"d":"2026-04-26"},"E10":{"p":2.139,"d":"2026-04-26"},"SP98":{"p":2.239,"d":"2026-04-26"}},"brand":"Avia","services":["Toilettes publiques","Douches","Boutique alimentaire","Boutique non alimentaire","Restauration à emporter","Restauration sur place","Station de gonflage","Carburant additivé","Piste poids lourds","Espace bébé"]},{"id":2603001,"lat":49.24,"lng":3.098,"addr":"Avenue de la Ferté Milon","city":"VILLERS-COTTERêTS","cp":"02600","fuels":{"Gazole":{"p":2.198,"d":"2026-04-30"},"SP95":{"p":2.065,"d":"2026-04-30"},"E85":{"p":0.808,"d":"2026-04-30"},"E10":{"p":2.009,"d":"2026-04-30"},"SP98":{"p":2.108,"d":"2026-04-30"}},"brand":"Leclerc","services":["Vente de pétrole lampant","Station de gonflage","Piste poids lourds","Lavage automatique","Vente de gaz domestique (Butane, Propane)","DAB (Distributeur automatique de billets)"]},{"id":2470001,"lat":49.169,"lng":3.257,"addr":"2 RUE Jese RACINE","city":"Neuilly-Saint-Front","cp":"02470","fuels":{"Gazole":{"p":2.198,"d":"2026-04-30"},"E10":{"p":2.009,"d":"2026-04-30"},"SP98":{"p":2.108,"d":"2026-04-30"}},"brand":"Leclerc","h24":true,"services":["Automate CB 24/24"]},{"id":2120006,"lat":49.894,"lng":3.635,"addr":"1 RUE SADI CARNOT","city":"GUISE","cp":"02120","fuels":{"Gazole":{"p":2.215,"d":"2026-04-29"},"SP95":{"p":2.04,"d":"2026-04-29"},"SP98":{"p":2.127,"d":"2026-04-29"}},"brand":"Carrefour","h24":true,"services":["Automate CB 24/24"]},{"id":2300006,"lat":49.62645,"lng":3.21575,"addr":"Boulevard de l'Europe","city":"Chauny","cp":"02300","fuels":{"Gazole":{"p":2.199,"d":"2026-05-01"},"E85":{"p":0.819,"d":"2026-04-15"},"GPLc":{"p":0.953,"d":"2025-08-18"},"E10":{"p":2.009,"d":"2026-05-01"},"SP98":{"p":2.099,"d":"2026-04-14"}},"brand":"Intermarché","services":["Vente de fioul domestique","Vente de gaz domestique (Butane, Propane)","DAB (Distributeur automatique de billets)"]},{"id":2130001,"lat":49.201,"lng":3.511,"addr":"Rue du Stade","city":"FèRE-EN-TARDENOIS","cp":"02130","fuels":{"Gazole":{"p":2.139,"d":"2026-04-30"},"SP95":{"p":1.994,"d":"2026-04-30"},"E85":{"p":0.799,"d":"2026-04-30"}},"brand":"Système U","services":["Location de véhicule","Lavage automatique","Lavage manuel","Vente de gaz domestique (Butane, Propane)","DAB (Distributeur automatique de billets)"]},{"id":2130006,"lat":49.12695433209,"lng":3.5374234517177996,"addr":"Autoroute de l'Est","city":"Fresnes-en-Tardenois","cp":"02130","fuels":{"Gazole":{"p":2.359,"d":"2026-04-26"},"GPLc":{"p":1.13,"d":"2026-04-26"},"E10":{"p":2.139,"d":"2026-04-26"},"SP98":{"p":2.239,"d":"2026-04-26"}},"brand":"Avia","services":["Toilettes publiques","Boutique alimentaire","Boutique non alimentaire","Restauration à emporter","Carburant additivé","Aire de camping-cars","Piste poids lourds","Espace bébé"]},{"id":2000009,"lat":49.582570669759,"lng":3.6442513545677,"addr":"167 Avenue Pierre Mendès France","city":"Laon","cp":"02000","fuels":{"Gazole":{"p":2.154,"d":"2026-04-30"},"SP95":{"p":2.02,"d":"2026-04-29"},"E10":{"p":1.989,"d":"2026-04-30"},"SP98":{"p":2.055,"d":"2026-04-29"}},"brand":"Intermarché","services":["Toilettes publiques","Laverie","Vente de pétrole lampant","Station de gonflage","Piste poids lourds","Lavage automatique","Lavage manuel","Vente de gaz domestique (Butane, Propane)","Bornes électriques","DAB (Distributeur automatique de billets)"]},{"id":2100019,"lat":49.84785,"lng":3.30117,"addr":"153 Rue de Mulhouse","city":"SAINT-QUENTIN","cp":"02100","fuels":{"Gazole":{"p":2.196,"d":"2026-04-30"},"SP95":{"p":2.047,"d":"2026-04-30"},"E85":{"p":0.819,"d":"2026-04-16"},"SP98":{"p":2.067,"d":"2026-04-30"}},"brand":"Intermarché","services":["Vente de gaz domestique (Butane, Propane)","DAB (Distributeur automatique de billets)"]},{"id":2620001,"lat":49.960603600000006,"lng":3.8238007,"addr":"12 Rue Nationale","city":"Buironfosse","cp":"02620","fuels":{"Gazole":{"p":2.299,"d":"2026-04-14"},"E10":{"p":2.069,"d":"2026-04-14"}},"brand":"Gulf","h24":true,"services":["Automate CB 24/24"]},{"id":2000005,"lat":49.569,"lng":3.646,"addr":"97 Avenue Charles de Gaulle","city":"Laon","cp":"02000","fuels":{"Gazole":{"p":2.25,"d":"2026-04-27"},"E10":{"p":1.99,"d":"2026-04-24"},"SP98":{"p":1.99,"d":"2026-04-24"}},"brand":"TotalEnergies","h24":true,"services":["Toilettes publiques","Relais colis","Boutique alimentaire","Boutique non alimentaire","Restauration à emporter","Station de gonflage","Carburant additivé","Piste poids lourds","Lavage automatique","Services réparation / entretien","Vente de gaz domestique (Butane, Propane)","Vente d'additifs carburants","Automate CB 24/24"]},{"id":2500001,"lat":49.911174181842,"lng":4.0900804252982,"addr":"AVENUE DE VERDUN","city":"HIRSON","cp":"02500","fuels":{"Gazole":{"p":2.214,"d":"2026-04-30"},"E85":{"p":0.818,"d":"2026-04-21"},"GPLc":{"p":1.05,"d":"2026-04-16"},"E10":{"p":1.99,"d":"2026-04-30"},"SP98":{"p":2.07,"d":"2026-04-30"}},"brand":"Auchan","services":["Carburant additivé","Piste poids lourds","Vente de gaz domestique (Butane, Propane)","DAB (Distributeur automatique de billets)"]},{"id":2100008,"lat":49.844,"lng":3.279,"addr":"46 Avenue Faidherbe","city":"Saint-Quentin","cp":"02100","fuels":{"Gazole":{"p":2.228,"d":"2026-04-30"},"E10":{"p":2.02,"d":"2026-04-30"},"SP98":{"p":2.1,"d":"2026-04-30"}},"brand":"Esso"},{"id":2340002,"lat":49.63,"lng":4.025,"addr":"89 Grand Rue","city":"Dizy-le-Gros","cp":"02340","fuels":{"Gazole":{"p":2.209,"d":"2026-04-27"},"E10":{"p":2.049,"d":"2026-04-23"}},"brand":"Gulf","h24":true,"services":["Automate CB 24/24"]},{"id":2310002,"lat":49.196,"lng":3.514,"addr":"47 Rue Jules Lefèbvre","city":"Fère-en-Tardenois","cp":"02130","fuels":{"Gazole":{"p":2.449,"d":"2026-04-10"},"SP95":{"p":2.219,"d":"2026-04-08"},"SP98":{"p":2.299,"d":"2026-04-08"}},"brand":"Avia","h24":true,"services":["Toilettes publiques","Relais colis","Boutique non alimentaire","Station de gonflage","Carburant additivé","Lavage automatique","Services réparation / entretien","Vente de gaz domestique (Butane, Propane)","Automate CB 24/24","DAB (Distributeur automatique de billets)"]},{"id":2000007,"lat":49.57,"lng":3.621,"addr":"16 Boulevard Pierre Brossolette","city":"Laon","cp":"02000","fuels":{"Gazole":{"p":2.184,"d":"2026-04-30"},"E85":{"p":0.926,"d":"2026-04-30"},"E10":{"p":2.019,"d":"2026-04-30"},"SP98":{"p":2.055,"d":"2026-04-30"}},"brand":"Esso"},{"id":2000008,"lat":49.587,"lng":3.649,"addr":"rue Jean Jaures","city":"CHAMBRY","cp":"02000","fuels":{"Gazole":{"p":2.178,"d":"2026-04-30"},"E85":{"p":0.829,"d":"2026-04-21"},"GPLc":{"p":0.995,"d":"2026-01-21"},"E10":{"p":1.999,"d":"2026-04-30"},"SP98":{"p":2.039,"d":"2026-04-29"}},"brand":"Leclerc","services":["Location de véhicule","Piste poids lourds","Vente de gaz domestique (Butane, Propane)"]},{"id":2250004,"lat":49.75,"lng":3.772,"addr":"18 route de Thiernu","city":"Marle","cp":"02250","fuels":{"Gazole":{"p":2.09,"d":"2026-05-01"},"E10":{"p":1.99,"d":"2026-04-25"},"SP98":{"p":1.99,"d":"2026-04-25"}},"brand":"TotalEnergies","h24":true,"services":["Relais colis","Boutique alimentaire","Boutique non alimentaire","Bar","Vente de fioul domestique","Vente de pétrole lampant","Station de gonflage","Piste poids lourds","Lavage automatique","Lavage manuel","Espace bébé","Vente de gaz domestique (Butane, Propane)","Automate CB 24/24"]},{"id":2200015,"lat":49.371,"lng":3.341,"addr":"9 ET 11 RUE DE VILLENEUVE","city":"SOISSONS","cp":"02200","fuels":{"Gazole":{"p":2.09,"d":"2026-05-01"},"E85":{"p":0.839,"d":"2026-05-01"},"GPLc":{"p":1.006,"d":"2026-05-01"},"E10":{"p":1.99,"d":"2026-05-01"}},"brand":"TotalEnergies","h24":true,"services":["Boutique alimentaire","Station de gonflage","Piste poids lourds","Lavage automatique","Vente de gaz domestique (Butane, Propane)","Vente d'additifs carburants","Wifi","Automate CB 24/24"]},{"id":2000003,"lat":49.5700531713,"lng":3.60820562241,"addr":"16 RUE FERNAND CHRIST","city":"LAON","cp":"02000","fuels":{"Gazole":{"p":2.19,"d":"2026-04-30"},"SP95":{"p":2.04,"d":"2026-04-30"},"SP98":{"p":2.15,"d":"2026-04-30"}},"brand":"Carrefour","services":["Vente de gaz domestique (Butane, Propane)","DAB (Distributeur automatique de billets)"]},{"id":2800004,"lat":49.66023,"lng":3.37185,"addr":"1 Chemin de Danizy","city":"LA FèRE","cp":"02800","fuels":{"Gazole":{"p":2.179,"d":"2026-04-24"},"SP95":{"p":2.095,"d":"2026-04-09"},"SP98":{"p":2.179,"d":"2026-04-09"}},"brand":"Carrefour","services":["Boutique alimentaire","Vente de gaz domestique (Butane, Propane)","DAB (Distributeur automatique de billets)"]},{"id":2200014,"lat":49.368,"lng":3.329,"addr":"50 BIS ROUTE DE CHATEAU THIERRY","city":"SOISSONS","cp":"02200","fuels":{"Gazole":{"p":2.09,"d":"2026-05-01"},"E85":{"p":0.851,"d":"2026-05-01"},"E10":{"p":1.99,"d":"2026-05-01"},"SP98":{"p":1.99,"d":"2026-05-01"}},"brand":"TotalEnergies","h24":true,"services":["Relais colis","Boutique alimentaire","Boutique non alimentaire","Station de gonflage","Carburant additivé","Piste poids lourds","Lavage automatique","Vente de gaz domestique (Butane, Propane)","Vente d'additifs carburants","Wifi","Automate CB 24/24"]},{"id":2190003,"lat":49.44872,"lng":3.92652,"addr":"A26 - Aire du Champ Roland","city":"Guignicourt","cp":"02190","fuels":{"Gazole":{"p":2.282,"d":"2026-05-01"},"E85":{"p":0.999,"d":"2026-05-01"},"GPLc":{"p":1.13,"d":"2026-05-01"},"E10":{"p":2.093,"d":"2026-05-01"},"SP98":{"p":2.168,"d":"2026-05-01"}},"brand":"Avia","services":["Toilettes publiques","Douches","Boutique alimentaire","Boutique non alimentaire","Restauration à emporter","Station de gonflage","Piste poids lourds","Espace bébé"]},{"id":2000002,"lat":49.548,"lng":3.616,"addr":"ZAC ILE DE FRANCE","city":"LAON","cp":"02000","fuels":{"Gazole":{"p":2.179,"d":"2026-04-30"},"E10":{"p":2.024,"d":"2026-04-30"},"SP98":{"p":2.159,"d":"2026-04-28"}},"brand":"Carrefour","h24":true,"services":["Station de gonflage","Carburant additivé","Vente de gaz domestique (Butane, Propane)","Automate CB 24/24","DAB (Distributeur automatique de billets)"]},{"id":2200008,"lat":49.364,"lng":3.304,"addr":"183 ROUTE DE PARIS","city":"Vauxbuin","cp":"02200","fuels":{"Gazole":{"p":2.168,"d":"2026-04-30"},"E10":{"p":1.988,"d":"2026-04-30"},"SP98":{"p":2.058,"d":"2026-04-30"}},"brand":"Esso"},{"id":2320002,"lat":49.506,"lng":3.44,"addr":"Rue de Coucy","city":"ANIZY-LE-CHâTEAU","cp":"02320","fuels":{"Gazole":{"p":2.179,"d":"2026-04-30"},"SP95":{"p":2.029,"d":"2026-04-30"},"E10":{"p":1.999,"d":"2026-04-30"},"SP98":{"p":2.079,"d":"2026-04-30"}},"brand":"Intermarché","h24":true,"services":["Laverie","Vente de pétrole lampant","Station de gonflage","Location de véhicule","Piste poids lourds","Lavage automatique","Lavage manuel","Vente de gaz domestique (Butane, Propane)","Automate CB 24/24"]},{"id":2200007,"lat":49.386,"lng":3.333,"addr":"1 Place de Laon","city":"Soissons","cp":"02200","fuels":{"Gazole":{"p":2.179,"d":"2026-04-29"},"E10":{"p":1.959,"d":"2026-04-29"},"SP98":{"p":2.069,"d":"2026-04-29"}},"brand":"Esso"},{"id":2100013,"lat":49.8536640026,"lng":3.26295970618,"addr":"Rue Antoine Parmentier","city":"SAINT-QUENTIN","cp":"02100","fuels":{"Gazole":{"p":2.157,"d":"2026-04-30"},"E85":{"p":0.818,"d":"2026-04-30"},"GPLc":{"p":1.076,"d":"2026-04-11"},"E10":{"p":1.997,"d":"2026-04-30"},"SP98":{"p":2.08,"d":"2026-04-30"}},"brand":"Intermarché","services":["Vente de fioul domestique","Vente de gaz domestique (Butane, Propane)","DAB (Distributeur automatique de billets)"]},{"id":2220001,"lat":49.341,"lng":3.529,"addr":"34 BD DE MONTPELLIER","city":"BRAINE","cp":"02220","fuels":{"Gazole":{"p":2.199,"d":"2026-04-30"},"E85":{"p":0.879,"d":"2026-04-22"},"E10":{"p":2.029,"d":"2026-04-30"},"SP98":{"p":2.159,"d":"2026-04-30"}},"brand":"Carrefour","h24":true,"services":["Laverie","Relais colis","Boutique alimentaire","Restauration à emporter","Station de gonflage","Location de véhicule","Piste poids lourds","Lavage automatique","Vente de gaz domestique (Butane, Propane)","Vente d'additifs carburants","Automate CB 24/24"]},{"id":2700001,"lat":49.65,"lng":3.28,"addr":"213 Boulevard Gambetta","city":"CONDREN","cp":"02700","fuels":{"Gazole":{"p":2.09,"d":"2026-05-01"},"E10":{"p":1.99,"d":"2026-04-22"},"SP98":{"p":1.99,"d":"2026-04-22"}},"brand":"TotalEnergies","h24":true,"services":["Toilettes publiques","Boutique alimentaire","Boutique non alimentaire","Station de gonflage","Carburant additivé","Piste poids lourds","Vente de gaz domestique (Butane, Propane)","Vente d'additifs carburants","Automate CB 24/24"]},{"id":2200013,"lat":49.381,"lng":3.302,"addr":"AV.DE COMPIEGNE - RN.31","city":"Mercin-et-Vaux","cp":"02200","fuels":{"Gazole":{"p":2.09,"d":"2026-05-01"},"E85":{"p":0.856,"d":"2026-05-01"},"E10":{"p":1.99,"d":"2026-05-01"}},"brand":"TotalEnergies","h24":true,"services":["Toilettes publiques","Boutique alimentaire","Boutique non alimentaire","Station de gonflage","Carburant additivé","Piste poids lourds","Lavage automatique","Vente de gaz domestique (Butane, Propane)","Vente d'additifs carburants","Wifi","Automate CB 24/24"]},{"id":2270001,"lat":49.689,"lng":3.622,"addr":"2 AVENUE DE LA LIBERATION","city":"Crécy-sur-Serre","cp":"02270","fuels":{"Gazole":{"p":2.399,"d":"2026-04-07"},"E85":{"p":0.849,"d":"2026-04-03"},"E10":{"p":2.069,"d":"2026-04-03"},"SP98":{"p":2.179,"d":"2026-04-03"}},"brand":"Carrefour","services":["Relais colis","Boutique alimentaire","Carburant additivé","Vente de gaz domestique (Butane, Propane)"]},{"id":2100021,"lat":49.824379060000005,"lng":3.3107543699999997,"addr":"rue de la Fère","city":"Neuville-Saint-Amand","cp":"02100","fuels":{"Gazole":{"p":2.196,"d":"2026-04-30"},"E85":{"p":0.752,"d":"2026-04-15"},"E10":{"p":2.024,"d":"2026-04-30"},"SP98":{"p":2.074,"d":"2026-04-30"}},"services":["Station de gonflage","Carburant additivé","Piste poids lourds","Lavage automatique","Lavage manuel"]},{"id":2370005,"lat":49.405636006255996,"lng":3.5149754981475,"addr":"20 AVENUE JEAN JAURES","city":"VAILLY SUR AISNE","cp":"02370","fuels":{"Gazole":{"p":2.289,"d":"2026-04-29"},"SP95":{"p":2.039,"d":"2026-04-16"},"SP98":{"p":2.059,"d":"2026-04-29"}},"brand":"Carrefour","h24":true,"services":["Vente de gaz domestique (Butane, Propane)","Automate CB 24/24"]},{"id":2100012,"lat":49.865,"lng":3.291,"addr":"Route de BOHAIN","city":"Saint-Quentin","cp":"02100","fuels":{"Gazole":{"p":2.197,"d":"2026-04-30"},"E10":{"p":2.025,"d":"2026-04-30"},"SP98":{"p":2.108,"d":"2026-04-30"}},"brand":"Carrefour","h24":true,"services":["Laverie","Station de gonflage","Carburant additivé","Vente de gaz domestique (Butane, Propane)","Bornes électriques","Automate CB 24/24","DAB (Distributeur automatique de billets)"]},{"id":2390002,"lat":49.837,"lng":3.494,"addr":"Rue du Thil","city":"ORIGNY-SAINTE-BENOITE","cp":"02390","fuels":{"Gazole":{"p":2.129,"d":"2026-04-27"},"SP95":{"p":2.009,"d":"2026-04-27"},"SP98":{"p":2.069,"d":"2026-04-27"}},"services":["Carburant additivé","DAB (Distributeur automatique de billets)"]},{"id":2200012,"lat":49.362237748902004,"lng":3.4035793389285,"addr":"2 Rue d'Acy","city":"Venizel","cp":"02200","fuels":{"Gazole":{"p":2.179,"d":"2026-04-27"},"SP95":{"p":2.049,"d":"2026-04-27"},"SP98":{"p":2.109,"d":"2026-04-27"}},"brand":"Carrefour","h24":true,"services":["Vente de gaz domestique (Butane, Propane)","Automate CB 24/24","DAB (Distributeur automatique de billets)"]},{"id":2250001,"lat":49.743,"lng":3.773,"addr":"Rue Saint Nicolas","city":"MARLE","cp":"02250","fuels":{"Gazole":{"p":2.229,"d":"2026-04-30"},"SP95":{"p":2.095,"d":"2026-04-30"},"E85":{"p":0.889,"d":"2026-04-30"}},"brand":"Carrefour","h24":true,"services":["Relais colis","Station de gonflage","Lavage automatique","Vente de gaz domestique (Butane, Propane)","Automate CB 24/24"]},{"id":2430001,"lat":49.82606,"lng":3.2792,"addr":"Rue Auguste Delaune","city":"GAUCHY","cp":"02430","fuels":{"Gazole":{"p":2.157,"d":"2026-04-30"},"E85":{"p":0.819,"d":"2026-04-30"},"GPLc":{"p":1.16,"d":"2026-04-30"},"E10":{"p":1.989,"d":"2026-04-30"},"SP98":{"p":2.089,"d":"2026-04-30"}},"brand":"Intermarché","services":["Vente de fioul domestique","Lavage manuel","Vente de gaz domestique (Butane, Propane)","DAB (Distributeur automatique de billets)"]},{"id":2000011,"lat":49.571,"lng":3.655,"addr":"ZAC DU CHAMP DU ROY","city":"Laon","cp":"02000","fuels":{"Gazole":{"p":2.09,"d":"2026-05-01"},"E85":{"p":0.904,"d":"2026-05-01"},"E10":{"p":1.99,"d":"2026-05-01"},"SP98":{"p":1.99,"d":"2026-05-01"}},"brand":"TotalEnergies","h24":true,"services":["Boutique alimentaire","Station de gonflage","Piste poids lourds","Lavage automatique","Vente d'additifs carburants","Automate CB 24/24"]},{"id":2500004,"lat":49.921,"lng":4.084,"addr":"102 RUE CHARLES DE GAULLE","city":"HIRSON","cp":"02500","fuels":{"Gazole":{"p":2.09,"d":"2026-05-01"},"E10":{"p":1.99,"d":"2026-05-01"},"SP98":{"p":1.99,"d":"2026-05-01"}},"brand":"TotalEnergies","h24":true,"services":["Boutique alimentaire","Station de gonflage","Carburant additivé","Vente de gaz domestique (Butane, Propane)","Vente d'additifs carburants","Automate CB 24/24"]},{"id":2170001,"lat":50.013,"lng":3.781,"addr":"RUE DES VERRIERS","city":"LE NOUVION-EN-THIéRACHE","cp":"02170","fuels":{"Gazole":{"p":2.189,"d":"2026-04-23"},"SP95":{"p":2.039,"d":"2026-04-14"},"SP98":{"p":2.109,"d":"2026-04-23"}},"brand":"Carrefour","services":["Station de gonflage","Vente de gaz domestique (Butane, Propane)","DAB (Distributeur automatique de billets)"]},{"id":2320001,"lat":49.499,"lng":3.451,"addr":"34 bis rue du 7ème Bca","city":"PINON","cp":"02320","fuels":{"Gazole":{"p":2.179,"d":"2026-04-30"},"E85":{"p":0.849,"d":"2026-04-24"},"E10":{"p":1.999,"d":"2026-04-30"}},"brand":"Carrefour","h24":true,"services":["Relais colis","Boutique alimentaire","Boutique non alimentaire","Piste poids lourds","Vente de gaz domestique (Butane, Propane)","Automate CB 24/24","DAB (Distributeur automatique de billets)"]},{"id":2360001,"lat":49.704,"lng":4.112,"addr":"Lieu dit du grand hôtel","city":"Rozoy-sur-Serre","cp":"02360","fuels":{"Gazole":{"p":2.149,"d":"2026-04-30"},"E85":{"p":0.819,"d":"2026-04-28"},"E10":{"p":1.979,"d":"2026-04-30"},"SP98":{"p":2.061,"d":"2026-04-28"}},"brand":"Intermarché","h24":true,"services":["Laverie","Station de gonflage","Piste poids lourds","Lavage manuel","Vente de gaz domestique (Butane, Propane)","Automate CB 24/24","DAB (Distributeur automatique de billets)"]},{"id":2300002,"lat":49.591,"lng":3.234,"addr":"CHEMIN DEPARTEMENTAL 937","city":"AUTREVILLE","cp":"02300","fuels":{"Gazole":{"p":2.178,"d":"2026-04-22"},"SP95":{"p":2,"d":"2026-04-11"},"SP98":{"p":2.089,"d":"2026-04-11"}},"brand":"Carrefour","services":["Laverie","Relais colis"]},{"id":2870001,"lat":49.609284191712995,"lng":3.5052696871806,"addr":"1B Rue de Couvron","city":"Crépy","cp":"02870","fuels":{"Gazole":{"p":2.199,"d":"2026-04-23"},"E10":{"p":2.049,"d":"2026-04-23"}},"brand":"Gulf","h24":true,"services":["Automate CB 24/24"]},{"id":2580002,"lat":49.9035443,"lng":3.9139988,"addr":"14 RUE DU MONVINAGE","city":"ETREAUPONT","cp":"02580","fuels":{"Gazole":{"p":2.299,"d":"2026-04-14"},"E10":{"p":2.069,"d":"2026-04-14"}},"h24":true,"services":["Automate CB 24/24"]},{"id":2880001,"lat":49.398,"lng":3.356,"addr":"Rue du Stade","city":"Crouy","cp":"02880","fuels":{"Gazole":{"p":2.179,"d":"2026-04-29"},"SP95":{"p":2.009,"d":"2026-04-29"},"GPLc":{"p":1.006,"d":"2026-04-03"},"E10":{"p":1.959,"d":"2026-04-29"},"SP98":{"p":2.069,"d":"2026-04-29"}},"brand":"Groupement des Mousquetaires","h24":true,"services":["Toilettes publiques","Boutique non alimentaire","Vente de fioul domestique","Vente de pétrole lampant","Station de gonflage","Piste poids lourds","Lavage manuel","Services réparation / entretien","Vente de gaz domestique (Butane, Propane)","Automate CB 24/24"]},{"id":2690002,"lat":49.785474082598,"lng":3.3342734139346,"addr":"AUTOROUTE A26 - AIRE D'URVILLERS","city":"Essigny-le-Grand","cp":"02690","fuels":{"Gazole":{"p":2.09,"d":"2026-05-01"},"E85":{"p":0.999,"d":"2026-05-01"},"GPLc":{"p":1.139,"d":"2026-05-01"},"E10":{"p":1.99,"d":"2026-05-01"},"SP98":{"p":1.99,"d":"2026-05-01"}},"brand":"TotalEnergies","services":["Toilettes publiques","Douches","Boutique alimentaire","Boutique non alimentaire","Restauration à emporter","Restauration sur place","Station de gonflage","Carburant additivé","Piste poids lourds","Espace bébé","DAB (Distributeur automatique de billets)"]},{"id":2300009,"lat":49.5197529,"lng":3.1492908,"addr":"24 rue du point du jour","city":"Blérancourt","cp":"02300","fuels":{"Gazole":{"p":2.269,"d":"2026-04-21"},"SP95":{"p":2.078,"d":"2026-04-21"},"SP98":{"p":2.148,"d":"2026-04-21"}},"brand":"Carrefour","services":["Restauration à emporter","Vente de gaz domestique (Butane, Propane)"]},{"id":2200001,"lat":49.37,"lng":3.315,"addr":"3 Avenue Raymonde Fiolet","city":"Soissons","cp":"02200","fuels":{"Gazole":{"p":2.159,"d":"2026-04-30"},"E85":{"p":0.818,"d":"2026-04-30"},"GPLc":{"p":1.006,"d":"2026-04-30"},"E10":{"p":1.979,"d":"2026-04-30"},"SP98":{"p":2.058,"d":"2026-04-30"}},"brand":"Carrefour","h24":true,"services":["Vente de fioul domestique","Station de gonflage","Piste poids lourds","Vente de gaz domestique (Butane, Propane)","Bornes électriques","Automate CB 24/24"]},{"id":2500003,"lat":49.916,"lng":4.077,"addr":"Avenue du General Debeney","city":"HIRSON","cp":"02500","fuels":{"Gazole":{"p":2.199,"d":"2026-04-30"},"E10":{"p":1.988,"d":"2026-04-30"},"SP98":{"p":2.068,"d":"2026-04-30"}},"brand":"Leclerc","services":["Toilettes publiques","Laverie","Boutique alimentaire","Boutique non alimentaire","Restauration à emporter","Bar","Vente de gaz domestique (Butane, Propane)","DAB (Distributeur automatique de billets)"]},{"id":2600005,"lat":49.246,"lng":3.096,"addr":"36 ROUTE DE LA FERTE MILON","city":"VILLERS-COTTERÊTS","cp":"02600","fuels":{"Gazole":{"p":2.25,"d":"2026-04-27"},"SP95":{"p":1.99,"d":"2026-04-24"},"SP98":{"p":1.99,"d":"2026-04-24"}},"brand":"TotalEnergies","services":["Toilettes publiques","Relais colis","Boutique alimentaire","Boutique non alimentaire","Station de gonflage","Carburant additivé"]},{"id":2340001,"lat":49.689,"lng":4.022,"addr":"14 ROUTE DE MONTCORNET","city":"LISLET","cp":"02340","fuels":{"Gazole":{"p":2.175,"d":"2026-04-29"},"E10":{"p":1.995,"d":"2026-04-29"},"SP98":{"p":2.125,"d":"2026-04-29"}},"brand":"Carrefour","h24":true,"services":["Relais colis","Location de véhicule","Vente de gaz domestique (Butane, Propane)","Automate CB 24/24","DAB (Distributeur automatique de billets)"]},{"id":2140003,"lat":49.838777788156,"lng":3.9167879440021003,"addr":"ZI de la Briquetterie","city":"Vervins","cp":"02140","fuels":{"Gazole":{"p":2.167,"d":"2026-04-30"},"E85":{"p":0.818,"d":"2026-04-20"},"E10":{"p":1.995,"d":"2026-04-30"},"SP98":{"p":2.129,"d":"2026-04-30"}},"brand":"Intermarché","services":["Lavage manuel","Vente de gaz domestique (Butane, Propane)","DAB (Distributeur automatique de billets)"]},{"id":2280001,"lat":49.531,"lng":3.856,"addr":"CD 24, route de liesse","city":"SAINT-ERME-OUTRE-ET-RAMECOURT","cp":"02820","fuels":{"Gazole":{"p":2.159,"d":"2026-04-29"},"E85":{"p":0.819,"d":"2026-04-29"},"E10":{"p":1.985,"d":"2026-04-30"},"SP98":{"p":2.049,"d":"2026-04-29"}},"brand":"Intermarché","services":["Toilettes publiques","Laverie","Boutique alimentaire","Boutique non alimentaire","Restauration à emporter","Bar","Vente de fioul domestique","Vente de pétrole lampant","Station de gonflage","Location de véhicule","Piste poids lourds","Lavage automatique","Lavage manuel","Vente de gaz domestique (Butane, Propane)","DAB (Distributeur automatique de billets)"]},{"id":2120004,"lat":49.90249,"lng":3.63841,"addr":"Rue des Docteurs Devillers","city":"GUISE","cp":"02120","fuels":{"Gazole":{"p":2.215,"d":"2026-04-30"},"GPLc":{"p":1.159,"d":"2026-04-21"},"E10":{"p":2.025,"d":"2026-04-30"},"SP98":{"p":2.099,"d":"2026-04-24"}},"brand":"Intermarché","services":["Laverie","Restauration à emporter","Location de véhicule","Piste poids lourds","Lavage manuel","Vente de gaz domestique (Butane, Propane)","DAB (Distributeur automatique de billets)"]},{"id":2400001,"lat":49.04,"lng":3.387,"addr":"37 Avenue d'Essômes","city":"CHâTEAU-THIERRY","cp":"02400","fuels":{"Gazole":{"p":2.159,"d":"2026-04-30"},"SP95":{"p":2.031,"d":"2026-04-30"},"GPLc":{"p":0.999,"d":"2026-04-17"},"E10":{"p":1.98,"d":"2026-04-30"},"SP98":{"p":2.085,"d":"2026-04-30"}},"brand":"Carrefour","h24":true,"services":["Toilettes publiques","Laverie","Relais colis","Restauration sur place","Station de gonflage","Carburant additivé","Lavage automatique","Vente de gaz domestique (Butane, Propane)","Automate CB 24/24","DAB (Distributeur automatique de billets)"]},{"id":2210002,"lat":49.202255,"lng":3.365524,"addr":"11 avenue de la gare","city":"Oulchy-le-Château","cp":"02210","fuels":{"Gazole":{"p":2.09,"d":"2026-03-25"},"E10":{"p":1.99,"d":"2026-03-25"},"SP98":{"p":1.99,"d":"2026-03-25"}},"brand":"TotalEnergies","services":["Automate CB 24/24"]},{"id":2400004,"lat":49.037,"lng":3.39,"addr":"Z.I rue de la Plaine","city":"CHÂTEAU-THIERRY","cp":"02400","fuels":{"Gazole":{"p":2.139,"d":"2026-04-30"},"E10":{"p":1.939,"d":"2026-04-30"}},"brand":"Leclerc","h24":true,"services":["Toilettes publiques","Laverie","Relais colis","Boutique alimentaire","Boutique non alimentaire","Restauration à emporter","Restauration sur place","Bar","Station de gonflage","Carburant additivé","Location de véhicule","Piste poids lourds","Lavage automatique","Espace bébé","Vente de gaz domestique (Butane, Propane)","Bornes électriques","Vente d'additifs carburants","Wifi","Automate CB 24/24","DAB (Distributeur automatique de billets)"]},{"id":2600006,"lat":49.256,"lng":3.08,"addr":"231rd rue du general leclerc","city":"Villers-Cotterêts","cp":"02600","fuels":{"Gazole":{"p":2.229,"d":"2026-04-29"},"SP95":{"p":2.072,"d":"2026-04-29"},"E85":{"p":0.867,"d":"2026-04-29"},"SP98":{"p":2.119,"d":"2026-04-29"}},"brand":"Carrefour","h24":true,"services":["Toilettes publiques","Relais colis","Station de gonflage","Location de véhicule","Vente de gaz domestique (Butane, Propane)","Automate CB 24/24"]},{"id":2380002,"lat":49.489,"lng":3.336,"addr":"D1 - LIEU DIT LE PRE MONTRE","city":"Crécy-au-Mont","cp":"02380","fuels":{"Gazole":{"p":2.09,"d":"2026-05-01"},"E85":{"p":0.839,"d":"2026-05-01"},"E10":{"p":1.99,"d":"2026-05-01"},"SP98":{"p":1.99,"d":"2026-05-01"}},"brand":"TotalEnergies","services":["Toilettes publiques","Douches","Boutique alimentaire","Boutique non alimentaire","Restauration à emporter","Restauration sur place","Station de gonflage","Piste poids lourds","Vente de gaz domestique (Butane, Propane)","Vente d'additifs carburants"]},{"id":2200016,"lat":49.3810431776,"lng":3.3006284453257,"addr":"Avenue de Compiègne","city":"Mercin-et-vaux","cp":"02200","fuels":{"Gazole":{"p":2.169,"d":"2026-04-29"},"E10":{"p":1.958,"d":"2026-04-29"},"SP98":{"p":1.989,"d":"2026-04-22"}},"brand":"Carrefour","h24":true,"services":["Automate CB 24/24"]},{"id":2110002,"lat":49.981,"lng":3.451,"addr":"rue de Saint-Quentin","city":"BOHAIN-EN-VERMANDOIS","cp":"02110","fuels":{"Gazole":{"p":2.18,"d":"2026-04-30"},"E85":{"p":0.818,"d":"2026-04-20"},"E10":{"p":2.01,"d":"2026-04-30"},"SP98":{"p":2.12,"d":"2026-04-30"}},"h24":true,"services":["Laverie","Boutique alimentaire","Piste poids lourds","Vente de gaz domestique (Butane, Propane)","Automate CB 24/24"]},{"id":2120005,"lat":49.896,"lng":3.626,"addr":"56, rue du jeu de Paume","city":"Guise","cp":"02120","fuels":{"Gazole":{"p":2.09,"d":"2026-05-01"},"E85":{"p":0.845,"d":"2026-05-01"},"E10":{"p":1.99,"d":"2026-05-01"},"SP98":{"p":1.99,"d":"2026-05-01"}},"brand":"TotalEnergies","h24":true,"services":["Toilettes publiques","Relais colis","Boutique alimentaire","Boutique non alimentaire","Carburant additivé","Piste poids lourds","Services réparation / entretien","Vente de gaz domestique (Butane, Propane)","Vente d'additifs carburants","Wifi","Automate CB 24/24"]},{"id":2100011,"lat":49.848,"lng":3.272,"addr":"98 rue Alexandre Dumas","city":"SAINT-QUENTIN","cp":"02100","fuels":{"Gazole":{"p":2.198,"d":"2026-04-30"},"E85":{"p":0.824,"d":"2026-04-30"},"E10":{"p":1.99,"d":"2026-04-30"},"SP98":{"p":1.99,"d":"2026-04-30"}},"brand":"TotalEnergies","services":["Toilettes publiques","Boutique alimentaire","Boutique non alimentaire","Carburant additivé","Piste poids lourds","Vente d'additifs carburants"]},{"id":2860001,"lat":49.532,"lng":3.653,"addr":"89 RUE PORTE DE LAON","city":"Bruyères-et-Montbérault","cp":"02860","fuels":{"Gazole":{"p":2.09,"d":"2026-05-01"},"E10":{"p":1.99,"d":"2026-04-25"},"SP98":{"p":1.99,"d":"2026-05-01"}},"brand":"TotalEnergies","h24":true,"services":["Station de gonflage","Carburant additivé","Piste poids lourds","Services réparation / entretien","Vente d'additifs carburants","Automate CB 24/24"]},{"id":2240001,"lat":49.80095,"lng":3.46696,"addr":"74 Rue Blondel","city":"RIBEMONT","cp":"02240","fuels":{"Gazole":{"p":2.14,"d":"2026-04-30"},"E85":{"p":0.818,"d":"2026-04-30"},"E10":{"p":1.972,"d":"2026-04-30"}},"brand":"Intermarché","h24":true,"services":["Toilettes publiques","Laverie","Boutique alimentaire","Vente de pétrole lampant","Station de gonflage","Carburant additivé","Lavage manuel","Vente de gaz domestique (Butane, Propane)","Vente d'additifs carburants","Automate CB 24/24","DAB (Distributeur automatique de billets)"]},{"id":2000013,"lat":49.561343,"lng":3.6409990000000003,"addr":"RUE DU DOCTEUR MENU","city":"LAON","cp":"02000","fuels":{"Gazole":{"p":2.15,"d":"2026-04-29"},"SP95":{"p":1.988,"d":"2026-04-17"},"E85":{"p":0.917,"d":"2026-04-17"}},"brand":"Carrefour","services":["Laverie","Relais colis","Vente de gaz domestique (Butane, Propane)"]},{"id":2290002,"lat":49.396807142795,"lng":3.1156294899994,"addr":"AVENUE DE LA GARE","city":"Ressons-le-Long","cp":"02290","fuels":{"Gazole":{"p":2.161,"d":"2026-04-30"},"E85":{"p":0.818,"d":"2026-04-30"},"E10":{"p":1.99,"d":"2026-04-30"},"SP98":{"p":2.101,"d":"2026-04-30"}},"brand":"Intermarché","services":["Laverie","Boutique alimentaire","Boutique non alimentaire","Restauration à emporter","Vente de pétrole lampant","Aire de camping-cars","Piste poids lourds","Vente de gaz domestique (Butane, Propane)","Bornes électriques"]},{"id":2100009,"lat":49.843,"lng":3.323,"addr":"Route de Guise","city":"HARLY","cp":"02100","fuels":{"Gazole":{"p":2.196,"d":"2026-04-30"},"E85":{"p":0.752,"d":"2026-04-15"},"GPLc":{"p":1.076,"d":"2026-04-07"},"E10":{"p":2.024,"d":"2026-04-30"},"SP98":{"p":2.074,"d":"2026-04-30"}},"brand":"Leclerc","h24":true,"services":["Station de gonflage","Vente de gaz domestique (Butane, Propane)","Automate CB 24/24"]},{"id":2100001,"lat":49.858,"lng":3.253,"addr":"route d'Amiens","city":"St Quentin","cp":"02100","fuels":{"Gazole":{"p":2.167,"d":"2026-04-28"},"E85":{"p":0.818,"d":"2026-04-20"},"GPLc":{"p":1.086,"d":"2026-04-13"},"E10":{"p":2.007,"d":"2026-04-30"},"SP98":{"p":2.09,"d":"2026-04-30"}},"brand":"Auchan","h24":true,"services":["Station de gonflage","Carburant additivé","Aire de camping-cars","Piste poids lourds","Lavage automatique","Lavage manuel","Vente de gaz domestique (Butane, Propane)","Automate CB 24/24"]},{"id":2800003,"lat":49.66,"lng":3.346,"addr":"Le Chemin Blanc","city":"BEAUTOR","cp":"02800","fuels":{"Gazole":{"p":2.166,"d":"2026-04-30"},"E85":{"p":0.813,"d":"2026-04-30"},"GPLc":{"p":1.126,"d":"2026-04-30"},"E10":{"p":1.989,"d":"2026-04-30"},"SP98":{"p":2.052,"d":"2026-04-30"}},"brand":"Leclerc","h24":true,"services":["Toilettes publiques","Boutique alimentaire","Boutique non alimentaire","Vente de fioul domestique","Vente de pétrole lampant","Station de gonflage","Vente de gaz domestique (Butane, Propane)","Automate CB 24/24","DAB (Distributeur automatique de billets)"]},{"id":2260001,"lat":49.973,"lng":3.918,"addr":"rue de l'armistice","city":"LA CAPELLE","cp":"02260","fuels":{"Gazole":{"p":2.189,"d":"2026-04-21"},"SP95":{"p":2.019,"d":"2026-04-21"},"SP98":{"p":2.109,"d":"2026-04-21"}},"brand":"Carrefour","h24":true,"services":["Laverie","Relais colis","Boutique alimentaire","Station de gonflage","Vente de gaz domestique (Butane, Propane)","Automate CB 24/24"]},{"id":2100020,"lat":49.834,"lng":3.3,"addr":"BLD CAMILLE GUERIN","city":"Saint-Quentin","cp":"02100","fuels":{"Gazole":{"p":2.09,"d":"2026-05-01"},"E85":{"p":0.819,"d":"2026-05-01"},"E10":{"p":1.99,"d":"2026-05-01"}},"brand":"TotalEnergies","h24":true,"services":["Boutique alimentaire","Boutique non alimentaire","Station de gonflage","Carburant additivé","Lavage automatique","Vente de gaz domestique (Butane, Propane)","Automate CB 24/24"]},{"id":2190005,"lat":49.445084070022006,"lng":3.9276187076699,"addr":"AUT A 26- AIRE DU MONT NIZY","city":"Juvincourt-et-Damary","cp":"02190","fuels":{"Gazole":{"p":2.282,"d":"2026-04-30"},"E85":{"p":0.999,"d":"2026-04-30"},"GPLc":{"p":1.13,"d":"2026-04-30"},"E10":{"p":2.093,"d":"2026-04-30"},"SP98":{"p":2.168,"d":"2026-04-30"}},"brand":"Shell"},{"id":2600008,"lat":49.251975389964,"lng":3.0585768861602003,"addr":"Route nationale 2, chemin de la Noue","city":"Villers-Cotterêts","cp":"02600","fuels":{"Gazole":{"p":2.19,"d":"2026-04-27"},"SP95":{"p":2.13,"d":"2026-04-27"},"E85":{"p":1.04,"d":"2026-04-10"},"SP98":{"p":2.17,"d":"2026-04-27"}},"brand":"Avia","services":["Toilettes publiques","Douches","Boutique alimentaire","Station de gonflage","Piste poids lourds"]},{"id":2310003,"lat":49.021264,"lng":3.188825,"addr":"74 AVENUE DE PARIS","city":"MONTREUIL AUX LIONS","cp":"02310","fuels":{"SP95":{"p":1.99,"d":"2026-03-17"}},"brand":"TotalEnergies","h24":true,"services":["Automate CB 24/24"]}]