[{"id":13270004,"lat":43.441,"lng":4.94,"addr":"DEVIATION RN 568 OUEST","city":"Fos-sur-Mer","cp":"13270","fuels":{"Gazole":{"p":2.176,"d":"2026-05-01"},"E10":{"p":2.002,"d":"2026-05-01"},"SP98":{"p":2.082,"d":"2026-05-01"}},"brand":"Esso"},{"id":13380002,"lat":43.341,"lng":5.457,"addr":"89 AVENUE DE LA LIBERATION","city":"Plan-de-Cuques","cp":"13380","fuels":{"Gazole":{"p":2.211,"d":"2026-05-01"},"E85":{"p":1.004,"d":"2026-05-01"},"E10":{"p":1.997,"d":"2026-05-01"},"SP98":{"p":2.077,"d":"2026-05-01"}},"brand":"Esso"},{"id":13200009,"lat":43.6675119789,"lng":4.63468013303,"addr":"ZAC de la Fourchon","city":"ARLES","cp":"13200","fuels":{"Gazole":{"p":2.199,"d":"2026-04-21"},"SP95":{"p":2.049,"d":"2026-04-10"},"E10":{"p":1.999,"d":"2026-04-10"},"SP98":{"p":2.099,"d":"2026-04-10"}},"brand":"Intermarché","services":["Vente de gaz domestique (Butane, Propane)","DAB (Distributeur automatique de billets)"]},{"id":13400003,"lat":43.297,"lng":5.586,"addr":"1000 Route de Gemenos","city":"AUBAGNE","cp":"13400","fuels":{"Gazole":{"p":2.25,"d":"2026-04-23"},"E85":{"p":0.869,"d":"2026-04-02"},"E10":{"p":1.99,"d":"2026-04-13"},"SP98":{"p":1.99,"d":"2026-04-11"}},"brand":"TotalEnergies","services":["Boutique alimentaire","Boutique non alimentaire","Restauration à emporter","Vente de fioul domestique","Station de gonflage","Piste poids lourds","Lavage manuel","Vente de gaz domestique (Butane, Propane)","Vente d'additifs carburants"]},{"id":13170013,"lat":43.411139115325,"lng":5.3096598881206996,"addr":"RN 113","city":"LES PENNES MIRABEAU","cp":"13170","fuels":{"Gazole":{"p":2.329,"d":"2026-05-01"},"E85":{"p":0.899,"d":"2026-05-01"},"E10":{"p":2.129,"d":"2026-05-01"},"SP98":{"p":2.229,"d":"2026-05-01"}},"brand":"Eni","h24":true,"services":["Toilettes publiques","Boutique alimentaire","Station de gonflage","Carburant additivé","Piste poids lourds","Lavage automatique","Services réparation / entretien","Vente de gaz domestique (Butane, Propane)","Automate CB 24/24"]},{"id":13990002,"lat":43.727,"lng":4.712,"addr":"70 cours Hyacinthe Bellon","city":"Fontvieille","cp":"13990","fuels":{"Gazole":{"p":2.349,"d":"2026-04-30"},"E10":{"p":2.196,"d":"2026-04-30"},"SP98":{"p":2.268,"d":"2026-04-23"}},"brand":"Avia","h24":true,"services":["Boutique alimentaire","Boutique non alimentaire","Vente de fioul domestique","Station de gonflage","Carburant additivé","Lavage manuel","Services réparation / entretien","Vente de gaz domestique (Butane, Propane)","Vente d'additifs carburants","Automate CB 24/24"]},{"id":13500011,"lat":43.399,"lng":5.041,"addr":"ROUTE DE LAVERA","city":"MARTIGUES","cp":"13500","fuels":{"Gazole":{"p":2.09,"d":"2026-05-01"},"E10":{"p":1.99,"d":"2026-05-01"},"SP98":{"p":1.99,"d":"2026-05-01"}},"brand":"TotalEnergies","h24":true,"services":["Boutique alimentaire","Station de gonflage","Lavage automatique","Automate CB 24/24"]},{"id":13011019,"lat":43.299,"lng":5.5,"addr":"131 route des Camoins","city":"Marseille","cp":"13011","fuels":{"Gazole":{"p":2.179,"d":"2026-04-30"},"E10":{"p":2.049,"d":"2026-04-30"},"SP98":{"p":2.097,"d":"2026-04-30"}},"h24":true,"services":["Boutique non alimentaire","Station de gonflage","Piste poids lourds","Lavage automatique","Lavage manuel","Automate CB 24/24"]},{"id":13420001,"lat":43.279,"lng":5.615,"addr":"553 ROUTE DU VAISSEAU","city":"GEMENOS","cp":"13420","fuels":{"Gazole":{"p":2.25,"d":"2026-04-28"},"E10":{"p":1.999,"d":"2026-04-27"},"SP98":{"p":2.139,"d":"2026-04-29"}},"brand":"Avia","services":["Toilettes publiques","Vente de fioul domestique","Station de gonflage","Carburant additivé","Piste poids lourds","Vente de gaz domestique (Butane, Propane)","DAB (Distributeur automatique de billets)"]},{"id":13180001,"lat":43.392295526141005,"lng":5.2569421627957,"addr":"AIRE DE REBUTY A55","city":"GIGNAC-LA-NERTHE","cp":"13180","fuels":{"Gazole":{"p":2.549,"d":"2026-05-01"},"E85":{"p":0.999,"d":"2026-05-01"},"GPLc":{"p":1.149,"d":"2026-05-01"},"E10":{"p":2.269,"d":"2026-05-01"},"SP98":{"p":2.369,"d":"2026-05-01"}},"brand":"Agip","services":["Toilettes publiques","Douches","Boutique alimentaire","Bar","Station de gonflage","Carburant additivé","Espace bébé"]},{"id":13013014,"lat":43.317,"lng":5.404,"addr":"59 Avenue de Saint-Just","city":"Marseille","cp":"13013","fuels":{"Gazole":{"p":2.329,"d":"2026-05-01"},"E85":{"p":0.899,"d":"2026-05-01"},"GPLc":{"p":1.099,"d":"2026-05-01"},"E10":{"p":2.129,"d":"2026-05-01"},"SP98":{"p":2.229,"d":"2026-05-01"}},"brand":"Agip","services":["Boutique alimentaire","Boutique non alimentaire","Restauration à emporter","Station de gonflage","Carburant additivé","Lavage automatique","Lavage manuel","Vente de gaz domestique (Butane, Propane)","Vente d'additifs carburants"]},{"id":13270005,"lat":43.464952910717,"lng":4.9406707421088,"addr":"Avenue Georges Pompidou","city":"Fos-sur-Mer","cp":"13270","fuels":{"Gazole":{"p":2.095,"d":"2026-04-30"},"E85":{"p":0.818,"d":"2026-04-30"},"E10":{"p":1.945,"d":"2026-04-30"},"SP98":{"p":2.06,"d":"2026-04-30"}},"brand":"Intermarché","services":["Vente de fioul domestique","Lavage manuel","Vente de gaz domestique (Butane, Propane)","DAB (Distributeur automatique de billets)"]},{"id":13500001,"lat":43.418,"lng":5.053,"addr":"Avenue Julien Olive Canto-Perdrix","city":"MARTIGUES","cp":"13500","fuels":{"Gazole":{"p":2.185,"d":"2026-04-30"},"E85":{"p":0.79,"d":"2026-04-30"},"GPLc":{"p":0.94,"d":"2026-04-30"},"E10":{"p":1.989,"d":"2026-04-30"},"SP98":{"p":2.081,"d":"2026-04-30"}},"brand":"Auchan","h24":true,"services":["Relais colis","Boutique non alimentaire","Restauration sur place","Station de gonflage","Carburant additivé","Vente de gaz domestique (Butane, Propane)","Bornes électriques","Wifi","Automate CB 24/24","DAB (Distributeur automatique de billets)"]},{"id":13014015,"lat":43.318658,"lng":5.390473,"addr":"26 CHEMIN DE STE MARTHE","city":"MARSEILLE","cp":"13014","fuels":{"Gazole":{"p":2.329,"d":"2026-05-01"},"E85":{"p":0.899,"d":"2026-05-01"},"E10":{"p":2.129,"d":"2026-05-01"},"SP98":{"p":2.229,"d":"2026-05-01"}},"brand":"Agip","services":["Toilettes publiques","Boutique alimentaire","Station de gonflage","Carburant additivé","Piste poids lourds","Vente de gaz domestique (Butane, Propane)"]},{"id":13210002,"lat":43.793,"lng":4.827,"addr":"N°11 Impasse de la 1er DFL ZAC de la Gare","city":"Saint-Rémy-de-Provence","cp":"13210","fuels":{"Gazole":{"p":2.199,"d":"2026-04-24"},"SP95":{"p":2.059,"d":"2026-04-27"},"E10":{"p":1.999,"d":"2026-04-24"},"SP98":{"p":2.14,"d":"2026-04-29"}},"brand":"Intermarché","services":["Station de gonflage","Location de véhicule","Piste poids lourds","Lavage automatique","Lavage manuel","Vente de gaz domestique (Butane, Propane)","DAB (Distributeur automatique de billets)"]},{"id":13520001,"lat":43.723,"lng":4.796,"addr":"QUARTIER BOURGEAC","city":"PARADOU","cp":"13520","fuels":{"Gazole":{"p":2.09,"d":"2026-04-30"},"E10":{"p":1.99,"d":"2026-04-27"},"SP98":{"p":1.99,"d":"2026-04-27"}},"brand":"TotalEnergies","services":["Boutique non alimentaire","Station de gonflage","Carburant additivé","Vente de gaz domestique (Butane, Propane)","Vente d'additifs carburants"]},{"id":13008019,"lat":43.254874744705994,"lng":5.3822861365342,"addr":"175 AVENUE CLOT BEY","city":"MARSEILLE","cp":"13008","fuels":{"Gazole":{"p":2.329,"d":"2026-05-01"},"E10":{"p":2.129,"d":"2026-05-01"},"SP98":{"p":2.229,"d":"2026-05-01"}},"brand":"Eni","services":["Toilettes publiques","Boutique alimentaire","Station de gonflage","Carburant additivé","Lavage automatique"]},{"id":13560002,"lat":43.74032,"lng":5.0975,"addr":"17 route nationale 7","city":"Sénas","cp":"13560","fuels":{"Gazole":{"p":2.09,"d":"2026-05-01"},"SP95":{"p":1.99,"d":"2026-05-01"}},"brand":"Elan"},{"id":13700011,"lat":43.41459,"lng":5.22304,"addr":"17 AVENUE DU 8 MAI 1945","city":"MARIGNANE","cp":"13700","fuels":{"Gazole":{"p":2.09,"d":"2026-05-01"},"E10":{"p":1.99,"d":"2026-05-01"}},"brand":"TotalEnergies","services":["Boutique alimentaire","Station de gonflage","Carburant additivé","Lavage automatique","Vente de gaz domestique (Butane, Propane)"]},{"id":13370006,"lat":43.708,"lng":5.2,"addr":"Avenue du Pont Royal","city":"Mallemort","cp":"13370","fuels":{"Gazole":{"p":2.179,"d":"2026-04-30"},"E10":{"p":1.989,"d":"2026-04-30"},"SP98":{"p":2.098,"d":"2026-04-30"}},"brand":"Intermarché","h24":true,"services":["Station de gonflage","Piste poids lourds","Lavage automatique","Vente de gaz domestique (Butane, Propane)","Automate CB 24/24"]},{"id":13200013,"lat":43.682,"lng":4.612,"addr":"97/99 Avenue du docteur Morel","city":"ARLES","cp":"13200","fuels":{"Gazole":{"p":2.24,"d":"2026-04-30"},"SP95":{"p":2.173,"d":"2026-04-30"},"E85":{"p":1.096,"d":"2026-04-30"},"SP98":{"p":2.144,"d":"2026-04-30"}},"h24":true,"services":["Boutique alimentaire","Boutique non alimentaire","Station de gonflage","Piste poids lourds","Vente de gaz domestique (Butane, Propane)","Vente d'additifs carburants","Automate CB 24/24"]},{"id":13300009,"lat":43.612359639400005,"lng":5.096262162,"addr":"Route Nationale 113","city":"SALON-DE-PROVENCE","cp":"13300","fuels":{"Gazole":{"p":2.214,"d":"2026-04-30"},"E10":{"p":2.057,"d":"2026-04-30"},"SP98":{"p":2.165,"d":"2026-04-30"}},"brand":"Independent","services":["Restauration à emporter","Restauration sur place","Vente de fioul domestique","Piste poids lourds","DAB (Distributeur automatique de billets)"]},{"id":13015019,"lat":43.373,"lng":5.354,"addr":"21 BD HENRI BARNIER","city":"Marseille","cp":"13015","fuels":{"Gazole":{"p":2.09,"d":"2026-05-01"},"E10":{"p":1.99,"d":"2026-05-01"},"SP98":{"p":1.99,"d":"2026-05-01"}},"brand":"TotalEnergies","h24":true,"services":["Boutique alimentaire","Boutique non alimentaire","Station de gonflage","Carburant additivé","Vente de gaz domestique (Butane, Propane)","Automate CB 24/24"]},{"id":13013016,"lat":43.324,"lng":5.454,"addr":"AVENUE FREDERIC MISTRAL","city":"MARSEILLE","cp":"13013","fuels":{"Gazole":{"p":2.09,"d":"2026-05-01"},"E85":{"p":0.885,"d":"2026-05-01"},"GPLc":{"p":1.059,"d":"2026-05-01"},"E10":{"p":1.99,"d":"2026-05-01"}},"brand":"TotalEnergies","services":["Boutique alimentaire","Restauration à emporter","Station de gonflage","Carburant additivé","Lavage automatique","Lavage manuel","Services réparation / entretien","Vente de gaz domestique (Butane, Propane)","DAB (Distributeur automatique de billets)"]},{"id":13460003,"lat":43.455,"lng":4.428,"addr":"26 avenue d'Arles","city":"Saintes Maries de la Mer","cp":"13460","fuels":{"Gazole":{"p":2.299,"d":"2026-04-30"},"SP95":{"p":2.179,"d":"2026-04-30"},"SP98":{"p":2.209,"d":"2026-04-30"}},"h24":true,"services":["Laverie","Relais colis","Boutique alimentaire","Station de gonflage","Piste poids lourds","Automate CB 24/24"]},{"id":13112003,"lat":43.39,"lng":5.596,"addr":"Chemin des Matelots","city":"LA DESTROUSSE","cp":"13112","fuels":{"Gazole":{"p":2.275,"d":"2026-04-21"},"E10":{"p":1.999,"d":"2026-04-15"},"SP98":{"p":2.115,"d":"2026-04-21"}},"brand":"Intermarché","h24":true,"services":["Station de gonflage","Vente de gaz domestique (Butane, Propane)","Automate CB 24/24"]},{"id":13110003,"lat":43.413,"lng":5.001,"addr":"RN Fos/ Martigues","city":"PORT-DE-BOUC","cp":"13110","fuels":{"Gazole":{"p":2.154,"d":"2026-04-30"},"SP95":{"p":2.053,"d":"2026-04-30"},"E10":{"p":1.995,"d":"2026-04-30"},"SP98":{"p":2.13,"d":"2026-04-30"}},"brand":"Carrefour","h24":true,"services":["Toilettes publiques","Laverie","Relais colis","Boutique alimentaire","Boutique non alimentaire","Restauration à emporter","Restauration sur place","Bar","Location de véhicule","Piste poids lourds","Lavage manuel","Bornes électriques","Wifi","Automate CB 24/24","DAB (Distributeur automatique de billets)"]},{"id":13130005,"lat":43.484,"lng":5.181,"addr":"Avenue Henri Wallon","city":"BERRE L'ETANG","cp":"13130","fuels":{"Gazole":{"p":2.299,"d":"2026-04-16"},"E85":{"p":0.899,"d":"2024-12-04"},"E10":{"p":2.089,"d":"2026-04-29"}},"brand":"Dyneff","h24":true,"services":["Laverie","Vente de fioul domestique","Station de gonflage","Piste poids lourds","Lavage automatique","Lavage manuel","Vente de gaz domestique (Butane, Propane)","Automate CB 24/24","DAB (Distributeur automatique de billets)"]},{"id":13430001,"lat":43.6878,"lng":5.03819,"addr":"Chemin Roudiers","city":"Eyguières","cp":"13430","fuels":{"Gazole":{"p":2.199,"d":"2026-04-30"},"E85":{"p":0.819,"d":"2026-04-30"},"E10":{"p":2.039,"d":"2026-04-30"},"SP98":{"p":2.159,"d":"2026-04-30"}},"brand":"Intermarché","services":["Vente de fioul domestique","Vente de gaz domestique (Butane, Propane)","DAB (Distributeur automatique de billets)"]},{"id":13700013,"lat":43.419382,"lng":5.223334,"addr":"24 avenue Maréchal JUIN","city":"MARIGNANE","cp":"13700","fuels":{"Gazole":{"p":2.175,"d":"2026-04-30"},"E10":{"p":2.01,"d":"2026-04-30"},"SP98":{"p":2.095,"d":"2026-04-30"}},"h24":true,"services":["Boutique alimentaire","Boutique non alimentaire","Vente de gaz domestique (Butane, Propane)","Automate CB 24/24"]},{"id":13122001,"lat":43.54117,"lng":5.27115,"addr":"RES.VAL LOURDES","city":"Ventabren","cp":"13122","fuels":{"Gazole":{"p":2.09,"d":"2026-05-01"},"E10":{"p":1.99,"d":"2026-05-01"}},"brand":"TotalEnergies","services":["Boutique alimentaire","Boutique non alimentaire","Vente de fioul domestique","Station de gonflage","Carburant additivé","Piste poids lourds","Lavage automatique","Lavage manuel","Services réparation / entretien","DAB (Distributeur automatique de billets)"]},{"id":13320005,"lat":43.434,"lng":5.396,"addr":"456 Avenue des Chabauds","city":"Bouc-Bel-Air","cp":"13320","fuels":{"Gazole":{"p":2.338,"d":"2026-04-30"},"GPLc":{"p":1.099,"d":"2026-04-30"},"E10":{"p":2.086,"d":"2026-04-30"},"SP98":{"p":2.186,"d":"2026-04-30"}},"brand":"Esso","h24":true,"services":["Toilettes publiques","Boutique alimentaire","Restauration à emporter","Restauration sur place","Station de gonflage","Carburant additivé","Aire de camping-cars","Piste poids lourds","Espace bébé","Wifi","Automate CB 24/24","DAB (Distributeur automatique de billets)"]},{"id":13100014,"lat":43.520864167099994,"lng":5.45900219773,"addr":"122 COURS GAMBETTA","city":"Aix-en-Provence","cp":"13100","fuels":{"Gazole":{"p":2.09,"d":"2026-05-01"},"E85":{"p":0.889,"d":"2026-05-01"},"E10":{"p":1.99,"d":"2026-05-01"}},"brand":"TotalEnergies","services":["Boutique alimentaire","Boutique non alimentaire","Station de gonflage","Lavage automatique"]},{"id":13310001,"lat":43.641,"lng":4.797,"addr":"ZA du SALAT","city":"Saint-Martin-de-Crau","cp":"13310","fuels":{"Gazole":{"p":2.209,"d":"2026-04-27"},"SP95":{"p":2.119,"d":"2026-04-27"},"SP98":{"p":2.179,"d":"2026-04-27"}},"brand":"Système U","h24":true,"services":["Laverie","Boutique alimentaire","Boutique non alimentaire","Aire de camping-cars","Location de véhicule","Piste poids lourds","Vente de gaz domestique (Butane, Propane)","Automate CB 24/24","DAB (Distributeur automatique de billets)"]},{"id":13310002,"lat":43.634,"lng":4.8,"addr":"ZA DU CABRAU","city":"Saint-Martin-de-Crau","cp":"13310","fuels":{"Gazole":{"p":2.209,"d":"2026-04-28"},"SP95":{"p":2.119,"d":"2026-04-28"},"E85":{"p":0.819,"d":"2026-04-28"},"E10":{"p":2.049,"d":"2026-04-28"}},"h24":true,"services":["Laverie","Vente de pétrole lampant","Station de gonflage","Location de véhicule","Piste poids lourds","Lavage automatique","Vente de gaz domestique (Butane, Propane)","Vente d'additifs carburants","Automate CB 24/24","DAB (Distributeur automatique de billets)"]},{"id":13860001,"lat":43.644,"lng":5.577,"addr":"route du plan","city":"Peyrolles-en-Provence","cp":"13860","fuels":{"Gazole":{"p":2.199,"d":"2026-04-28"},"E85":{"p":0.929,"d":"2026-04-28"},"E10":{"p":2.07,"d":"2026-04-28"},"SP98":{"p":2.16,"d":"2026-04-28"}},"h24":true,"services":["Station de gonflage","Piste poids lourds","Lavage automatique","Automate CB 24/24"]},{"id":13910001,"lat":43.832,"lng":4.787,"addr":"LIEU-DIT MARTINET","city":"Maillane","cp":"13910","fuels":{"Gazole":{"p":2.249,"d":"2026-04-27"},"E10":{"p":2.059,"d":"2026-04-27"},"SP98":{"p":2.139,"d":"2026-04-27"}},"brand":"Système U","h24":true,"services":["Boutique alimentaire","Lavage automatique","Vente de gaz domestique (Butane, Propane)","Automate CB 24/24"]},{"id":13680007,"lat":43.5989035599,"lng":5.15904855677,"addr":"AUTOROUTE A7 - AIRE DE LANÇON EST","city":"Lançon-Provence","cp":"13680","fuels":{"Gazole":{"p":2.09,"d":"2026-05-01"},"E85":{"p":0.999,"d":"2026-05-01"},"GPLc":{"p":1.129,"d":"2026-05-01"}},"brand":"TotalEnergies","services":["Toilettes publiques","Douches","Boutique alimentaire","Boutique non alimentaire","Station de gonflage","Carburant additivé","Piste poids lourds","Espace bébé","DAB (Distributeur automatique de billets)"]},{"id":13009008,"lat":43.272,"lng":5.401,"addr":"32 BOULEVARD SCHLOESING","city":"MARSEILLE","cp":"13009","fuels":{"Gazole":{"p":2.09,"d":"2026-05-01"}},"brand":"TotalEnergies","services":["Boutique alimentaire","Boutique non alimentaire","Restauration à emporter","Station de gonflage","Carburant additivé","Lavage automatique","Lavage manuel","Vente de gaz domestique (Butane, Propane)","DAB (Distributeur automatique de billets)"]},{"id":13012028,"lat":43.317,"lng":5.44,"addr":"7 CHEMIN DES AMARYLLIS","city":"MARSEILLE","cp":"13012","fuels":{"Gazole":{"p":2.199,"d":"2026-04-24"},"SP95":{"p":2.149,"d":"2026-04-24"},"E10":{"p":1.979,"d":"2026-04-24"}},"brand":"Carrefour","services":["Boutique alimentaire","Boutique non alimentaire","Vente de fioul domestique","Vente de pétrole lampant","Lavage automatique","Vente de gaz domestique (Butane, Propane)"]},{"id":13009011,"lat":43.246293582995,"lng":5.4158167195099995,"addr":"Avenue du Maréchal De Lattre De Tassigny - 9e Arrondissement","city":"Marseille","cp":"13009","fuels":{"Gazole":{"p":2.133,"d":"2026-04-30"},"E85":{"p":0.819,"d":"2026-04-18"},"E10":{"p":1.983,"d":"2026-04-30"},"SP98":{"p":2.098,"d":"2026-04-30"}},"brand":"Intermarché","h24":true,"services":["Boutique alimentaire","Station de gonflage","Automate CB 24/24"]},{"id":13160002,"lat":43.888,"lng":4.849,"addr":"321 Boulevard Ernest Genevet","city":"CHâTEAURENARD","cp":"13160","fuels":{"Gazole":{"p":2.239,"d":"2026-04-28"},"E10":{"p":1.999,"d":"2026-04-18"},"SP98":{"p":2.129,"d":"2026-04-25"}},"brand":"Intermarché","h24":true,"services":["Laverie","Station de gonflage","Piste poids lourds","Lavage automatique","Vente de gaz domestique (Butane, Propane)","Bornes électriques","Automate CB 24/24","DAB (Distributeur automatique de billets)"]},{"id":13680010,"lat":43.58718349829,"lng":5.1392947716414,"addr":"1 AV DE LA 1ERE ARMEE FRANCAISE, CARREFOUR CONTACT","city":"LANCON-PROVENCE","cp":"13680","fuels":{"Gazole":{"p":2.219,"d":"2026-04-30"},"E85":{"p":0.859,"d":"2026-03-23"},"E10":{"p":2.019,"d":"2026-04-30"},"SP98":{"p":2.169,"d":"2026-04-30"}},"brand":"Carrefour","services":["Laverie","Relais colis","Boutique non alimentaire","Restauration à emporter","Location de véhicule","Vente de gaz domestique (Butane, Propane)","Bornes électriques"]},{"id":13740003,"lat":43.367,"lng":5.246,"addr":"RN598 LA CARRAIRADE","city":"LE ROVE","cp":"13740","fuels":{"Gazole":{"p":2.188,"d":"2026-04-30"},"E10":{"p":2.004,"d":"2026-04-30"},"SP98":{"p":2.149,"d":"2026-04-30"}},"brand":"Auchan","services":["Boutique alimentaire","Vente de gaz domestique (Butane, Propane)","Wifi"]},{"id":13160004,"lat":43.879,"lng":4.85,"addr":"AVENUE DELATTRE DE TASSIGNY","city":"Châteaurenard","cp":"13160","fuels":{"Gazole":{"p":2.269,"d":"2026-04-20"},"E85":{"p":0.799,"d":"2026-04-20"},"E10":{"p":1.999,"d":"2026-04-20"}},"brand":"Carrefour","services":["Station de gonflage","Vente de gaz domestique (Butane, Propane)","DAB (Distributeur automatique de billets)"]},{"id":13005012,"lat":43.293,"lng":5.402,"addr":"103 BOULEVARD SAKAKINI","city":"MARSEILLE","cp":"13005","fuels":{"Gazole":{"p":2.09,"d":"2026-05-01"},"E85":{"p":0.903,"d":"2026-05-01"},"E10":{"p":1.99,"d":"2026-05-01"}},"brand":"TotalEnergies","services":["Boutique alimentaire","Boutique non alimentaire","Station de gonflage","Carburant additivé","Lavage automatique","Vente de gaz domestique (Butane, Propane)","Wifi"]},{"id":13700009,"lat":43.388,"lng":5.245,"addr":"AUTOROUTE A55 - AIRE GIGNAC SUD LA NERTHE","city":"Gignac-la-Nerthe","cp":"13180","fuels":{"Gazole":{"p":2.09,"d":"2026-05-01"},"E85":{"p":0.999,"d":"2026-05-01"},"GPLc":{"p":1.139,"d":"2026-05-01"},"E10":{"p":1.99,"d":"2026-05-01"},"SP98":{"p":1.99,"d":"2026-05-01"}},"brand":"TotalEnergies","services":["Toilettes publiques","Douches","Boutique alimentaire","Boutique non alimentaire","Restauration à emporter","Restauration sur place","Station de gonflage","Carburant additivé","Aire de camping-cars","Piste poids lourds","Espace bébé","Vente d'additifs carburants","Wifi","DAB (Distributeur automatique de billets)"]},{"id":13124004,"lat":43.401,"lng":5.576,"addr":"Autoroute A52 - Aire de Marcel Pagnol","city":"Peypin","cp":"13124","fuels":{"Gazole":{"p":2.254,"d":"2026-04-28"},"E85":{"p":0.82,"d":"2026-04-30"},"GPLc":{"p":1.108,"d":"2026-04-15"},"E10":{"p":2.065,"d":"2026-04-28"},"SP98":{"p":2.14,"d":"2026-04-23"}},"brand":"Leclerc","h24":true,"services":["Toilettes publiques","Douches","Boutique alimentaire","Boutique non alimentaire","Station de gonflage","Carburant additivé","Piste poids lourds","Espace bébé","Vente d'additifs carburants","Wifi","Automate CB 24/24"]},{"id":13000001,"lat":43.31339,"lng":5.40524,"addr":"33 Boulevard du Maréchal Juin","city":"Marseille","cp":"13004","fuels":{"Gazole":{"p":2.185,"d":"2026-04-27"},"SP95":{"p":2.049,"d":"2026-04-24"},"E85":{"p":0.828,"d":"2026-04-24"},"E10":{"p":1.999,"d":"2026-04-27"}},"brand":"Groupement des Mousquetaires","services":["DAB (Distributeur automatique de billets)"]},{"id":13790005,"lat":43.47,"lng":5.655,"addr":"AUTOROUTE A8 AIRE DE LA SAINTE VICTOIRE","city":"Rousset","cp":"13790","fuels":{"Gazole":{"p":2.283,"d":"2026-04-28"},"GPLc":{"p":1.108,"d":"2026-04-28"},"E10":{"p":2.124,"d":"2026-04-28"},"SP98":{"p":2.239,"d":"2026-04-28"}},"brand":"Shell","h24":true,"services":["Toilettes publiques","Douches","Boutique alimentaire","Restauration à emporter","Restauration sur place","Station de gonflage","Piste poids lourds","Espace bébé","Bornes électriques","Automate CB 24/24"]},{"id":13340005,"lat":43.496204350752,"lng":5.2144995264378,"addr":"ROUTE NATIONALE 113","city":"ROGNAC","cp":"13340","fuels":{"Gazole":{"p":2.458,"d":"2026-04-30"}},"brand":"Shell","services":["Piste poids lourds","Vente d'additifs carburants"]},{"id":13003004,"lat":43.317,"lng":5.381,"addr":"83 BD DE PLOMBIERES","city":"Marseille","cp":"13003","fuels":{"Gazole":{"p":2.09,"d":"2026-05-01"},"E85":{"p":0.865,"d":"2026-05-01"},"E10":{"p":1.99,"d":"2026-05-01"},"SP98":{"p":1.99,"d":"2026-05-01"}},"brand":"TotalEnergies","services":["Boutique alimentaire","Boutique non alimentaire","Station de gonflage","Carburant additivé","Piste poids lourds","Lavage automatique","Services réparation / entretien","Vente de gaz domestique (Butane, Propane)","Vente d'additifs carburants","Wifi"]},{"id":13006005,"lat":43.285,"lng":5.391,"addr":"78 AV DE TOULON","city":"MARSEILLE","cp":"13006","fuels":{"Gazole":{"p":2.09,"d":"2026-05-01"}},"brand":"TotalEnergies","services":["Boutique alimentaire","Station de gonflage","Lavage automatique","Wifi"]},{"id":13011023,"lat":43.283087461219004,"lng":5.4970422889938,"addr":"78 boulevard de la Millière","city":"Marseille","cp":"13011","fuels":{"Gazole":{"p":2.23,"d":"2026-04-30"},"E85":{"p":0.918,"d":"2026-04-09"},"E10":{"p":2.11,"d":"2026-04-30"},"SP98":{"p":2.16,"d":"2026-04-30"}},"services":["Boutique alimentaire","Boutique non alimentaire","Station de gonflage","Piste poids lourds","Vente de gaz domestique (Butane, Propane)","Vente d'additifs carburants"]},{"id":13160001,"lat":43.886791799165,"lng":4.8538292267059,"addr":"CHEMIN DE L'ORATOIRE","city":"CHâTEAURENARD","cp":"13160","fuels":{"Gazole":{"p":2.228,"d":"2026-04-30"},"E10":{"p":1.997,"d":"2026-04-30"},"SP98":{"p":2.157,"d":"2026-04-30"}},"brand":"GAROUCHA","services":["Boutique alimentaire","Boutique non alimentaire","Restauration à emporter","Vente de fioul domestique","Station de gonflage","Carburant additivé","Piste poids lourds","Lavage automatique","Lavage manuel","Vente de gaz domestique (Butane, Propane)"]},{"id":13118001,"lat":43.598863932079006,"lng":4.935703870555701,"addr":"74 AVENUE DE LA CRAU","city":"ENTRESSEN","cp":"13118","fuels":{"Gazole":{"p":2.179,"d":"2026-04-29"},"E85":{"p":0.925,"d":"2026-04-29"},"E10":{"p":1.999,"d":"2026-04-29"},"SP98":{"p":2.109,"d":"2026-04-29"}},"h24":true,"services":["Lavage automatique","Automate CB 24/24"]},{"id":13320013,"lat":43.441455,"lng":5.434099,"addr":"CD6","city":"Bouc-Bel-Air","cp":"13320","fuels":{"Gazole":{"p":2.248,"d":"2026-04-21"},"E85":{"p":0.997,"d":"2026-04-21"},"E10":{"p":1.999,"d":"2026-04-21"},"SP98":{"p":2.098,"d":"2026-04-21"}},"brand":"Esso","services":["Toilettes publiques","Boutique alimentaire","Restauration à emporter","Station de gonflage","Carburant additivé","Piste poids lourds","Lavage automatique","Vente de gaz domestique (Butane, Propane)","Vente d'additifs carburants","Wifi"]},{"id":13240002,"lat":43.393,"lng":5.364,"addr":"38 avenue du 8 mai 1945","city":"Septèmes-les-Vallons","cp":"13240","fuels":{"Gazole":{"p":2.229,"d":"2026-04-27"},"SP95":{"p":2.078,"d":"2026-03-24"}},"services":["Relais colis","Boutique alimentaire","Station de gonflage","Piste poids lourds","Lavage automatique","Lavage manuel","Services réparation / entretien","Vente de gaz domestique (Butane, Propane)","Vente d'additifs carburants"]},{"id":13170007,"lat":43.412,"lng":5.313,"addr":"970 D113 N","city":"Les Pennes-Mirabeau","cp":"13170","fuels":{"Gazole":{"p":2.23,"d":"2026-04-19"},"SP95":{"p":2.134,"d":"2026-04-27"},"SP98":{"p":2.144,"d":"2026-04-27"}},"brand":"Avia","services":["Carburant additivé","Piste poids lourds","Lavage automatique","Vente de gaz domestique (Butane, Propane)"]},{"id":13009009,"lat":43.254,"lng":5.421,"addr":"81 BOULEVARD DU REDON","city":"Marseille","cp":"13009","fuels":{"Gazole":{"p":2.299,"d":"2026-04-17"},"GPLc":{"p":1.049,"d":"2026-04-17"},"E10":{"p":2.029,"d":"2026-04-29"},"SP98":{"p":2.109,"d":"2026-04-29"}},"brand":"Avia","services":["Toilettes publiques","Boutique alimentaire","Station de gonflage","Carburant additivé","Lavage automatique","Lavage manuel","Vente de gaz domestique (Butane, Propane)"]},{"id":13880002,"lat":43.5285,"lng":5.25782,"addr":"Quartier Les Restoufles","city":"VELAUX","cp":"13880","fuels":{"Gazole":{"p":2.189,"d":"2026-04-27"},"E10":{"p":1.999,"d":"2026-04-01"},"SP98":{"p":2.089,"d":"2026-04-01"}},"brand":"Intermarché","h24":true,"services":["Lavage automatique","Vente de gaz domestique (Butane, Propane)","Automate CB 24/24","DAB (Distributeur automatique de billets)"]},{"id":13100006,"lat":43.559867682045,"lng":5.4614712806744,"addr":"Anc. Rte des Alpes","city":"Aix-en-Provence","cp":"13100","fuels":{"Gazole":{"p":2.18,"d":"2026-05-01"},"E85":{"p":0.979,"d":"2026-05-01"},"E10":{"p":1.989,"d":"2026-05-01"},"SP98":{"p":2.092,"d":"2026-05-01"}},"brand":"Esso","h24":true,"services":["Automate CB 24/24"]},{"id":13300008,"lat":43.634,"lng":5.091,"addr":"Boulevard Reine Jeanne","city":"Salon-de-Provence","cp":"13300","fuels":{"Gazole":{"p":2.193,"d":"2026-04-29"},"E85":{"p":0.818,"d":"2026-04-29"},"E10":{"p":1.993,"d":"2026-04-29"},"SP98":{"p":2.189,"d":"2026-04-29"}},"brand":"Intermarché","services":["Vente de fioul domestique","Lavage manuel","Vente de gaz domestique (Butane, Propane)","DAB (Distributeur automatique de billets)"]},{"id":13650002,"lat":43.64,"lng":5.523,"addr":"RD96 - 1717","city":"MEYRARGUES","cp":"13650","fuels":{"Gazole":{"p":2.199,"d":"2026-04-29"},"E10":{"p":1.996,"d":"2026-04-29"},"SP98":{"p":2.158,"d":"2026-04-29"}},"brand":"Esso","h24":true,"services":["Boutique non alimentaire","Restauration à emporter","Station de gonflage","Carburant additivé","Piste poids lourds","Lavage automatique","Vente de gaz domestique (Butane, Propane)","Vente d'additifs carburants","Automate CB 24/24"]},{"id":13230001,"lat":43.38772,"lng":4.80516,"addr":"2 avenue de la République","city":"Port-Saint-Louis-du-Rhône","cp":"13230","fuels":{"Gazole":{"p":2.159,"d":"2026-04-23"},"SP95":{"p":2.095,"d":"2026-04-23"},"E85":{"p":0.819,"d":"2026-04-23"},"E10":{"p":1.995,"d":"2026-04-23"}},"brand":"Intermarché","services":["Vente de pétrole lampant","Lavage automatique","Vente de gaz domestique (Butane, Propane)","DAB (Distributeur automatique de billets)"]},{"id":13710005,"lat":43.444606093061,"lng":5.5528995302262,"addr":"LOTISSEMENT GRAND VALLAT","city":"Fuveau","cp":"13710","fuels":{"Gazole":{"p":2.254,"d":"2026-04-29"},"E10":{"p":2.005,"d":"2026-04-14"}},"brand":"Intermarché","h24":true,"services":["Automate CB 24/24"]},{"id":13008014,"lat":43.243,"lng":5.369,"addr":"1 Avenue d'Odessa","city":"MARSEILLE","cp":"13008","fuels":{"Gazole":{"p":2.199,"d":"2026-04-28"},"SP95":{"p":2.099,"d":"2026-04-28"},"SP98":{"p":2.159,"d":"2026-04-28"}},"brand":"Avia","services":["Boutique alimentaire","Boutique non alimentaire","Restauration à emporter","Restauration sur place","Station de gonflage","Piste poids lourds","Lavage automatique","Lavage manuel","Vente de gaz domestique (Butane, Propane)","Vente d'additifs carburants"]},{"id":13127012,"lat":43.446,"lng":5.247,"addr":"BD VICTOR GELU","city":"VITROLLES","cp":"13127","fuels":{"Gazole":{"p":2.199,"d":"2026-05-01"},"E10":{"p":2.069,"d":"2026-05-01"},"SP98":{"p":2.179,"d":"2026-05-01"}},"brand":"Esso","h24":true,"services":["Station de gonflage","Carburant additivé","Piste poids lourds","Automate CB 24/24"]},{"id":13600023,"lat":43.191,"lng":5.602,"addr":"QUARTIER PIGNET DU ROHAN ZAC DE LATTRE DE TASSIGNY","city":"La Ciotat","cp":"13600","fuels":{"Gazole":{"p":2.199,"d":"2026-04-29"},"E85":{"p":0.818,"d":"2026-04-16"},"E10":{"p":1.989,"d":"2026-04-29"}},"brand":"Intermarché","h24":true,"services":["Automate CB 24/24"]},{"id":13330001,"lat":43.629433478098,"lng":5.1344906934422,"addr":"34 route de salon de provence","city":"Pélissanne","cp":"13330","fuels":{"Gazole":{"p":2.169,"d":"2026-04-27"},"E85":{"p":0.819,"d":"2026-04-16"},"E10":{"p":2.019,"d":"2026-04-27"},"SP98":{"p":2.209,"d":"2026-04-16"}},"brand":"Intermarché","h24":true,"services":["Station de gonflage","Piste poids lourds","Lavage automatique","Lavage manuel","Vente de gaz domestique (Butane, Propane)","Vente d'additifs carburants","Automate CB 24/24","DAB (Distributeur automatique de billets)"]},{"id":13007008,"lat":43.278567,"lng":5.3632409999999995,"addr":"95 Avenue des roches","city":"Marseille","cp":"13007","fuels":{"Gazole":{"p":2.329,"d":"2026-05-01"},"E10":{"p":2.129,"d":"2026-05-01"},"SP98":{"p":2.229,"d":"2026-05-01"}},"brand":"Eni","services":["Toilettes publiques","Boutique alimentaire","Station de gonflage","Carburant additivé","Vente de gaz domestique (Butane, Propane)"]},{"id":13008001,"lat":43.253,"lng":5.397,"addr":"365 Avenue de Mazargues","city":"Marseille","cp":"13008","fuels":{"Gazole":{"p":2.316,"d":"2026-04-10"},"E85":{"p":0.818,"d":"2026-04-28"},"E10":{"p":1.998,"d":"2026-04-28"}},"brand":"Casino","h24":true,"services":["Station de gonflage","Lavage automatique","Automate CB 24/24","DAB (Distributeur automatique de billets)"]},{"id":13200019,"lat":43.662,"lng":4.633,"addr":"QUARTIER SUD FOURCHON","city":"ARLES","cp":"13200","fuels":{"Gazole":{"p":2.209,"d":"2026-05-01"},"E10":{"p":2.052,"d":"2026-05-01"},"SP98":{"p":2.162,"d":"2026-05-01"}},"brand":"Esso","h24":true,"services":["Station de gonflage","Carburant additivé","Automate CB 24/24"]},{"id":13122002,"lat":43.546310571283996,"lng":5.2939253791393,"addr":"Avenue Charles de Gaulle","city":"VENTABREN","cp":"13122","fuels":{"Gazole":{"p":2.179,"d":"2026-04-27"},"E85":{"p":0.819,"d":"2026-04-16"},"E10":{"p":1.979,"d":"2026-04-27"},"SP98":{"p":2.109,"d":"2026-04-27"}},"brand":"Intermarché","h24":true,"services":["Vente de fioul domestique","Station de gonflage","Vente de gaz domestique (Butane, Propane)","Automate CB 24/24"]},{"id":13600013,"lat":43.194,"lng":5.671,"addr":"A50 - AIRE DE LA BAIE DE LA CIOTAT (ex plaines baronnes) sens toulon -marseille","city":"La Ciotat","cp":"13600","fuels":{"Gazole":{"p":2.309,"d":"2026-04-28"},"GPLc":{"p":1.206,"d":"2026-04-28"},"E10":{"p":2.1,"d":"2026-04-28"},"SP98":{"p":2.195,"d":"2026-04-28"}},"brand":"BP","h24":true,"services":["Toilettes publiques","Douches","Boutique alimentaire","Boutique non alimentaire","Restauration à emporter","Restauration sur place","Station de gonflage","Carburant additivé","Piste poids lourds","Espace bébé","Bornes électriques","Vente d'additifs carburants","Wifi","Automate CB 24/24"]},{"id":13480001,"lat":43.465,"lng":5.353,"addr":"CENTRE COMMERCIAL CALAS","city":"Cabriès","cp":"13480","fuels":{"Gazole":{"p":2.09,"d":"2026-05-01"},"SP98":{"p":1.99,"d":"2026-05-01"}},"brand":"TotalEnergies","h24":true,"services":["Boutique alimentaire","Boutique non alimentaire","Restauration à emporter","Station de gonflage","Carburant additivé","Piste poids lourds","Lavage automatique","Services réparation / entretien","Vente de gaz domestique (Butane, Propane)","Vente d'additifs carburants","Wifi","Automate CB 24/24"]},{"id":13500012,"lat":43.419798005996,"lng":5.055604197409,"addr":"AV. FRANCIS TURCAN","city":"MARTIGUES","cp":"13500","fuels":{"Gazole":{"p":2.09,"d":"2026-05-01"},"E85":{"p":0.829,"d":"2026-05-01"},"E10":{"p":1.99,"d":"2026-05-01"},"SP98":{"p":1.99,"d":"2026-05-01"}},"brand":"TotalEnergies","h24":true,"services":["Boutique alimentaire","Boutique non alimentaire","Station de gonflage","Carburant additivé","Lavage automatique","Vente de gaz domestique (Butane, Propane)","Wifi","Automate CB 24/24","DAB (Distributeur automatique de billets)"]},{"id":13150003,"lat":43.795,"lng":4.693,"addr":"Route de Saint-Rémy","city":"Tarascon","cp":"13150","fuels":{"Gazole":{"p":2.199,"d":"2026-04-27"},"SP95":{"p":2.069,"d":"2026-04-20"},"E85":{"p":0.818,"d":"2026-04-16"},"E10":{"p":1.991,"d":"2026-04-23"}},"brand":"Intermarché","h24":true,"services":["Piste poids lourds","Lavage automatique","Vente de gaz domestique (Butane, Propane)","Automate CB 24/24","DAB (Distributeur automatique de billets)"]},{"id":13016007,"lat":43.3564,"lng":5.32755,"addr":"654 CHEMIN DU LITTORAL","city":"MARSEILLE","cp":"13016","fuels":{"Gazole":{"p":2.09,"d":"2026-05-01"},"E10":{"p":1.99,"d":"2026-05-01"},"SP98":{"p":1.99,"d":"2026-05-01"}},"brand":"TotalEnergies","services":["Boutique alimentaire","Boutique non alimentaire","Vente de gaz domestique (Butane, Propane)"]},{"id":13013002,"lat":43.352,"lng":5.437,"addr":"37 Avenue de Château-Gombert","city":"Marseille","cp":"13013","fuels":{"Gazole":{"p":2.209,"d":"2026-04-30"},"E10":{"p":2.059,"d":"2026-04-30"},"SP98":{"p":2.209,"d":"2026-04-30"}},"brand":"Esso","h24":true,"services":["Carburant additivé","Automate CB 24/24"]},{"id":13580003,"lat":43.551,"lng":5.202,"addr":"19 Avenue du Général de Gaulle","city":"La Fare-les-Oliviers","cp":"13580","fuels":{"Gazole":{"p":2.199,"d":"2026-04-23"},"SP95":{"p":1.999,"d":"2026-04-23"},"E85":{"p":0.859,"d":"2026-04-23"}},"services":["Toilettes publiques","Piste poids lourds","DAB (Distributeur automatique de billets)"]},{"id":13011017,"lat":43.28602,"lng":5.42682,"addr":"359 BD MIREILLE LAUZE","city":"MARSEILLE","cp":"13011","fuels":{"Gazole":{"p":2.09,"d":"2026-05-01"},"E85":{"p":0.869,"d":"2026-05-01"},"E10":{"p":1.99,"d":"2026-05-01"},"SP98":{"p":1.99,"d":"2026-05-01"}},"brand":"TotalEnergies","services":["Boutique alimentaire","Boutique non alimentaire","Station de gonflage","Carburant additivé","Piste poids lourds","Lavage automatique","Vente de gaz domestique (Butane, Propane)","DAB (Distributeur automatique de billets)"]},{"id":13005013,"lat":43.295,"lng":5.4,"addr":"ANGLE BD CHAVE ET SAKAKINI","city":"Marseille","cp":"13005","fuels":{"Gazole":{"p":2.09,"d":"2026-05-01"},"E85":{"p":0.869,"d":"2026-05-01"}},"brand":"TotalEnergies","h24":true,"services":["Boutique alimentaire","Boutique non alimentaire","Station de gonflage","Lavage automatique","Lavage manuel","Services réparation / entretien","Vente de gaz domestique (Butane, Propane)","Vente d'additifs carburants","Wifi","Automate CB 24/24","DAB (Distributeur automatique de billets)"]},{"id":13170008,"lat":43.381914828962,"lng":5.3466057732903005,"addr":"110 Avenue François Mitterand","city":"Les Pennes-Mirabeau","cp":"13170","fuels":{"Gazole":{"p":2.189,"d":"2026-04-25"},"SP95":{"p":2.049,"d":"2026-04-15"},"E10":{"p":1.999,"d":"2026-04-15"},"SP98":{"p":2.089,"d":"2026-04-15"}},"brand":"Independent","services":["Toilettes publiques","Boutique alimentaire","Boutique non alimentaire","Station de gonflage","Piste poids lourds","Services réparation / entretien","Vente de gaz domestique (Butane, Propane)","Vente d'additifs carburants"]},{"id":13110004,"lat":43.406,"lng":4.981,"addr":"45 Avenue Maurice Thorez","city":"PORT-DE-BOUC","cp":"13110","fuels":{"Gazole":{"p":2.24,"d":"2026-04-29"},"E10":{"p":2.02,"d":"2026-04-29"},"SP98":{"p":2.14,"d":"2026-04-29"}},"h24":true,"services":["Boutique non alimentaire","Station de gonflage","Lavage automatique","Lavage manuel","Vente de gaz domestique (Butane, Propane)","Vente d'additifs carburants","Automate CB 24/24"]},{"id":13320012,"lat":43.463,"lng":5.407,"addr":"341 AV DE LA CROIX D OR","city":"Bouc-Bel-Air","cp":"13320","fuels":{"Gazole":{"p":2.09,"d":"2026-05-01"}},"brand":"TotalEnergies","h24":true,"services":["Toilettes publiques","Boutique alimentaire","Boutique non alimentaire","Station de gonflage","Carburant additivé","Piste poids lourds","Lavage automatique","Vente de gaz domestique (Butane, Propane)","Vente d'additifs carburants","Wifi","Automate CB 24/24"]},{"id":13400007,"lat":43.295,"lng":5.56,"addr":"550 Avenue Antide Boyer","city":"Aubagne","cp":"13400","fuels":{"Gazole":{"p":2.305,"d":"2026-04-30"},"E85":{"p":0.978,"d":"2026-04-30"},"E10":{"p":2.055,"d":"2026-04-30"},"SP98":{"p":2.159,"d":"2026-04-30"}},"brand":"Esso"},{"id":13200015,"lat":43.671,"lng":4.622,"addr":"N°1 AV BACHAGA SAID BOUALEM","city":"ARLES","cp":"13200","fuels":{"Gazole":{"p":2.09,"d":"2026-05-01"},"GPLc":{"p":1.059,"d":"2026-05-01"},"E10":{"p":1.99,"d":"2026-05-01"},"SP98":{"p":1.99,"d":"2026-05-01"}},"brand":"TotalEnergies","services":["Toilettes publiques","Boutique alimentaire","Boutique non alimentaire","Restauration à emporter","Station de gonflage","Carburant additivé","Piste poids lourds","Lavage automatique","Vente de gaz domestique (Butane, Propane)","Vente d'additifs carburants","Wifi"]},{"id":13450001,"lat":43.601650511466005,"lng":5.0746754516205,"addr":"50 IMPASSE DES CHENES VERTS","city":"Grans","cp":"13450","fuels":{"Gazole":{"p":2.189,"d":"2026-04-29"},"E10":{"p":2.039,"d":"2026-04-29"},"SP98":{"p":2.189,"d":"2026-04-29"}},"brand":"Système U","services":["Relais colis"]},{"id":13150001,"lat":43.811,"lng":4.666,"addr":"route d'avignon","city":"TARASCON","cp":"13150","fuels":{"Gazole":{"p":2.198,"d":"2026-04-30"},"E10":{"p":1.99,"d":"2026-04-28"},"SP98":{"p":2.055,"d":"2026-04-21"}},"brand":"Auchan","h24":true,"services":["Vente de gaz domestique (Butane, Propane)","Bornes électriques","Automate CB 24/24","DAB (Distributeur automatique de billets)"]},{"id":13200016,"lat":43.691,"lng":4.638,"addr":"99 AVENUE DE STALINGRAD","city":"ARLES","cp":"13200","fuels":{"Gazole":{"p":2.09,"d":"2026-05-01"},"E85":{"p":0.829,"d":"2026-05-01"},"E10":{"p":1.99,"d":"2026-05-01"}},"brand":"TotalEnergies","services":["Boutique alimentaire","Boutique non alimentaire","Station de gonflage","Lavage automatique","Vente de gaz domestique (Butane, Propane)","Wifi","DAB (Distributeur automatique de billets)"]},{"id":13140005,"lat":43.6,"lng":5.003,"addr":"Avenue du 8 Mai 1945","city":"MIRAMAS","cp":"13140","fuels":{"Gazole":{"p":2.159,"d":"2026-04-30"},"E85":{"p":0.818,"d":"2026-04-22"},"E10":{"p":1.995,"d":"2026-04-30"},"SP98":{"p":2.099,"d":"2026-04-30"}},"brand":"Intermarché","h24":true,"services":["Laverie","Vente de pétrole lampant","Station de gonflage","Location de véhicule","Lavage automatique","Lavage manuel","Vente de gaz domestique (Butane, Propane)","Automate CB 24/24","DAB (Distributeur automatique de billets)"]},{"id":13270014,"lat":43.4388145,"lng":4.9455525230769,"addr":"215 avenue Georges Pompidou","city":"Fos-sur-Mer","cp":"13270","fuels":{"Gazole":{"p":2.199,"d":"2026-04-28"},"SP95":{"p":2.099,"d":"2026-04-28"},"E85":{"p":0.859,"d":"2026-04-28"},"SP98":{"p":2.159,"d":"2026-04-28"}},"h24":true,"services":["Boutique alimentaire","Boutique non alimentaire","Station de gonflage","Carburant additivé","Vente d'additifs carburants","Automate CB 24/24"]},{"id":13115001,"lat":43.686,"lng":5.713,"addr":"D952 LIEU DIT LE CARROUQUIER","city":"Saint-Paul-lez-Durance","cp":"13115","fuels":{"Gazole":{"p":2.25,"d":"2026-04-17"},"SP95":{"p":1.99,"d":"2026-04-23"}},"brand":"TotalEnergies","h24":true,"services":["Relais colis","Boutique alimentaire","Boutique non alimentaire","Station de gonflage","Carburant additivé","Piste poids lourds","Lavage automatique","Lavage manuel","Services réparation / entretien","Vente de gaz domestique (Butane, Propane)","Automate CB 24/24"]},{"id":13112005,"lat":43.384,"lng":5.602,"addr":"672 Route des vignerons","city":"LA DESTROUSSE","cp":"13112","fuels":{"Gazole":{"p":2.299,"d":"2026-04-29"},"SP95":{"p":2.059,"d":"2026-04-29"},"E85":{"p":0.999,"d":"2026-04-29"},"E10":{"p":2.029,"d":"2026-04-29"},"SP98":{"p":2.109,"d":"2026-04-29"}},"brand":"Avia","h24":true,"services":["Relais colis","Boutique alimentaire","Boutique non alimentaire","Station de gonflage","Carburant additivé","Piste poids lourds","Lavage automatique","Lavage manuel","Vente de gaz domestique (Butane, Propane)","Automate CB 24/24"]},{"id":13120001,"lat":43.465,"lng":5.464,"addr":"Petit Chemin d'Aix","city":"Gardanne","cp":"13120","fuels":{"Gazole":{"p":2.191,"d":"2026-04-29"},"E85":{"p":0.819,"d":"2026-04-24"},"E10":{"p":2.02,"d":"2026-04-29"},"SP98":{"p":2.152,"d":"2026-04-29"}},"brand":"Carrefour","h24":true,"services":["Relais colis","Location de véhicule","Vente de gaz domestique (Butane, Propane)","Automate CB 24/24","DAB (Distributeur automatique de billets)"]},{"id":13120003,"lat":43.452,"lng":5.454,"addr":"Chemin de la Plaine","city":"Gardanne","cp":"13120","fuels":{"Gazole":{"p":2.205,"d":"2026-04-29"},"E85":{"p":0.818,"d":"2026-04-20"},"E10":{"p":2.028,"d":"2026-04-29"},"SP98":{"p":2.144,"d":"2026-04-29"}},"brand":"Intermarché","h24":true,"services":["Station de gonflage","Vente de gaz domestique (Butane, Propane)","Bornes électriques","Automate CB 24/24","DAB (Distributeur automatique de billets)"]},{"id":13600015,"lat":43.18899,"lng":5.63252,"addr":"RD 559 AVENUE PAUL ROVARCH","city":"LA CIOTAT","cp":"13600","fuels":{"Gazole":{"p":2.09,"d":"2026-05-01"},"E10":{"p":1.99,"d":"2026-05-01"},"SP98":{"p":1.99,"d":"2026-05-01"}},"brand":"TotalEnergies","services":["Boutique alimentaire","Boutique non alimentaire","Restauration à emporter","Station de gonflage","Carburant additivé","Lavage automatique","Lavage manuel","Vente de gaz domestique (Butane, Propane)","DAB (Distributeur automatique de billets)"]},{"id":13016008,"lat":43.349,"lng":5.343,"addr":"450 CHEMIN DU LITTORAL","city":"MARSEILLE","cp":"13016","fuels":{"Gazole":{"p":2.09,"d":"2026-05-01"},"E85":{"p":0.869,"d":"2026-05-01"},"GPLc":{"p":1.069,"d":"2026-05-01"},"E10":{"p":1.99,"d":"2026-05-01"},"SP98":{"p":1.99,"d":"2026-05-01"}},"brand":"TotalEnergies","h24":true,"services":["Vente de fioul domestique","Carburant additivé","Piste poids lourds","Lavage automatique","Vente de gaz domestique (Butane, Propane)","Vente d'additifs carburants","Automate CB 24/24","DAB (Distributeur automatique de billets)"]},{"id":13127006,"lat":43.426,"lng":5.27,"addr":"Rue Bel Air","city":"VITROLLES","cp":"13127","fuels":{"Gazole":{"p":2.12,"d":"2026-04-30"},"E85":{"p":0.818,"d":"2026-04-28"},"E10":{"p":1.993,"d":"2026-04-30"}},"brand":"Leclerc","services":["Toilettes publiques","Boutique alimentaire","Boutique non alimentaire","Restauration sur place","Station de gonflage","Carburant additivé","Piste poids lourds","Lavage automatique","Lavage manuel","Vente de gaz domestique (Butane, Propane)","DAB (Distributeur automatique de billets)"]},{"id":13200020,"lat":43.7,"lng":4.642,"addr":"12 AVENUE DE LA LIBERATION","city":"ARLES","cp":"13200","fuels":{"Gazole":{"p":2.09,"d":"2026-05-01"},"E10":{"p":1.99,"d":"2026-05-01"}},"brand":"TotalEnergies","h24":true,"services":["Relais colis","Boutique alimentaire","Boutique non alimentaire","Restauration à emporter","Station de gonflage","Carburant additivé","Piste poids lourds","Lavage automatique","Lavage manuel","Vente de gaz domestique (Butane, Propane)","Vente d'additifs carburants","Wifi","Automate CB 24/24"]},{"id":13610001,"lat":43.662,"lng":5.448,"addr":"LES GOIRANDS","city":"LE PUY-SAINTE-RéPARADE","cp":"13610","fuels":{"Gazole":{"p":2.149,"d":"2026-04-30"},"E85":{"p":0.818,"d":"2026-04-28"},"E10":{"p":1.999,"d":"2026-04-28"},"SP98":{"p":2.069,"d":"2026-04-28"}},"brand":"Esso","services":["Toilettes publiques","Boutique alimentaire","Boutique non alimentaire","Restauration à emporter","Vente de fioul domestique","Station de gonflage","Carburant additivé","Piste poids lourds","Lavage automatique","Lavage manuel","Services réparation / entretien","Vente de gaz domestique (Butane, Propane)","DAB (Distributeur automatique de billets)"]},{"id":13011027,"lat":43.288883771769,"lng":5.4598792629444,"addr":"73 Boulevard de Saint Marcel","city":"Marseille 11e Arrondissement","cp":"13011","fuels":{"Gazole":{"p":2.299,"d":"2026-04-30"},"E10":{"p":2.099,"d":"2026-04-30"},"SP98":{"p":2.275,"d":"2026-04-30"}},"brand":"Carrefour","h24":true,"services":["Relais colis","Boutique alimentaire","Boutique non alimentaire","Restauration à emporter","Vente de gaz domestique (Butane, Propane)","Bornes électriques","Vente d'additifs carburants","Automate CB 24/24"]},{"id":13530003,"lat":43.45,"lng":5.687,"addr":"CHEMIN DU LOUP","city":"TRETS","cp":"13530","fuels":{"Gazole":{"p":2.149,"d":"2026-04-30"},"E10":{"p":1.965,"d":"2026-04-28"},"SP98":{"p":2.122,"d":"2026-04-30"}},"brand":"Auchan","h24":true,"services":["Station de gonflage","Vente de gaz domestique (Butane, Propane)","Wifi","Automate CB 24/24","DAB (Distributeur automatique de billets)"]},{"id":13100017,"lat":43.516,"lng":5.466,"addr":"AVENUE HENRI MAURIAT","city":"Aix-en-Provence","cp":"13100","fuels":{"Gazole":{"p":2.09,"d":"2026-05-01"}},"brand":"TotalEnergies","h24":true,"services":["Boutique alimentaire","Boutique non alimentaire","Station de gonflage","Carburant additivé","Lavage automatique","Services réparation / entretien","Vente de gaz domestique (Butane, Propane)","Vente d'additifs carburants","Wifi","Automate CB 24/24"]},{"id":13600022,"lat":43.192,"lng":5.666,"addr":"A50 - Aire des freres lumiere (ex liouquet) - Sens Marseille Toulon","city":"La Ciotat","cp":"13600","fuels":{"Gazole":{"p":2.309,"d":"2026-04-28"},"GPLc":{"p":1.206,"d":"2026-04-28"},"E10":{"p":2.1,"d":"2026-04-28"},"SP98":{"p":2.195,"d":"2026-04-28"}},"brand":"BP","h24":true,"services":["Toilettes publiques","Douches","Boutique alimentaire","Boutique non alimentaire","Restauration à emporter","Restauration sur place","Station de gonflage","Carburant additivé","Aire de camping-cars","Piste poids lourds","Espace bébé","GNV","Bornes électriques","Vente d'additifs carburants","Wifi","Automate CB 24/24","DAB (Distributeur automatique de billets)"]},{"id":13140001,"lat":43.576,"lng":4.998,"addr":"Boulevard Jacques Minet","city":"MIRAMAS","cp":"13140","fuels":{"Gazole":{"p":2.199,"d":"2026-04-28"},"E85":{"p":0.829,"d":"2026-04-30"},"E10":{"p":2.019,"d":"2026-04-30"},"SP98":{"p":2.099,"d":"2026-04-28"}},"brand":"Carrefour","services":["Location de véhicule","Vente de gaz domestique (Butane, Propane)","DAB (Distributeur automatique de billets)"]},{"id":13500006,"lat":43.411,"lng":5.026,"addr":"4 Avenue des Ormeaux","city":"Martigues","cp":"13500","fuels":{"Gazole":{"p":2.154,"d":"2026-04-30"},"E10":{"p":1.989,"d":"2026-04-30"},"SP98":{"p":2.081,"d":"2026-04-30"}},"brand":"Intermarché","services":["Toilettes publiques","Boutique alimentaire","Boutique non alimentaire","Restauration à emporter","Restauration sur place","Bar","Vente de fioul domestique","Station de gonflage","Aire de camping-cars","Lavage automatique","Services réparation / entretien","Vente de gaz domestique (Butane, Propane)","DAB (Distributeur automatique de billets)"]},{"id":13700005,"lat":43.412,"lng":5.207,"addr":"Chemin Saint Pierre","city":"Marignane","cp":"13700","fuels":{"Gazole":{"p":2.148,"d":"2026-04-25"},"SP95":{"p":2.059,"d":"2026-04-29"},"E10":{"p":1.989,"d":"2026-04-29"},"SP98":{"p":2.094,"d":"2026-04-27"}},"brand":"Leclerc","services":["Toilettes publiques","Boutique alimentaire","Boutique non alimentaire","Station de gonflage","Location de véhicule","Piste poids lourds","Lavage automatique","Vente de gaz domestique (Butane, Propane)","Bornes électriques","DAB (Distributeur automatique de billets)"]},{"id":13120005,"lat":43.434,"lng":5.465,"addr":"D 58 BIVER","city":"GARDANNE","cp":"13120","fuels":{"Gazole":{"p":2.259,"d":"2026-04-29"},"SP95":{"p":2.079,"d":"2026-04-29"},"SP98":{"p":2.189,"d":"2026-04-29"}},"brand":"Leclerc","services":["Boutique alimentaire","Vente de fioul domestique","Station de gonflage","Piste poids lourds","Vente de gaz domestique (Butane, Propane)"]},{"id":13000003,"lat":43.348451033044995,"lng":5.3770151681026,"addr":"60 bd Roland Dorgelès","city":"Marseille","cp":"13000","fuels":{"Gazole":{"p":2.25,"d":"2026-04-28"},"SP95":{"p":2.13,"d":"2026-04-28"},"SP98":{"p":2.16,"d":"2026-04-28"}},"h24":true,"services":["Toilettes publiques","Boutique alimentaire","Station de gonflage","Lavage automatique","Lavage manuel","Vente de gaz domestique (Butane, Propane)","Vente d'additifs carburants","Automate CB 24/24"]},{"id":13320014,"lat":43.441633614238,"lng":5.395413490732,"addr":"AIRE DE LA CHAMPOUSE AUTOROUTE A51","city":"BOUC-BEL-AIR","cp":"13320","fuels":{"Gazole":{"p":2.429,"d":"2026-04-30"},"E85":{"p":0.999,"d":"2026-04-30"},"E10":{"p":2.189,"d":"2026-04-30"},"SP98":{"p":2.229,"d":"2026-04-30"}},"brand":"Agip","services":["Toilettes publiques","Boutique alimentaire","Boutique non alimentaire","Station de gonflage","Carburant additivé"]},{"id":13300010,"lat":43.64,"lng":5.048,"addr":"RN 113 - ZAC DE LA CRAU","city":"Salon-de-Provence","cp":"13300","fuels":{"Gazole":{"p":2.09,"d":"2026-05-01"},"E85":{"p":0.826,"d":"2026-05-01"},"E10":{"p":1.99,"d":"2026-05-01"},"SP98":{"p":1.99,"d":"2026-05-01"}},"brand":"TotalEnergies","services":["Toilettes publiques","Douches","Boutique alimentaire","Boutique non alimentaire","Restauration à emporter","Restauration sur place","Bar","Station de gonflage","Carburant additivé","Piste poids lourds","Lavage automatique","Lavage manuel","Vente de gaz domestique (Butane, Propane)","DAB (Distributeur automatique de billets)"]},{"id":13470001,"lat":43.25,"lng":5.547,"addr":"26 Avenue Antoine Lavoisier","city":"Carnoux-en-Provence","cp":"13470","fuels":{"Gazole":{"p":2.249,"d":"2026-04-24"},"E85":{"p":0.819,"d":"2026-04-24"},"E10":{"p":2.025,"d":"2026-04-29"},"SP98":{"p":2.115,"d":"2026-04-24"}},"brand":"Intermarché","h24":true,"services":["Laverie","Relais colis","Boutique alimentaire","Boutique non alimentaire","Station de gonflage","Lavage automatique","Lavage manuel","Vente de gaz domestique (Butane, Propane)","Automate CB 24/24"]},{"id":13012016,"lat":43.296,"lng":5.426,"addr":"Rue Gaston de Flotte","city":"MARSEILLE","cp":"13012","fuels":{"Gazole":{"p":2.229,"d":"2026-04-28"},"E10":{"p":1.999,"d":"2026-04-28"},"SP98":{"p":2.099,"d":"2026-04-28"}},"brand":"Intermarché"},{"id":13270011,"lat":43.471,"lng":4.909,"addr":"ZONE INDUST. SECT. 83 RN 568","city":"FOS SUR MER","cp":"13270","fuels":{"Gazole":{"p":2.09,"d":"2026-05-01"}},"brand":"TotalEnergies","services":["Boutique alimentaire"]},{"id":13390002,"lat":43.367962842971004,"lng":5.6390959808585,"addr":"QUARTIER DE LA GLACIERE - RN 560","city":"AURIOL","cp":"13390","fuels":{"Gazole":{"p":2.279,"d":"2026-04-28"},"E10":{"p":2.025,"d":"2026-04-28"},"SP98":{"p":2.129,"d":"2026-04-28"}},"brand":"Intermarché","h24":true,"services":["Automate CB 24/24"]},{"id":13100016,"lat":43.528,"lng":5.433,"addr":"16 ROUTE DE GALICE","city":"Aix-en-Provence","cp":"13100","fuels":{"Gazole":{"p":2.09,"d":"2026-05-01"},"E85":{"p":0.889,"d":"2026-05-01"},"GPLc":{"p":1.089,"d":"2026-05-01"},"E10":{"p":1.99,"d":"2026-05-01"}},"brand":"TotalEnergies","h24":true,"services":["Boutique alimentaire","Boutique non alimentaire","Restauration à emporter","Station de gonflage","Carburant additivé","Lavage automatique","Lavage manuel","Vente de gaz domestique (Butane, Propane)","Wifi","Automate CB 24/24","DAB (Distributeur automatique de billets)"]},{"id":13750003,"lat":43.801,"lng":5.005,"addr":"1054 Route de Marseille","city":"PLAN-D'ORGON","cp":"13750","fuels":{"Gazole":{"p":2.176,"d":"2026-04-30"},"E10":{"p":1.997,"d":"2026-04-28"},"SP98":{"p":2.151,"d":"2026-04-30"}},"brand":"Esso","h24":true,"services":["Toilettes publiques","Douches","Boutique alimentaire","Station de gonflage","Carburant additivé","Piste poids lourds","Lavage automatique","Lavage manuel","Services réparation / entretien","Vente de gaz domestique (Butane, Propane)","Automate CB 24/24"]},{"id":13010005,"lat":43.287,"lng":5.4,"addr":"BOULEVARD JEAN MOULIN","city":"Marseille","cp":"13010","fuels":{"Gazole":{"p":2.21,"d":"2026-04-29"},"E85":{"p":0.989,"d":"2026-04-29"},"E10":{"p":1.999,"d":"2026-04-29"},"SP98":{"p":2.079,"d":"2026-04-29"}},"brand":"TotalEnergies"},{"id":13015004,"lat":43.385,"lng":5.359,"addr":"437 Avenue de Saint-Antoine","city":"Marseille","cp":"13015","fuels":{"Gazole":{"p":2.174,"d":"2026-05-01"},"E10":{"p":1.999,"d":"2026-05-01"},"SP98":{"p":2.079,"d":"2026-05-01"}},"brand":"Esso"},{"id":13200014,"lat":43.65159,"lng":4.67002,"addr":"RN 113 - DÉVIATION - AIRE DES CANTARELLES","city":"ARLES","cp":"13200","fuels":{"Gazole":{"p":2.09,"d":"2026-05-01"},"E85":{"p":0.999,"d":"2026-05-01"},"GPLc":{"p":1.149,"d":"2026-05-01"},"E10":{"p":1.99,"d":"2026-05-01"},"SP98":{"p":1.99,"d":"2026-05-01"}},"brand":"TotalEnergies","services":["Toilettes publiques","Douches","Boutique alimentaire","Boutique non alimentaire","Station de gonflage","Carburant additivé","Piste poids lourds","Espace bébé","DAB (Distributeur automatique de billets)"]},{"id":13008004,"lat":43.254,"lng":5.382,"addr":"1/3 BOULEVARD DU SABLIER","city":"Marseille","cp":"13008","fuels":{"Gazole":{"p":2.215,"d":"2026-05-01"},"E85":{"p":1.001,"d":"2026-05-01"},"E10":{"p":1.999,"d":"2026-05-01"},"SP98":{"p":2.079,"d":"2026-05-01"}},"brand":"Esso"},{"id":13015016,"lat":43.3694597399,"lng":5.35637794519,"addr":"20-22, RN DE ST ANTOINE","city":"MARSEILLE","cp":"13015","fuels":{"Gazole":{"p":2.329,"d":"2026-04-30"},"E10":{"p":2.129,"d":"2026-04-30"},"SP98":{"p":2.229,"d":"2026-04-30"}},"brand":"Eni","services":["Toilettes publiques","Boutique alimentaire","Vente de fioul domestique","Station de gonflage","Carburant additivé","Lavage automatique","Vente de gaz domestique (Butane, Propane)"]},{"id":13320004,"lat":43.435,"lng":5.397,"addr":"LE COLLET ROUGE R.N.8","city":"Bouc-Bel-Air","cp":"13320","fuels":{"Gazole":{"p":2.148,"d":"2026-04-30"},"E85":{"p":0.97,"d":"2026-04-30"},"E10":{"p":2.008,"d":"2026-04-30"},"SP98":{"p":2.068,"d":"2026-04-30"}},"brand":"Esso"},{"id":13500014,"lat":43.4,"lng":5.062,"addr":"ROND POINT SAINTE ANNE","city":"MARTIGUES","cp":"13500","fuels":{"Gazole":{"p":2.219,"d":"2026-05-01"},"E10":{"p":2.089,"d":"2026-05-01"},"SP98":{"p":2.239,"d":"2026-05-01"}},"brand":"BP","services":["Boutique alimentaire","Boutique non alimentaire","Restauration à emporter","Station de gonflage","Carburant additivé","Lavage automatique","Services réparation / entretien","Vente de gaz domestique (Butane, Propane)","Vente d'additifs carburants"]},{"id":13660002,"lat":43.7962,"lng":4.98973,"addr":"Vieille Route de Saint-Rémy","city":"Orgon","cp":"13660","fuels":{"Gazole":{"p":2.197,"d":"2026-04-30"},"E10":{"p":1.973,"d":"2026-04-30"},"SP98":{"p":2.089,"d":"2026-04-30"}},"brand":"Independent","services":["Vente de fioul domestique","Piste poids lourds","DAB (Distributeur automatique de billets)"]},{"id":13920005,"lat":43.462,"lng":5.006,"addr":"CD5 Le Crépon Ouest","city":"Saint-Mitre-les-Remparts","cp":"13920","fuels":{"Gazole":{"p":2.238,"d":"2026-05-01"},"E10":{"p":1.999,"d":"2026-05-01"},"SP98":{"p":2.068,"d":"2026-05-01"}},"brand":"Esso","services":["Station de gonflage","Piste poids lourds","DAB (Distributeur automatique de billets)"]},{"id":13140010,"lat":43.594,"lng":4.997,"addr":"2 AVENUE DU SUD","city":"MIRAMAS","cp":"13140","fuels":{"E85":{"p":0.839,"d":"2026-05-01"}},"brand":"TotalEnergies","services":["Boutique alimentaire","Restauration à emporter","Station de gonflage","Carburant additivé","Piste poids lourds","Lavage automatique","Vente de gaz domestique (Butane, Propane)","Wifi"]},{"id":13300005,"lat":43.628,"lng":5.116,"addr":"Vieille Route Pélissanne","city":"Salon-de-Provence","cp":"13300","fuels":{"Gazole":{"p":2.111,"d":"2026-04-30"},"SP95":{"p":2.05,"d":"2026-04-28"},"E85":{"p":0.729,"d":"2026-04-20"},"E10":{"p":1.958,"d":"2026-04-30"}},"brand":"Leclerc","h24":true,"services":["Laverie","Boutique alimentaire","Boutique non alimentaire","Vente de pétrole lampant","Station de gonflage","Piste poids lourds","Lavage automatique","Lavage manuel","Vente de gaz domestique (Butane, Propane)","Vente d'additifs carburants","Automate CB 24/24","DAB (Distributeur automatique de billets)"]},{"id":13013003,"lat":43.316,"lng":5.409,"addr":"12 Avenue Jean-Paul Sartre","city":"Marseille","cp":"13013","fuels":{"Gazole":{"p":2.319,"d":"2026-05-01"},"E10":{"p":2.159,"d":"2026-05-01"},"SP98":{"p":2.329,"d":"2026-05-01"}},"brand":"BP","services":["Toilettes publiques","Boutique alimentaire","Boutique non alimentaire","Station de gonflage","Carburant additivé","Lavage automatique","Vente de gaz domestique (Butane, Propane)"]},{"id":13013011,"lat":43.32321,"lng":5.44699,"addr":"281 Avenue des Olives","city":"MARSEILLE","cp":"13013","fuels":{"Gazole":{"p":2.277,"d":"2026-04-30"},"SP95":{"p":2.099,"d":"2026-04-30"},"E85":{"p":0.927,"d":"2026-04-30"},"E10":{"p":1.989,"d":"2026-04-30"},"SP98":{"p":2.133,"d":"2026-04-30"}},"services":["Boutique alimentaire","Boutique non alimentaire","Restauration à emporter","Bar","Vente de fioul domestique","Station de gonflage","Piste poids lourds","Vente de gaz domestique (Butane, Propane)","DAB (Distributeur automatique de billets)"]},{"id":13012024,"lat":43.296,"lng":5.432,"addr":"120 rue saint jean du desert","city":"Marseille","cp":"13012","fuels":{"Gazole":{"p":2.209,"d":"2026-04-29"},"E10":{"p":1.999,"d":"2026-04-29"},"SP98":{"p":2.099,"d":"2026-04-29"}},"brand":"Auchan","h24":true,"services":["Carburant additivé","Vente de gaz domestique (Butane, Propane)","Automate CB 24/24"]},{"id":13120008,"lat":43.467468601217,"lng":5.4669147714110995,"addr":"CD 6","city":"Gardanne","cp":"13120","fuels":{"Gazole":{"p":2.09,"d":"2026-05-01"}},"brand":"TotalEnergies","h24":true,"services":["Boutique alimentaire","Boutique non alimentaire","Station de gonflage","Carburant additivé","Piste poids lourds","Lavage automatique","Lavage manuel","Vente de gaz domestique (Butane, Propane)","Vente d'additifs carburants","Automate CB 24/24"]},{"id":13180002,"lat":43.38753608,"lng":5.23277519,"addr":"rue du 19 mars 1962","city":"Gignac-la-Nerthe","cp":"13180","fuels":{"Gazole":{"p":2.15,"d":"2026-04-23"},"SP95":{"p":2.005,"d":"2026-04-23"}},"brand":"Carrefour"},{"id":13160005,"lat":43.887450323972004,"lng":4.8511137702083,"addr":"Chemin de l'Oratoire","city":"Châteaurenard","cp":"13160","fuels":{"Gazole":{"p":2.229,"d":"2026-04-29"},"E85":{"p":0.799,"d":"2026-04-29"},"E10":{"p":1.999,"d":"2026-04-29"},"SP98":{"p":2.129,"d":"2026-04-29"}},"brand":"Système U","services":["Location de véhicule","Vente de gaz domestique (Butane, Propane)","DAB (Distributeur automatique de billets)"]},{"id":13005011,"lat":43.28695,"lng":5.39974,"addr":"34,BD JEAN MOULIN","city":"MARSEILLE","cp":"13005","fuels":{"Gazole":{"p":2.09,"d":"2026-05-01"},"E85":{"p":0.903,"d":"2026-05-01"},"E10":{"p":1.99,"d":"2026-05-01"}},"brand":"Esso","services":["Boutique alimentaire","Station de gonflage","Carburant additivé","Vente de gaz domestique (Butane, Propane)","DAB (Distributeur automatique de billets)"]},{"id":13011022,"lat":43.306,"lng":5.502,"addr":"72 ROUTE D'ALLAUCH","city":"Marseille","cp":"13011","fuels":{"Gazole":{"p":2.185,"d":"2026-04-28"},"E85":{"p":0.819,"d":"2026-04-28"},"E10":{"p":1.999,"d":"2026-04-28"},"SP98":{"p":2.109,"d":"2026-04-28"}},"brand":"Intermarché","h24":true,"services":["Laverie","Relais colis","Boutique alimentaire","Restauration à emporter","Restauration sur place","Station de gonflage","Automate CB 24/24"]},{"id":13400015,"lat":43.284,"lng":5.602,"addr":"298 Avenue des Paluds","city":"AUBAGNE","cp":"13400","fuels":{"Gazole":{"p":2.25,"d":"2026-04-29"},"E10":{"p":1.99,"d":"2026-04-29"},"SP98":{"p":1.99,"d":"2026-04-29"}},"brand":"TotalEnergies","h24":true,"services":["Toilettes publiques","Boutique alimentaire","Carburant additivé","Piste poids lourds","Lavage automatique","Vente de gaz domestique (Butane, Propane)","Vente d'additifs carburants","Automate CB 24/24"]},{"id":13430002,"lat":43.68535,"lng":5.03121,"addr":"avenue de la gare","city":"EYGUIERES","cp":"13430","fuels":{"Gazole":{"p":2.259,"d":"2026-04-24"},"SP95":{"p":2.119,"d":"2026-04-13"},"SP98":{"p":2.159,"d":"2026-04-13"}},"brand":"Independent","services":["Vente de fioul domestique","Station de gonflage","Lavage automatique","Vente de gaz domestique (Butane, Propane)"]},{"id":13370003,"lat":43.73069,"lng":5.16906,"addr":"Avenue de Craponne","city":"Mallemort","cp":"13370","fuels":{"Gazole":{"p":2.179,"d":"2026-04-28"},"E85":{"p":0.818,"d":"2026-04-28"},"E10":{"p":1.979,"d":"2026-04-28"},"SP98":{"p":2.098,"d":"2026-04-28"}},"brand":"Intermarché","services":["Toilettes publiques","Boutique alimentaire","Boutique non alimentaire","Restauration à emporter","Vente de pétrole lampant","Location de véhicule","Vente de gaz domestique (Butane, Propane)","DAB (Distributeur automatique de billets)"]},{"id":13012022,"lat":43.3038,"lng":5.43663,"addr":"67 AVENUE DES CAILLOLS","city":"Marseille","cp":"13012","fuels":{"Gazole":{"p":2.09,"d":"2026-05-01"},"E85":{"p":0.885,"d":"2026-05-01"},"E10":{"p":1.99,"d":"2026-05-01"}},"brand":"TotalEnergies","services":["Boutique alimentaire","Restauration à emporter","Station de gonflage","Carburant additivé","Lavage automatique","Lavage manuel","Vente de gaz domestique (Butane, Propane)","DAB (Distributeur automatique de billets)"]},{"id":13400014,"lat":43.30053,"lng":5.56976,"addr":"AV. ROGER SALENGRO","city":"AUBAGNE","cp":"13400","fuels":{"Gazole":{"p":2.09,"d":"2026-05-01"},"E85":{"p":0.895,"d":"2026-05-01"},"E10":{"p":1.99,"d":"2026-05-01"},"SP98":{"p":1.99,"d":"2026-05-01"}},"brand":"TotalEnergies","services":["Toilettes publiques","Boutique alimentaire","Boutique non alimentaire","Station de gonflage","Carburant additivé","Lavage automatique","Lavage manuel","Vente de gaz domestique (Butane, Propane)","DAB (Distributeur automatique de billets)"]},{"id":13700010,"lat":43.444,"lng":5.225,"addr":"92 AEROPORT BP 36","city":"MARIGNANE","cp":"13700","fuels":{"Gazole":{"p":2.09,"d":"2026-05-01"},"E85":{"p":0.853,"d":"2026-05-01"},"E10":{"p":1.99,"d":"2026-05-01"},"SP98":{"p":1.99,"d":"2026-05-01"}},"brand":"TotalEnergies"},{"id":13270012,"lat":43.471289006001,"lng":4.906991525412,"addr":"ZI - SECTEUR 83 - RN 568","city":"Fos-sur-Mer","cp":"13270","fuels":{"Gazole":{"p":2.09,"d":"2026-05-01"},"E10":{"p":1.99,"d":"2026-05-01"},"SP98":{"p":1.99,"d":"2026-05-01"}},"brand":"TotalEnergies","services":["Boutique alimentaire","Boutique non alimentaire","Station de gonflage","Carburant additivé","Piste poids lourds","DAB (Distributeur automatique de billets)"]},{"id":13710004,"lat":43.445,"lng":5.553,"addr":"Chemin du Jas de Bassas","city":"Fuveau","cp":"13710","fuels":{"Gazole":{"p":2.254,"d":"2026-04-28"},"SP95":{"p":2.11,"d":"2026-04-20"},"E85":{"p":0.819,"d":"2026-04-16"},"E10":{"p":2.025,"d":"2026-04-28"}},"brand":"Intermarché","services":["DAB (Distributeur automatique de billets)"]},{"id":13850001,"lat":43.436,"lng":5.54,"addr":"ZAC des Pradeaux","city":"Gréasque","cp":"13850","fuels":{"Gazole":{"p":2.249,"d":"2026-04-28"},"E85":{"p":0.819,"d":"2026-04-16"},"E10":{"p":2.02,"d":"2026-04-28"},"SP98":{"p":2.136,"d":"2026-04-20"}},"brand":"Intermarché","h24":true,"services":["Vente de pétrole lampant","Station de gonflage","Lavage automatique","Lavage manuel","Vente de gaz domestique (Butane, Propane)","Automate CB 24/24"]},{"id":13200006,"lat":43.706,"lng":4.641,"addr":"Avenue de la libération","city":"Arles","cp":"13200","fuels":{"Gazole":{"p":2.18,"d":"2026-04-30"},"SP95":{"p":2.047,"d":"2026-04-30"},"GPLc":{"p":1.057,"d":"2026-04-30"},"E10":{"p":1.988,"d":"2026-04-30"}},"brand":"Leclerc","h24":true,"services":["Boutique alimentaire","Boutique non alimentaire","Piste poids lourds","Vente de gaz domestique (Butane, Propane)","Bornes électriques","Automate CB 24/24","DAB (Distributeur automatique de billets)"]},{"id":13360001,"lat":43.351,"lng":5.603,"addr":"ZAC de St Estève","city":"ROQUEVAIRE","cp":"13360","fuels":{"Gazole":{"p":2.275,"d":"2026-04-30"},"E85":{"p":0.818,"d":"2026-04-30"},"E10":{"p":2.025,"d":"2026-04-30"},"SP98":{"p":2.129,"d":"2026-04-30"}},"brand":"Intermarché","h24":true,"services":["Station de gonflage","Vente de gaz domestique (Butane, Propane)","Automate CB 24/24","DAB (Distributeur automatique de billets)"]},{"id":13400002,"lat":43.289,"lng":5.541,"addr":"CAMP MAJOR","city":"AUBAGNE","cp":"13400","fuels":{"Gazole":{"p":2.25,"d":"2026-04-30"},"E10":{"p":1.99,"d":"2026-04-30"}},"brand":"TotalEnergies","services":["Boutique alimentaire","Boutique non alimentaire","Station de gonflage","Carburant additivé","Location de véhicule","Piste poids lourds","Lavage automatique","Services réparation / entretien","Vente de gaz domestique (Butane, Propane)","Vente d'additifs carburants"]},{"id":13127009,"lat":43.473,"lng":5.23,"addr":"Quartier des Cadesteaux","city":"Vitrolles","cp":"13127","fuels":{"Gazole":{"p":2.157,"d":"2026-04-30"},"E10":{"p":2.019,"d":"2026-04-30"},"SP98":{"p":2.122,"d":"2026-04-30"}},"h24":true,"services":["Boutique alimentaire","Boutique non alimentaire","Restauration à emporter","Restauration sur place","Station de gonflage","Carburant additivé","Piste poids lourds","Lavage automatique","Vente de gaz domestique (Butane, Propane)","Vente d'additifs carburants","Automate CB 24/24"]},{"id":13011025,"lat":43.284915999999996,"lng":5.437802,"addr":"171-173 Boulevard de Saint-Loup","city":"Marseille","cp":"13011","fuels":{"Gazole":{"p":2.329,"d":"2026-04-30"},"E85":{"p":0.899,"d":"2026-04-30"},"E10":{"p":2.129,"d":"2026-04-30"},"SP98":{"p":2.229,"d":"2026-04-30"}},"brand":"Eni","services":["Toilettes publiques","Boutique alimentaire","Station de gonflage","Carburant additivé","Vente de gaz domestique (Butane, Propane)"]},{"id":13880001,"lat":43.525,"lng":5.235,"addr":"Quartier Font de Laurent","city":"VELAUX","cp":"13880","fuels":{"Gazole":{"p":2.189,"d":"2026-04-27"},"E85":{"p":0.818,"d":"2026-04-20"},"E10":{"p":1.999,"d":"2026-04-01"}},"brand":"Intermarché","h24":true,"services":["Relais colis","Boutique alimentaire","Boutique non alimentaire","Station de gonflage","Piste poids lourds","Vente de gaz domestique (Butane, Propane)","Vente d'additifs carburants","Wifi","Automate CB 24/24"]},{"id":13140002,"lat":43.593,"lng":5.004,"addr":"RN 569 route de salon","city":"Miramas","cp":"13140","fuels":{"Gazole":{"p":2.259,"d":"2026-04-29"},"E10":{"p":2.109,"d":"2026-04-29"}},"brand":"Dyneff","h24":true,"services":["Toilettes publiques","Boutique alimentaire","Station de gonflage","Carburant additivé","Piste poids lourds","Services réparation / entretien","Vente de gaz domestique (Butane, Propane)","Vente d'additifs carburants","Automate CB 24/24"]},{"id":13260002,"lat":43.217,"lng":5.546,"addr":"QUARTIER STE CROIX","city":"CASSIS","cp":"13260","fuels":{"Gazole":{"p":2.09,"d":"2026-05-01"},"E85":{"p":0.853,"d":"2026-05-01"}},"brand":"TotalEnergies","h24":true,"services":["Boutique alimentaire","Boutique non alimentaire","Restauration à emporter","Station de gonflage","Carburant additivé","Lavage automatique","Vente de gaz domestique (Butane, Propane)","Wifi","Automate CB 24/24"]},{"id":13700007,"lat":43.418,"lng":5.228,"addr":"Avenue du 8 Mai 1945","city":"MARIGNANE","cp":"13700","fuels":{"Gazole":{"p":2.249,"d":"2026-04-30"},"SP95":{"p":2.079,"d":"2026-04-30"},"E85":{"p":0.819,"d":"2026-04-20"},"E10":{"p":2.009,"d":"2026-04-30"}},"h24":true,"services":["Laverie","Boutique alimentaire","Boutique non alimentaire","Restauration à emporter","Restauration sur place","Bar","Vente de fioul domestique","Carburant additivé","Piste poids lourds","Vente de gaz domestique (Butane, Propane)","Automate CB 24/24"]},{"id":13006003,"lat":43.2862,"lng":5.37408,"addr":"88 Boulevard Notre-Dame","city":"MARSEILLE","cp":"13006","fuels":{"Gazole":{"p":2.199,"d":"2026-04-29"},"SP95":{"p":2.099,"d":"2026-04-29"}},"brand":"Avia","services":["Station de gonflage","Lavage manuel","Services réparation / entretien"]},{"id":13090020,"lat":43.542891,"lng":5.431703000000001,"addr":"67 avenue De Lattre de Tassigny","city":"Aix-en-Provence","cp":"13090","fuels":{"Gazole":{"p":2.369,"d":"2026-05-01"},"GPLc":{"p":1.099,"d":"2026-05-01"},"E10":{"p":2.169,"d":"2026-05-01"},"SP98":{"p":2.269,"d":"2026-05-01"}},"brand":"Eni","h24":true,"services":["Toilettes publiques","Boutique alimentaire","Carburant additivé","Vente de gaz domestique (Butane, Propane)","Automate CB 24/24"]},{"id":13170011,"lat":43.409,"lng":5.321,"addr":"ROUTE DE MARTIGUES","city":"Les Pennes-Mirabeau","cp":"13170","fuels":{"Gazole":{"p":2.09,"d":"2026-05-01"},"GPLc":{"p":1.069,"d":"2026-05-01"},"E10":{"p":1.99,"d":"2026-05-01"}},"brand":"TotalEnergies","h24":true,"services":["Boutique alimentaire","Boutique non alimentaire","Station de gonflage","Carburant additivé","Piste poids lourds","Lavage automatique","Vente de gaz domestique (Butane, Propane)","Wifi","Automate CB 24/24","DAB (Distributeur automatique de billets)"]},{"id":13560004,"lat":43.742,"lng":5.086,"addr":"ZAC DE LA CAPELETTE","city":"Sénas","cp":"13560","fuels":{"Gazole":{"p":2.189,"d":"2026-04-28"},"E85":{"p":0.818,"d":"2026-04-28"},"E10":{"p":1.989,"d":"2026-04-28"},"SP98":{"p":2.108,"d":"2026-04-28"}},"brand":"Auchan","services":["Vente de gaz domestique (Butane, Propane)"]},{"id":13127005,"lat":43.446460806624,"lng":5.2431698394589,"addr":"AIRE DE VITROLLES EST AUTOROUTE 7","city":"VITROLLES","cp":"13127","fuels":{"Gazole":{"p":2.549,"d":"2026-05-01"},"E10":{"p":2.269,"d":"2026-05-01"},"SP98":{"p":2.369,"d":"2026-05-01"}},"brand":"Agip","services":["Toilettes publiques","Boutique alimentaire","Boutique non alimentaire","Bar","Station de gonflage","Carburant additivé","Espace bébé"]},{"id":13660005,"lat":43.791,"lng":5.028,"addr":"AVENUE DE LA VICTOIRE","city":"ORGON","cp":"13660","fuels":{"Gazole":{"p":2.175,"d":"2026-04-29"},"E85":{"p":0.818,"d":"2026-04-27"},"E10":{"p":1.974,"d":"2026-04-29"},"SP98":{"p":2.089,"d":"2026-04-29"}},"brand":"Intermarché","h24":true,"services":["Toilettes publiques","Laverie","Relais colis","Boutique alimentaire","Boutique non alimentaire","Restauration à emporter","Restauration sur place","Station de gonflage","Location de véhicule","Piste poids lourds","Lavage automatique","Lavage manuel","Vente de gaz domestique (Butane, Propane)","Bornes électriques","Automate CB 24/24","DAB (Distributeur automatique de billets)"]},{"id":13011018,"lat":43.292,"lng":5.459,"addr":"15 BOULEVARD DE LA CARTONNERIE","city":"MARSEILLE","cp":"13011","fuels":{"Gazole":{"p":2.249,"d":"2026-04-28"},"E85":{"p":0.818,"d":"2026-04-28"},"E10":{"p":1.989,"d":"2026-04-28"},"SP98":{"p":2.119,"d":"2026-04-28"}},"brand":"Intermarché","services":["Boutique alimentaire","Restauration à emporter","Station de gonflage"]},{"id":13670001,"lat":43.8454877277,"lng":4.93273027405,"addr":"RN7 - Quartier des Jesuites","city":"VERQUIèRES","cp":"13670","fuels":{"Gazole":{"p":2.249,"d":"2026-04-30"},"SP95":{"p":2.121,"d":"2026-04-30"},"E85":{"p":0.946,"d":"2026-04-30"},"E10":{"p":1.989,"d":"2026-04-30"},"SP98":{"p":2.159,"d":"2026-04-30"}},"services":["Vente de fioul domestique","Piste poids lourds","DAB (Distributeur automatique de billets)"]},{"id":13560003,"lat":43.74466,"lng":5.07767,"addr":"Colline de la Cabre","city":"SéNAS","cp":"13560","fuels":{"Gazole":{"p":2.219,"d":"2026-04-30"},"E10":{"p":2.044,"d":"2026-04-30"},"SP98":{"p":2.146,"d":"2026-04-30"}},"services":["Toilettes publiques","Douches","Boutique alimentaire","Boutique non alimentaire","Restauration à emporter","Vente de fioul domestique","Piste poids lourds","DAB (Distributeur automatique de billets)"]},{"id":13320009,"lat":43.444,"lng":5.437,"addr":"CD6","city":"Bouc-Bel-Air","cp":"13320","fuels":{"Gazole":{"p":2.299,"d":"2026-04-30"},"E10":{"p":2.149,"d":"2026-04-30"},"SP98":{"p":2.209,"d":"2026-04-30"}},"brand":"Avia","services":["Toilettes publiques","Restauration à emporter","Restauration sur place","Bar","Station de gonflage","Carburant additivé","Piste poids lourds","DAB (Distributeur automatique de billets)"]},{"id":13510001,"lat":43.543,"lng":5.367,"addr":"Route de Berre","city":"ÉGUILLES","cp":"13510","fuels":{"Gazole":{"p":2.25,"d":"2026-04-23"},"E10":{"p":1.99,"d":"2026-04-23"},"SP98":{"p":1.99,"d":"2026-04-23"}},"brand":"TotalEnergies","services":["Boutique alimentaire","Boutique non alimentaire","Station de gonflage","Carburant additivé","Lavage automatique","Services réparation / entretien","Vente de gaz domestique (Butane, Propane)","Vente d'additifs carburants"]},{"id":13790003,"lat":43.463,"lng":5.574,"addr":"Chemin de Rousset","city":"Rousset","cp":"13790","fuels":{"Gazole":{"p":2.359,"d":"2026-04-25"},"GPLc":{"p":1.13,"d":"2026-04-08"},"E10":{"p":2.139,"d":"2026-04-25"},"SP98":{"p":2.239,"d":"2026-04-25"}},"brand":"Avia","services":["Toilettes publiques","Douches","Boutique non alimentaire","Restauration à emporter","Carburant additivé","Piste poids lourds","Espace bébé","DAB (Distributeur automatique de billets)"]},{"id":13650003,"lat":43.632,"lng":5.494,"addr":"aire de meyrargues","city":"Meyrargues","cp":"13650","fuels":{"Gazole":{"p":2.339,"d":"2026-04-25"},"GPLc":{"p":1.13,"d":"2026-04-25"},"E10":{"p":2.119,"d":"2026-04-25"},"SP98":{"p":2.199,"d":"2026-04-25"}},"brand":"Avia","services":["Toilettes publiques","Douches","Boutique alimentaire","Boutique non alimentaire","Restauration à emporter","Restauration sur place","Bar","Station de gonflage","Carburant additivé","Aire de camping-cars","Piste poids lourds","Espace bébé"]},{"id":13120009,"lat":43.464352929617995,"lng":5.486375014722499,"addr":"CHEMIN JEAN DE BOUC","city":"Gardanne","cp":"13120","fuels":{"Gazole":{"p":2.27,"d":"2026-04-23"},"E85":{"p":0.92,"d":"2026-03-17"},"E10":{"p":2.12,"d":"2026-04-28"},"SP98":{"p":2.19,"d":"2026-04-28"}},"h24":true,"services":["Boutique alimentaire","Boutique non alimentaire","Restauration à emporter","Station de gonflage","Vente de gaz domestique (Butane, Propane)","Automate CB 24/24"]},{"id":13010001,"lat":43.27972,"lng":5.42438,"addr":"57 Boulevard Romain Rolland","city":"Marseille","cp":"13010","fuels":{"Gazole":{"p":2.188,"d":"2026-04-30"},"E85":{"p":0.875,"d":"2026-04-22"},"E10":{"p":1.99,"d":"2026-04-29"},"SP98":{"p":2.046,"d":"2026-04-30"}},"brand":"Auchan","services":["Station de gonflage","Vente de gaz domestique (Butane, Propane)","DAB (Distributeur automatique de billets)"]},{"id":13590003,"lat":43.50387197386,"lng":5.5102042613992,"addr":"RN7","city":"MEYREUIL","cp":"13590","fuels":{"Gazole":{"p":2.174,"d":"2026-04-18"},"E10":{"p":1.989,"d":"2026-04-18"},"SP98":{"p":1.99,"d":"2026-04-18"}},"brand":"TotalEnergies","services":["Restauration à emporter","Restauration sur place","Bar","Carburant additivé","DAB (Distributeur automatique de billets)"]},{"id":13127013,"lat":43.473,"lng":5.229,"addr":"LE RELAIS DE L'ETANG RN 113 - QUARTIER DES CADESTAUX","city":"VITROLLES","cp":"13127","fuels":{"Gazole":{"p":2.159,"d":"2026-04-29"},"E85":{"p":0.818,"d":"2026-04-29"},"E10":{"p":1.987,"d":"2026-04-29"},"SP98":{"p":2.066,"d":"2026-04-29"}},"brand":"Intermarché","h24":true,"services":["Laverie","Station de gonflage","Lavage automatique","Lavage manuel","Automate CB 24/24"]},{"id":13340004,"lat":43.487,"lng":5.22,"addr":"RN113 QUARTIER LE BOSQUET","city":"Rognac","cp":"13340","fuels":{"Gazole":{"p":2.199,"d":"2026-04-24"},"SP95":{"p":1.99,"d":"2026-04-22"},"E85":{"p":0.859,"d":"2026-03-02"}},"brand":"Dyneff","h24":true,"services":["Laverie","Relais colis","Boutique non alimentaire","Vente de fioul domestique","Vente de pétrole lampant","Station de gonflage","Piste poids lourds","Lavage automatique","Lavage manuel","Vente de gaz domestique (Butane, Propane)","Vente d'additifs carburants","Automate CB 24/24","DAB (Distributeur automatique de billets)"]},{"id":13011003,"lat":43.303,"lng":5.475,"addr":"ROUTE DES TROIS LUCS- LA VALENTINE","city":"MARSEILLE","cp":"13011","fuels":{"Gazole":{"p":2.299,"d":"2026-04-28"},"GPLc":{"p":1.049,"d":"2026-04-17"},"E10":{"p":2.029,"d":"2026-04-28"},"SP98":{"p":2.109,"d":"2026-04-28"}},"brand":"Shell","h24":true,"services":["Boutique alimentaire","Boutique non alimentaire","Restauration à emporter","Restauration sur place","Station de gonflage","Carburant additivé","Piste poids lourds","Lavage automatique","Lavage manuel","Vente de gaz domestique (Butane, Propane)","Automate CB 24/24"]},{"id":13300002,"lat":43.6193122131,"lng":5.0962980067700006,"addr":"LES BROQUETIERS","city":"SALON-DE-PROVENCE","cp":"13300","fuels":{"Gazole":{"p":2.25,"d":"2026-04-29"},"E85":{"p":0.839,"d":"2026-04-02"}},"brand":"TotalEnergies","services":["Boutique alimentaire","Boutique non alimentaire","Station de gonflage","Carburant additivé","Piste poids lourds","Lavage automatique","Services réparation / entretien","DAB (Distributeur automatique de billets)"]},{"id":13370005,"lat":43.7271262,"lng":5.15975149,"addr":"Rond point de douneau RN7","city":"MALLEMORT","cp":"13370","fuels":{"Gazole":{"p":2.199,"d":"2026-04-23"},"SP95":{"p":1.999,"d":"2026-04-23"},"E85":{"p":0.859,"d":"2026-04-23"}},"services":["Toilettes publiques","Boutique alimentaire","Boutique non alimentaire","Vente de fioul domestique","Station de gonflage","Piste poids lourds","Vente de gaz domestique (Butane, Propane)","DAB (Distributeur automatique de billets)"]},{"id":13741001,"lat":43.433,"lng":5.259,"addr":"R.N. 113","city":"VITROLLES","cp":"13127","fuels":{"Gazole":{"p":2.12,"d":"2026-04-30"},"SP95":{"p":2.04,"d":"2026-04-30"},"GPLc":{"p":1.07,"d":"2026-04-27"},"E10":{"p":1.993,"d":"2026-04-30"},"SP98":{"p":2.127,"d":"2026-04-30"}},"brand":"Carrefour","h24":true,"services":["Vente de gaz domestique (Butane, Propane)","Automate CB 24/24","DAB (Distributeur automatique de billets)"]},{"id":13190001,"lat":43.3313407651,"lng":5.48618920788,"addr":"AVENUE DE PROVENCE","city":"ALLAUCH","cp":"13190","fuels":{"Gazole":{"p":2.09,"d":"2026-05-01"},"E10":{"p":1.99,"d":"2026-04-22"}},"brand":"TotalEnergies","services":["Boutique non alimentaire","Vente de fioul domestique","Station de gonflage","Carburant additivé","Piste poids lourds","Lavage manuel","Services réparation / entretien","Vente de gaz domestique (Butane, Propane)"]},{"id":13340001,"lat":43.492,"lng":5.229,"addr":"LE PLAN","city":"ROGNAC","cp":"13340","fuels":{"Gazole":{"p":2.19,"d":"2026-04-28"},"SP95":{"p":2.054,"d":"2026-04-28"},"E85":{"p":0.835,"d":"2026-04-28"},"SP98":{"p":2.093,"d":"2026-04-28"}},"brand":"Carrefour","services":["Relais colis","Location de véhicule","Vente de gaz domestique (Butane, Propane)","Wifi"]},{"id":13320010,"lat":43.441,"lng":5.398,"addr":"687Avenue de Violèsi","city":"Bouc Bel Air","cp":"13320","fuels":{"Gazole":{"p":2.139,"d":"2026-04-30"},"E85":{"p":0.719,"d":"2026-04-22"},"E10":{"p":1.999,"d":"2026-04-29"},"SP98":{"p":2.059,"d":"2026-04-29"}},"brand":"Système U","h24":true,"services":["Station de gonflage","Vente de gaz domestique (Butane, Propane)","Bornes électriques","Automate CB 24/24","DAB (Distributeur automatique de billets)"]},{"id":13013012,"lat":43.31602,"lng":5.38503,"addr":"68 Boulevard de Plombières","city":"MARSEILLE","cp":"13014","fuels":{"Gazole":{"p":2.279,"d":"2026-04-30"},"SP95":{"p":2.1,"d":"2026-04-27"},"E85":{"p":0.899,"d":"2026-04-16"},"SP98":{"p":2.199,"d":"2026-04-27"}},"services":["Toilettes publiques","Station de gonflage","Piste poids lourds"]},{"id":13130002,"lat":43.48942,"lng":5.17369,"addr":"Boulevard Henri Wallon","city":"Berre-l'Étang","cp":"13130","fuels":{"Gazole":{"p":2.279,"d":"2026-04-16"},"E85":{"p":0.859,"d":"2026-04-16"},"E10":{"p":2.059,"d":"2026-04-24"}},"brand":"Carrefour","services":["Laverie","Vente de gaz domestique (Butane, Propane)","DAB (Distributeur automatique de billets)"]},{"id":13014001,"lat":43.329,"lng":5.401,"addr":"AVENUE PROSPER MERIMEE","city":"MARSEILLE","cp":"13014","fuels":{"Gazole":{"p":2.18,"d":"2026-04-30"},"SP95":{"p":2.049,"d":"2026-04-30"},"E10":{"p":2,"d":"2026-04-30"},"SP98":{"p":2.135,"d":"2026-04-30"}},"brand":"Carrefour","h24":true,"services":["Station de gonflage","Lavage manuel","Automate CB 24/24","DAB (Distributeur automatique de billets)"]},{"id":13620002,"lat":43.328,"lng":5.15,"addr":"2 Avenue Draïo de la Mar","city":"Carry-le-Rouet","cp":"13620","fuels":{"Gazole":{"p":2.249,"d":"2026-04-30"},"E85":{"p":0.899,"d":"2026-04-30"},"E10":{"p":2.099,"d":"2026-04-30"},"SP98":{"p":2.169,"d":"2026-04-30"}},"h24":true,"services":["Toilettes publiques","Relais colis","Boutique alimentaire","Boutique non alimentaire","Station de gonflage","Piste poids lourds","Lavage automatique","Lavage manuel","Vente d'additifs carburants","Automate CB 24/24"]},{"id":13460001,"lat":43.455,"lng":4.431,"addr":"22Route de Cacharel","city":"SAINTES-MARIES-DE-LA-MER","cp":"13460","fuels":{"Gazole":{"p":2.31,"d":"2026-04-30"},"E85":{"p":0.99,"d":"2026-04-30"},"E10":{"p":2.18,"d":"2026-04-30"},"SP98":{"p":2.26,"d":"2026-04-30"}},"brand":"Sarl les Tamaris","h24":true,"services":["Boutique non alimentaire","Vente de fioul domestique","Station de gonflage","Piste poids lourds","Lavage automatique","Lavage manuel","Vente de gaz domestique (Butane, Propane)","Vente d'additifs carburants","Automate CB 24/24","DAB (Distributeur automatique de billets)"]},{"id":13463001,"lat":43.362,"lng":5.349,"addr":"Centre Commercial Grand Littoral - ZAC Saint-André","city":"MARSEILLE","cp":"13015","fuels":{"Gazole":{"p":2.209,"d":"2026-04-24"},"SP95":{"p":2.055,"d":"2026-04-24"},"E10":{"p":1.995,"d":"2026-04-24"},"SP98":{"p":2.25,"d":"2026-04-24"}},"brand":"Carrefour","services":["Station de gonflage","Carburant additivé","DAB (Distributeur automatique de billets)"]},{"id":13750005,"lat":43.811,"lng":5.001,"addr":"535 route de cavaillon","city":"Plan-d'Orgon","cp":"13750","fuels":{"Gazole":{"p":2.09,"d":"2026-05-01"},"E10":{"p":1.99,"d":"2026-05-01"},"SP98":{"p":1.99,"d":"2026-05-01"}},"brand":"TotalEnergies","h24":true,"services":["Boutique non alimentaire","Carburant additivé","Piste poids lourds","Services réparation / entretien","Vente de gaz domestique (Butane, Propane)","Vente d'additifs carburants","Automate CB 24/24"]},{"id":13008017,"lat":43.263,"lng":5.393,"addr":"265 AVENUE DE MAZARGUES","city":"MARSEILLE","cp":"13008","fuels":{"Gazole":{"p":2.09,"d":"2026-05-01"},"E85":{"p":0.843,"d":"2026-05-01"}},"brand":"TotalEnergies","h24":true,"services":["Boutique alimentaire","Carburant additivé","Lavage automatique","Vente de gaz domestique (Butane, Propane)","Automate CB 24/24"]},{"id":13570001,"lat":43.908,"lng":4.773,"addr":"Lieu-dit Le Grand Roumette","city":"Barbentane","cp":"13570","fuels":{"Gazole":{"p":2.249,"d":"2026-04-28"},"E10":{"p":2.069,"d":"2026-04-28"},"SP98":{"p":2.149,"d":"2026-04-28"}},"brand":"Intermarché","h24":true,"services":["Laverie","Relais colis","Boutique alimentaire","Restauration à emporter","Station de gonflage","Location de véhicule","Piste poids lourds","Lavage automatique","Lavage manuel","Vente de gaz domestique (Butane, Propane)","Automate CB 24/24"]},{"id":13870002,"lat":43.897,"lng":4.794,"addr":"30 Avenue Joseph Callet","city":"ROGNONAS","cp":"13870","fuels":{"Gazole":{"p":2.269,"d":"2026-04-23"},"SP95":{"p":2.109,"d":"2026-04-23"}},"h24":true,"services":["Toilettes publiques","Station de gonflage","Carburant additivé","Piste poids lourds","Lavage manuel","Services réparation / entretien","Automate CB 24/24"]},{"id":13710001,"lat":43.466,"lng":5.606,"addr":"CD6 ZAC SAINT CHARLES","city":"FUVEAU","cp":"13710","fuels":{"Gazole":{"p":2.25,"d":"2026-04-30"},"E85":{"p":0.885,"d":"2026-04-30"},"GPLc":{"p":1.07,"d":"2026-04-30"},"E10":{"p":1.99,"d":"2026-04-30"},"SP98":{"p":1.99,"d":"2026-04-30"}},"brand":"TotalEnergies","h24":true,"services":["Toilettes publiques","Relais colis","Boutique alimentaire","Boutique non alimentaire","Vente de fioul domestique","Station de gonflage","Carburant additivé","Location de véhicule","Piste poids lourds","Lavage automatique","Lavage manuel","Services réparation / entretien","Vente de gaz domestique (Butane, Propane)","Vente d'additifs carburants","Wifi","Automate CB 24/24","DAB (Distributeur automatique de billets)"]},{"id":13124003,"lat":43.4,"lng":5.576,"addr":"A52 aire de Manon des sources","city":"PEYPIN","cp":"13124","fuels":{"Gazole":{"p":2.254,"d":"2026-04-28"},"E85":{"p":0.922,"d":"2026-04-30"},"E10":{"p":2.065,"d":"2026-04-28"},"SP98":{"p":2.14,"d":"2026-04-28"}},"brand":"Leclerc","h24":true,"services":["Toilettes publiques","Douches","Boutique alimentaire","Boutique non alimentaire","Station de gonflage","Carburant additivé","Piste poids lourds","Espace bébé","Vente d'additifs carburants","Wifi","Automate CB 24/24"]},{"id":13800004,"lat":43.523,"lng":4.964,"addr":"Quartier les Craux","city":"Istres","cp":"13800","fuels":{"Gazole":{"p":2.149,"d":"2026-04-29"},"SP95":{"p":2.039,"d":"2026-04-30"},"GPLc":{"p":1.105,"d":"2026-04-16"},"E10":{"p":1.989,"d":"2026-04-28"},"SP98":{"p":2.069,"d":"2026-04-30"}},"brand":"Leclerc","h24":true,"services":["Boutique alimentaire","Boutique non alimentaire","Vente de gaz domestique (Butane, Propane)","Automate CB 24/24"]},{"id":13630004,"lat":43.843419531109,"lng":4.840368464724699,"addr":"149 LES ALLEES","city":"Eyragues","cp":"13630","fuels":{"Gazole":{"p":2.219,"d":"2026-04-30"},"E10":{"p":2.069,"d":"2026-04-30"},"SP98":{"p":2.159,"d":"2026-04-30"}},"brand":"Système U","h24":true,"services":["Boutique alimentaire","Restauration à emporter","Piste poids lourds","Automate CB 24/24","DAB (Distributeur automatique de billets)"]},{"id":13800009,"lat":43.495,"lng":4.986,"addr":"Avenue Félix Gouin","city":"ISTRES","cp":"13800","fuels":{"Gazole":{"p":2.249,"d":"2026-04-29"},"SP95":{"p":2.059,"d":"2026-04-29"},"E10":{"p":2.029,"d":"2026-04-29"},"SP98":{"p":2.109,"d":"2026-04-29"}},"brand":"Avia","services":["Toilettes publiques","Boutique alimentaire","Boutique non alimentaire","Restauration à emporter","Station de gonflage","Carburant additivé","Location de véhicule","Lavage automatique","Lavage manuel","Vente de gaz domestique (Butane, Propane)","Vente d'additifs carburants","Wifi"]},{"id":13008018,"lat":43.274103099894,"lng":5.387067718490201,"addr":"96 rue Jean Mermoz","city":"Marseille","cp":"13008","fuels":{"Gazole":{"p":2.199,"d":"2026-04-28"},"SP95":{"p":2.099,"d":"2026-04-28"}}},{"id":13008008,"lat":43.249,"lng":5.391,"addr":"AVENUE DE HAMBOURG","city":"MARSEILLE","cp":"13008","fuels":{"Gazole":{"p":2.154,"d":"2026-04-30"},"E10":{"p":1.995,"d":"2026-04-30"},"SP98":{"p":2.13,"d":"2026-04-30"}},"brand":"Carrefour","services":["DAB (Distributeur automatique de billets)"]},{"id":13009006,"lat":43.233,"lng":5.401,"addr":"CHEMIN DU ROY D'ESPAGNE","city":"MARSEILLE","cp":"13009","fuels":{"Gazole":{"p":2.15,"d":"2026-04-30"},"E85":{"p":0.78,"d":"2026-04-30"},"E10":{"p":1.99,"d":"2026-04-30"},"SP98":{"p":2.09,"d":"2026-04-30"}},"brand":"Leclerc","services":["Vente de gaz domestique (Butane, Propane)","DAB (Distributeur automatique de billets)"]},{"id":13440002,"lat":43.86,"lng":4.951,"addr":"QUARTIER SAINT MICHEL","city":"CABANNES","cp":"13440","fuels":{"Gazole":{"p":2.169,"d":"2026-04-30"},"E10":{"p":2.015,"d":"2026-04-30"},"SP98":{"p":2.135,"d":"2026-04-30"}},"services":["Laverie","Relais colis","Boutique alimentaire","Vente de fioul domestique","Station de gonflage","Lavage automatique","Lavage manuel","DAB (Distributeur automatique de billets)"]},{"id":13580002,"lat":43.549,"lng":5.184,"addr":"Avenue des Puisatiers","city":"LA FARE-LES-OLIVIERS","cp":"13580","fuels":{"Gazole":{"p":2.139,"d":"2026-04-30"},"SP95":{"p":2.05,"d":"2026-04-27"},"E85":{"p":0.729,"d":"2026-03-20"},"SP98":{"p":2.09,"d":"2026-04-27"}},"brand":"Système U","services":["Laverie","Relais colis","Boutique alimentaire","Boutique non alimentaire","Location de véhicule","Vente de gaz domestique (Butane, Propane)","Bornes électriques"]},{"id":13620004,"lat":43.33,"lng":5.139,"addr":"55 AVENUE DRAIO DE LA MAR","city":"Carry-le-Rouet","cp":"13620","fuels":{"Gazole":{"p":2.09,"d":"2026-05-01"},"SP95":{"p":1.99,"d":"2026-05-01"},"E85":{"p":0.859,"d":"2026-05-01"},"SP98":{"p":1.99,"d":"2026-05-01"}},"brand":"TotalEnergies","h24":true,"services":["Toilettes publiques","Relais colis","Boutique alimentaire","Boutique non alimentaire","Station de gonflage","Carburant additivé","Lavage manuel","Services réparation / entretien","Vente de gaz domestique (Butane, Propane)","Vente d'additifs carburants","Wifi","Automate CB 24/24"]},{"id":13730001,"lat":43.418,"lng":5.234,"addr":"ZAC DE LA LAUVE","city":"SAINT-VICTORET","cp":"13730","fuels":{"Gazole":{"p":2.16,"d":"2026-04-24"},"E10":{"p":1.99,"d":"2026-04-24"},"SP98":{"p":2.099,"d":"2026-04-24"}},"brand":"Carrefour","h24":true,"services":["Station de gonflage","Carburant additivé","Vente de gaz domestique (Butane, Propane)","Automate CB 24/24","DAB (Distributeur automatique de billets)"]},{"id":13800010,"lat":43.501,"lng":4.987,"addr":"22 Avenue Félix GOUIN","city":"ISTRES","cp":"13800","fuels":{"Gazole":{"p":2.228,"d":"2026-04-29"}},"brand":"TotalEnergies","h24":true,"services":["Toilettes publiques","Boutique alimentaire","Boutique non alimentaire","Restauration à emporter","Vente de pétrole lampant","Station de gonflage","Carburant additivé","Lavage automatique","Vente de gaz domestique (Butane, Propane)","Vente d'additifs carburants","Wifi","Automate CB 24/24"]},{"id":13090021,"lat":43.536,"lng":5.413,"addr":"Lieudit Chamsaur, 210 Avenue de Bredasque","city":"Aix en Provence","cp":"13090","fuels":{"Gazole":{"p":2.195,"d":"2026-04-30"},"GPLc":{"p":0.999,"d":"2026-04-30"},"E10":{"p":1.999,"d":"2026-04-30"},"SP98":{"p":2.099,"d":"2026-04-30"}},"brand":"Auchan","h24":true,"services":["Station de gonflage","Vente de gaz domestique (Butane, Propane)","Automate CB 24/24"]},{"id":13890000,"lat":43.692,"lng":4.861,"addr":"78 Avenue Roger Salengro","city":"Mouriès","cp":"13890","fuels":{"Gazole":{"p":2.199,"d":"2026-04-28"},"SP95":{"p":2.109,"d":"2026-04-28"},"E85":{"p":0.819,"d":"2026-04-28"}},"brand":"Independent","h24":true,"services":["Vente de fioul domestique","Piste poids lourds","Automate CB 24/24"]},{"id":13800011,"lat":43.498,"lng":4.979,"addr":"ROUTE DE FOS SUR MER","city":"ISTRES","cp":"13800","fuels":{"Gazole":{"p":2.149,"d":"2026-04-30"},"E85":{"p":0.818,"d":"2026-04-17"},"GPLc":{"p":1.109,"d":"2026-04-17"},"E10":{"p":1.989,"d":"2026-04-29"},"SP98":{"p":2.069,"d":"2026-04-30"}},"brand":"Auchan","services":["Carburant additivé","Vente de gaz domestique (Butane, Propane)","DAB (Distributeur automatique de billets)"]},{"id":13130006,"lat":43.519,"lng":5.2,"addr":"les grapoux route nationale 113","city":"BERRE L'éTANG","cp":"13130","fuels":{"Gazole":{"p":2.09,"d":"2026-05-01"},"E85":{"p":0.835,"d":"2026-04-01"},"E10":{"p":1.99,"d":"2026-04-29"},"SP98":{"p":1.99,"d":"2026-04-29"}},"brand":"TotalEnergies","h24":true,"services":["Douches","Restauration sur place","Bar","Carburant additivé","Piste poids lourds","Automate CB 24/24","DAB (Distributeur automatique de billets)"]},{"id":13410005,"lat":43.647645,"lng":5.2562869999999995,"addr":"ZAC BERTOIRE - AVENUE JEAN MONNET","city":"LAMBESC","cp":"13410","fuels":{"Gazole":{"p":2.189,"d":"2026-04-24"},"E85":{"p":0.818,"d":"2026-04-29"},"E10":{"p":1.989,"d":"2026-04-29"},"SP98":{"p":2.098,"d":"2026-04-29"}},"brand":"Intermarché","h24":true,"services":["Automate CB 24/24"]},{"id":13590004,"lat":43.477288100901006,"lng":5.4915095356275,"addr":"ROND POINT DE LA CROIX","city":"MEYREUIL","cp":"13590","fuels":{"Gazole":{"p":2.19,"d":"2026-04-25"},"E10":{"p":2.09,"d":"2026-04-25"},"SP98":{"p":2.14,"d":"2026-04-25"}},"brand":"Intermarché","h24":true,"services":["Station de gonflage","Automate CB 24/24"]},{"id":13170010,"lat":43.411,"lng":5.308,"addr":"1513 route départementale 113","city":"Les Pennes-Mirabeau","cp":"13170","fuels":{"Gazole":{"p":2.279,"d":"2026-04-30"},"SP95":{"p":2.1,"d":"2026-04-25"}},"services":["Boutique non alimentaire","Station de gonflage","Piste poids lourds"]},{"id":13013018,"lat":43.335000942578,"lng":5.4538591854,"addr":"20 AVENUE MARCEL DELPRAT","city":"MARSEILLE","cp":"13013","fuels":{"Gazole":{"p":2.15,"d":"2026-04-30"},"E10":{"p":1.99,"d":"2026-04-30"},"SP98":{"p":2.065,"d":"2026-04-30"}},"brand":"Casino","h24":true,"services":["Station de gonflage","Vente de gaz domestique (Butane, Propane)","Automate CB 24/24"]},{"id":13300011,"lat":43.653,"lng":5.1,"addr":"Avenue de Bretagne, les Canourgues","city":"Salon-de-Provence","cp":"13300","fuels":{"Gazole":{"p":2.189,"d":"2026-04-28"},"E85":{"p":0.839,"d":"2026-04-30"},"E10":{"p":1.999,"d":"2026-04-28"}},"brand":"Carrefour","h24":true,"services":["Vente de gaz domestique (Butane, Propane)","Automate CB 24/24","DAB (Distributeur automatique de billets)"]},{"id":13870001,"lat":43.90177,"lng":4.8034,"addr":"23 Avenue du Général de Gaulle","city":"Rognonas","cp":"13870","fuels":{"Gazole":{"p":2.239,"d":"2026-04-29"},"E10":{"p":2.079,"d":"2026-04-27"},"SP98":{"p":2.159,"d":"2026-04-27"}},"brand":"Système U","services":["Boutique alimentaire","Boutique non alimentaire","Restauration à emporter","Vente de gaz domestique (Butane, Propane)","DAB (Distributeur automatique de billets)"]},{"id":13220004,"lat":43.390477933905004,"lng":5.1634639372955,"addr":"CHEMIN DE PATAFLOUX, ZONE DU FOURNEILLER, CCIAL LES OLIVIERS","city":"Châteauneuf-les-Martigues","cp":"13220","fuels":{"Gazole":{"p":2.291,"d":"2026-04-27"},"E10":{"p":2.085,"d":"2026-04-27"},"SP98":{"p":2.211,"d":"2026-04-27"}},"brand":"Carrefour","h24":true,"services":["Relais colis","Boutique alimentaire","Boutique non alimentaire","Restauration à emporter","Location de véhicule","Automate CB 24/24","DAB (Distributeur automatique de billets)"]},{"id":13500005,"lat":43.413,"lng":5.017,"addr":"RN 568","city":"Martigues","cp":"13500","fuels":{"Gazole":{"p":2.101,"d":"2026-05-01"},"E10":{"p":1.999,"d":"2026-05-01"},"SP98":{"p":2.087,"d":"2026-05-01"}},"brand":"Esso"},{"id":13710002,"lat":43.478,"lng":5.538,"addr":"RN 96 LES 4 CHEMINS LA BARQUE","city":"Fuveau","cp":"13710","fuels":{"Gazole":{"p":2.183,"d":"2026-05-01"},"E85":{"p":0.983,"d":"2026-05-01"},"E10":{"p":2.002,"d":"2026-05-01"},"SP98":{"p":2.056,"d":"2026-05-01"}},"brand":"Esso"},{"id":13010011,"lat":43.268,"lng":5.415,"addr":"171 BD PAUL CLAUDEL","city":"MARSEILLE","cp":"13010","fuels":{"Gazole":{"p":2.09,"d":"2026-05-01"},"E85":{"p":0.875,"d":"2026-05-01"},"E10":{"p":1.99,"d":"2026-05-01"}},"brand":"TotalEnergies","h24":true,"services":["Boutique alimentaire","Boutique non alimentaire","Station de gonflage","Carburant additivé","Lavage automatique","Vente de gaz domestique (Butane, Propane)","Wifi","Automate CB 24/24","DAB (Distributeur automatique de billets)"]},{"id":13100005,"lat":43.518,"lng":5.465,"addr":"AV MALACRIDA","city":"Aix-en-Provence","cp":"13100","fuels":{"Gazole":{"p":2.183,"d":"2026-05-01"},"E85":{"p":0.98,"d":"2026-05-01"},"E10":{"p":1.997,"d":"2026-05-01"},"SP98":{"p":2.077,"d":"2026-05-01"}},"brand":"Esso"},{"id":13011026,"lat":43.295,"lng":5.48,"addr":"ROUTE DE LA SABLIERE BP 49","city":"MARSEILLE VALENTINE","cp":"13011","fuels":{"Gazole":{"p":2.259,"d":"2026-04-28"},"GPLc":{"p":1.059,"d":"2026-04-29"},"E10":{"p":1.999,"d":"2026-04-28"},"SP98":{"p":2.129,"d":"2026-04-28"}},"brand":"Auchan","services":["Station de gonflage","Carburant additivé","Lavage automatique","Lavage manuel","Vente de gaz domestique (Butane, Propane)","Wifi"]},{"id":13230004,"lat":43.3909607,"lng":4.81006,"addr":"ZA de Malebarge","city":"Port-Saint-Louis-du-Rhône","cp":"13230","fuels":{"Gazole":{"p":2.09,"d":"2026-04-30"}},"h24":true,"services":["Carburant additivé","Vente d'additifs carburants","Automate CB 24/24"]},{"id":13410004,"lat":43.649,"lng":5.265,"addr":"2 AVENUE LEO LAGRANGE","city":"Lambesc","cp":"13410","fuels":{"Gazole":{"p":2.225,"d":"2026-04-24"},"SP95":{"p":2.099,"d":"2026-04-24"},"E10":{"p":2.039,"d":"2026-04-24"}},"brand":"Carrefour","h24":true,"services":["Relais colis","Location de véhicule","Lavage automatique","Vente de gaz domestique (Butane, Propane)","Automate CB 24/24"]},{"id":13210004,"lat":43.78866986289201,"lng":4.8365428048098,"addr":"45 avenue de la libération","city":"Saint-Rémy-de-Provence","cp":"13210","fuels":{"Gazole":{"p":2.09,"d":"2026-05-01"},"E10":{"p":1.99,"d":"2026-04-21"},"SP98":{"p":1.99,"d":"2026-04-27"}},"brand":"TotalEnergies","h24":true,"services":["Boutique non alimentaire","Vente de gaz domestique (Butane, Propane)","Automate CB 24/24"]},{"id":13110005,"lat":43.42,"lng":4.979,"addr":"Route Nationale 568","city":"Port-de-Bouc","cp":"13110","fuels":{"Gazole":{"p":2.09,"d":"2026-05-01"},"E10":{"p":1.99,"d":"2026-05-01"},"SP98":{"p":1.99,"d":"2026-05-01"}},"brand":"TotalEnergies","services":["Boutique alimentaire","Boutique non alimentaire","Restauration à emporter","Restauration sur place","Station de gonflage","Carburant additivé","Piste poids lourds","Lavage automatique","Lavage manuel","Services réparation / entretien","Vente de gaz domestique (Butane, Propane)","Vente d'additifs carburants","Wifi"]},{"id":13012025,"lat":43.304,"lng":5.412,"addr":"53 AV DE ST BARNABE","city":"MARSEILLE","cp":"13012","fuels":{"Gazole":{"p":2.189,"d":"2026-05-01"},"E85":{"p":1.029,"d":"2026-05-01"},"E10":{"p":2.059,"d":"2026-05-01"},"SP98":{"p":2.209,"d":"2026-05-01"}},"brand":"BP","services":["Boutique alimentaire","Boutique non alimentaire","Station de gonflage","Carburant additivé","Lavage automatique","Vente de gaz domestique (Butane, Propane)"]},{"id":13770002,"lat":43.582345003065996,"lng":5.4726836758479,"addr":"32 avenue des Logissons","city":"VENELLES","cp":"13770","fuels":{"Gazole":{"p":2.132,"d":"2026-04-28"},"E85":{"p":0.818,"d":"2026-04-21"},"E10":{"p":1.958,"d":"2026-04-28"},"SP98":{"p":2.068,"d":"2026-04-28"}},"brand":"Intermarché","services":["DAB (Distributeur automatique de billets)"]},{"id":13300001,"lat":43.631,"lng":5.101,"addr":"666 Boulevard Roy René","city":"Salon-de-Provence","cp":"13300","fuels":{"Gazole":{"p":2.25,"d":"2026-04-30"},"GPLc":{"p":1.07,"d":"2026-04-30"},"E10":{"p":1.99,"d":"2026-04-30"},"SP98":{"p":1.99,"d":"2026-04-30"}},"brand":"TotalEnergies","services":["Toilettes publiques","Boutique alimentaire","Boutique non alimentaire","Restauration à emporter","Station de gonflage","Carburant additivé","Piste poids lourds","Lavage automatique","Vente d'additifs carburants"]},{"id":13012029,"lat":43.294989637252996,"lng":5.442207634512,"addr":"CENTRE ALPES URBAIN DES CAILLOLS - 81 AVENUE WILLIAM BOOTH","city":"MARSEILLE","cp":"13012","fuels":{"Gazole":{"p":2.229,"d":"2026-04-30"},"E10":{"p":1.999,"d":"2026-04-30"},"SP98":{"p":2.139,"d":"2026-04-28"}},"brand":"Intermarché","h24":true,"services":["Automate CB 24/24"]},{"id":13750006,"lat":43.617560128422,"lng":5.3077615094695,"addr":"Espace Daumas","city":"Saint-Cannat","cp":"13760","fuels":{"Gazole":{"p":2.188,"d":"2026-04-27"},"E85":{"p":0.739,"d":"2026-04-18"},"E10":{"p":2.058,"d":"2026-04-27"},"SP98":{"p":2.108,"d":"2026-04-27"}},