[{"id":26400002,"lat":44.726,"lng":5.03,"addr":"19 AVENUE ADRIEN FAYOLLE","city":"CREST","cp":"26400","fuels":{"Gazole":{"p":2.329,"d":"2026-04-30"},"GPLc":{"p":1.099,"d":"2026-04-30"},"E10":{"p":2.129,"d":"2026-04-30"},"SP98":{"p":2.229,"d":"2026-04-30"}},"brand":"Eni","services":["Laverie","Relais colis","Boutique alimentaire","Station de gonflage","Carburant additivé","Lavage automatique","Lavage manuel","Vente de gaz domestique (Butane, Propane)"]},{"id":26290008,"lat":44.436,"lng":4.717,"addr":"280 avenue Jean Moulin RN7","city":"DONZERE","cp":"26290","fuels":{"Gazole":{"p":2.189,"d":"2026-04-24"},"E85":{"p":0.799,"d":"2026-04-24"},"E10":{"p":2.069,"d":"2026-04-28"}},"brand":"Système U","h24":true,"services":["Toilettes publiques","Relais colis","Boutique alimentaire","Boutique non alimentaire","Station de gonflage","Location de véhicule","Vente de gaz domestique (Butane, Propane)","Wifi","Automate CB 24/24","DAB (Distributeur automatique de billets)"]},{"id":26800007,"lat":44.864,"lng":4.866,"addr":"AUTOROUTE A7 - AIRE PORTE LES VALENCE EST","city":"Portes-lès-Valence","cp":"26800","fuels":{"Gazole":{"p":2.09,"d":"2026-05-01"},"E85":{"p":0.979,"d":"2026-05-01"},"GPLc":{"p":1.139,"d":"2026-05-01"},"E10":{"p":1.99,"d":"2026-05-01"},"SP98":{"p":1.99,"d":"2026-05-01"}},"brand":"TotalEnergies","h24":true,"services":["Toilettes publiques","Douches","Boutique alimentaire","Boutique non alimentaire","Restauration à emporter","Restauration sur place","Station de gonflage","Aire de camping-cars","Piste poids lourds","Espace bébé","Bornes électriques","Wifi","Automate CB 24/24","DAB (Distributeur automatique de billets)"]},{"id":26140003,"lat":45.274,"lng":4.897,"addr":"LES BUIS","city":"Anneyron","cp":"26140","fuels":{"Gazole":{"p":2.219,"d":"2026-04-23"},"E85":{"p":0.818,"d":"2026-04-16"},"E10":{"p":1.999,"d":"2026-04-20"},"SP98":{"p":2.2,"d":"2026-04-08"}},"brand":"Intermarché","h24":true,"services":["Laverie","Relais colis","Station de gonflage","Aire de camping-cars","Piste poids lourds","Vente de gaz domestique (Butane, Propane)","Bornes électriques","Vente d'additifs carburants","Automate CB 24/24","DAB (Distributeur automatique de billets)"]},{"id":26270009,"lat":44.720160117012,"lng":4.7870171386338,"addr":"AUTOROUTE A7, AIRE DE SAULCE","city":"Saulce-sur-Rhône","cp":"26270","fuels":{"Gazole":{"p":2.273,"d":"2026-04-30"},"E85":{"p":0.942,"d":"2026-04-30"},"GPLc":{"p":1.189,"d":"2026-04-30"},"E10":{"p":2.085,"d":"2026-04-30"},"SP98":{"p":2.16,"d":"2026-04-30"}},"brand":"Agip","h24":true,"services":["Toilettes publiques","Douches","Boutique alimentaire","Restauration à emporter","Restauration sur place","Carburant additivé","Aire de camping-cars","Piste poids lourds","Espace bébé","Wifi","Automate CB 24/24"]},{"id":26200008,"lat":44.55513686,"lng":4.73743342,"addr":"24 avenue John Fitzgerald Kennedy","city":"Montelimar","cp":"26200","fuels":{"Gazole":{"p":2.169,"d":"2026-04-29"},"E10":{"p":1.999,"d":"2026-04-29"},"SP98":{"p":2.102,"d":"2026-04-29"}},"brand":"Auchan","services":["Carburant additivé","Vente de gaz domestique (Butane, Propane)","DAB (Distributeur automatique de billets)"]},{"id":26240006,"lat":45.1712342,"lng":4.813968,"addr":"INTERVAL - 1 CHEMIN DE LA BRASSIERE","city":"Saint-Vallier","cp":"26240","fuels":{"Gazole":{"p":2.18,"d":"2026-04-30"},"E85":{"p":0.819,"d":"2026-04-30"},"E10":{"p":1.974,"d":"2026-04-30"},"SP98":{"p":2.068,"d":"2026-04-30"}},"brand":"Intermarché","h24":true,"services":["Automate CB 24/24"]},{"id":26240008,"lat":45.193,"lng":4.815,"addr":"22 AVENUE DE QUEBEC","city":"Saint-Vallier","cp":"26240","fuels":{"Gazole":{"p":2.245,"d":"2026-04-23"},"E10":{"p":1.965,"d":"2026-04-24"},"SP98":{"p":2.082,"d":"2026-04-24"}},"brand":"Netto"},{"id":26400007,"lat":44.7295482446,"lng":5.01713715307,"addr":"60 BD. DU 6 JUIN 1944","city":"CREST","cp":"26400","fuels":{"Gazole":{"p":2.09,"d":"2026-05-01"},"E10":{"p":1.99,"d":"2026-05-01"}},"brand":"TotalEnergies","services":["Toilettes publiques","Relais colis","Boutique alimentaire","Boutique non alimentaire","Station de gonflage","Carburant additivé","Piste poids lourds","Lavage automatique","Vente de gaz domestique (Butane, Propane)"]},{"id":26600013,"lat":45.01933,"lng":4.87541,"addr":"AUTOROUTE A7 - AIRE DU PONT DE L'ISÈRE","city":"Pont-de-l'Isère","cp":"26600","fuels":{"Gazole":{"p":2.09,"d":"2026-05-01"},"E85":{"p":0.999,"d":"2026-05-01"},"GPLc":{"p":1.119,"d":"2026-05-01"},"E10":{"p":1.99,"d":"2026-05-01"},"SP98":{"p":1.99,"d":"2026-05-01"}},"brand":"TotalEnergies","services":["Toilettes publiques","Douches","Boutique alimentaire","Boutique non alimentaire","Restauration à emporter","Restauration sur place","Station de gonflage","Carburant additivé","Aire de camping-cars","Piste poids lourds","Espace bébé","DAB (Distributeur automatique de billets)"]},{"id":26100001,"lat":45.046,"lng":5.061,"addr":"56 av gambetta","city":"romans sur isère","cp":"26100","fuels":{"Gazole":{"p":2.179,"d":"2026-04-28"},"SP95":{"p":2.079,"d":"2026-04-28"},"E10":{"p":2.039,"d":"2026-04-28"}},"brand":"Système U","h24":true,"services":["Toilettes publiques","Laverie","Station de gonflage","Carburant additivé","Location de véhicule","Lavage automatique","Vente de gaz domestique (Butane, Propane)","Automate CB 24/24","DAB (Distributeur automatique de billets)"]},{"id":26300008,"lat":44.976,"lng":5.028,"addr":"1, Av Dauphiné-Provence","city":"ALIXAN","cp":"26300","fuels":{"Gazole":{"p":2.384,"d":"2026-04-10"},"SP95":{"p":2.177,"d":"2026-04-10"}},"brand":"Renault","h24":true,"services":["Services réparation / entretien","Automate CB 24/24","DAB (Distributeur automatique de billets)"]},{"id":26760001,"lat":44.871,"lng":4.942,"addr":"Route de Valence","city":"Beaumont-lès-Valence","cp":"26760","fuels":{"Gazole":{"p":2.189,"d":"2026-04-24"},"SP95":{"p":2.079,"d":"2026-04-28"},"E85":{"p":0.749,"d":"2026-04-13"},"E10":{"p":2.039,"d":"2026-04-28"}},"brand":"Système U","h24":true,"services":["Station de gonflage","Piste poids lourds","Lavage automatique","Vente de gaz domestique (Butane, Propane)","Automate CB 24/24"]},{"id":26190001,"lat":45.033,"lng":5.309,"addr":"Route de Saint-Thomas","city":"Saint-Laurent-en-Royans","cp":"26190","fuels":{"Gazole":{"p":2.23,"d":"2026-04-29"},"SP95":{"p":2.1,"d":"2026-04-29"},"SP98":{"p":2.13,"d":"2026-04-29"}},"brand":"Garage Magnan","h24":true,"services":["Vente de fioul domestique","Station de gonflage","Carburant additivé","Location de véhicule","Lavage automatique","Automate CB 24/24"]},{"id":26300010,"lat":45,"lng":5.089,"addr":"Route du Stade","city":"Chatuzange-le-Goubet","cp":"26300","fuels":{"Gazole":{"p":2.199,"d":"2026-04-22"},"SP95":{"p":2.069,"d":"2026-04-28"},"SP98":{"p":2.099,"d":"2026-04-28"}},"brand":"Système U","services":["Laverie","Station de gonflage","Lavage automatique","Vente de gaz domestique (Butane, Propane)"]},{"id":26000020,"lat":44.908,"lng":4.878,"addr":"QUARTIER DE CHANTECOURIOLAVENUE DE PROVENCE","city":"VALENCE","cp":"26000","fuels":{"Gazole":{"p":2.185,"d":"2026-04-30"},"E85":{"p":0.829,"d":"2026-04-30"},"GPLc":{"p":1.069,"d":"2026-04-30"},"E10":{"p":1.99,"d":"2026-04-30"},"SP98":{"p":2.029,"d":"2026-04-30"}},"brand":"Auchan","services":["Carburant additivé","Piste poids lourds","Vente de gaz domestique (Butane, Propane)","DAB (Distributeur automatique de billets)"]},{"id":26120005,"lat":44.90184201,"lng":5.010476522,"addr":"1 RUE MARIUS CHATTEAVENUE DE VALENCE","city":"CHABEUIL","cp":"26120","fuels":{"Gazole":{"p":2.213,"d":"2026-04-22"},"E85":{"p":0.818,"d":"2026-04-21"},"E10":{"p":1.994,"d":"2026-04-24"}},"brand":"Auchan","services":["Vente de gaz domestique (Butane, Propane)"]},{"id":26300015,"lat":45.034641386323,"lng":5.0535094655499995,"addr":"C/C ALPES DE PROVENCE","city":"Bourg-de-Péage","cp":"26300","fuels":{"Gazole":{"p":2.204,"d":"2026-04-24"},"E10":{"p":2.003,"d":"2026-04-24"},"SP98":{"p":2.138,"d":"2026-04-24"}},"brand":"Carrefour","h24":true,"services":["Toilettes publiques","Vente de pétrole lampant","Vente de gaz domestique (Butane, Propane)","Bornes électriques","Wifi","Automate CB 24/24"]},{"id":26540001,"lat":45.069,"lng":5.051,"addr":"26 Avenue Dauphiné-Provence","city":"Mours-Saint-Eusèbe","cp":"26540","fuels":{"Gazole":{"p":2.299,"d":"2026-04-20"},"E10":{"p":1.999,"d":"2026-04-12"},"SP98":{"p":2.129,"d":"2026-04-03"}},"brand":"Carrefour","h24":true,"services":["Vente de gaz domestique (Butane, Propane)","Automate CB 24/24"]},{"id":26140005,"lat":45.277,"lng":4.825,"addr":"Aire de Saint Rambert d'Albon","city":"Saint-Rambert-d'Albon","cp":"26140","fuels":{"Gazole":{"p":2.29,"d":"2026-04-15"},"GPLc":{"p":1.08,"d":"2026-04-15"},"E10":{"p":2.099,"d":"2026-04-28"},"SP98":{"p":2.199,"d":"2026-04-28"}},"brand":"Leclerc","h24":true,"services":["Toilettes publiques","Douches","Boutique alimentaire","Boutique non alimentaire","Vente de fioul domestique","Station de gonflage","Carburant additivé","Aire de camping-cars","Piste poids lourds","Espace bébé","Bornes électriques","Wifi","Automate CB 24/24","DAB (Distributeur automatique de billets)"]},{"id":26160001,"lat":44.541,"lng":4.934,"addr":"160 ROUTE D ALEYRAC","city":"La Bégude-de-Mazenc","cp":"26160","fuels":{"Gazole":{"p":2.209,"d":"2026-04-21"},"SP95":{"p":2.069,"d":"2026-04-21"},"SP98":{"p":2.129,"d":"2026-04-21"}},"brand":"Système U","h24":true,"services":["Laverie","Station de gonflage","Lavage automatique","Automate CB 24/24"]},{"id":26780009,"lat":44.514,"lng":4.783,"addr":"AUTOROUTE A7 - AIRE DE MONTELIMAR VL","city":"Allan","cp":"26780","fuels":{"Gazole":{"p":2.577,"d":"2026-05-01"},"GPLc":{"p":1.157,"d":"2026-05-01"},"E10":{"p":2.506,"d":"2026-05-01"},"SP98":{"p":2.656,"d":"2026-05-01"}},"brand":"Shell","h24":true,"services":["Douches","Boutique alimentaire","Boutique non alimentaire","Carburant additivé","Bornes électriques","Wifi","Automate CB 24/24"]},{"id":26130002,"lat":44.345543081149,"lng":4.7544194983918,"addr":"Rond-Point de l'Europe - Chem. de Gonsard","city":"Saint-Paul-Trois-Châteaux","cp":"26130","fuels":{"Gazole":{"p":2.189,"d":"2026-04-30"},"SP95":{"p":1.999,"d":"2026-04-30"},"E85":{"p":0.819,"d":"2026-04-16"},"E10":{"p":1.999,"d":"2026-04-30"}},"brand":"Intermarché","h24":true,"services":["Relais colis","Vente de pétrole lampant","Station de gonflage","Location de véhicule","Piste poids lourds","Lavage automatique","Lavage manuel","Vente de gaz domestique (Butane, Propane)","Automate CB 24/24","DAB (Distributeur automatique de billets)"]},{"id":26380001,"lat":45.0858155334,"lng":5.047767045880001,"addr":"QUARTIER LES ESCOFFERS","city":"PEYRINS","cp":"26380","fuels":{"Gazole":{"p":2.285,"d":"2026-04-24"},"SP95":{"p":2.129,"d":"2026-04-24"},"SP98":{"p":2.169,"d":"2026-04-24"}},"brand":"Agip","services":["Toilettes publiques","Boutique alimentaire","Vente de fioul domestique","Station de gonflage","Carburant additivé","Piste poids lourds","Lavage automatique","Vente de gaz domestique (Butane, Propane)"]},{"id":26140006,"lat":45.242656951727,"lng":4.8206648537537005,"addr":"N7","city":"Albon","cp":"26140","fuels":{"Gazole":{"p":2.277,"d":"2026-04-24"},"E85":{"p":0.831,"d":"2026-03-30"},"E10":{"p":1.998,"d":"2026-04-24"}},"brand":"TotalEnergies","h24":true,"services":["Carburant additivé","Location de véhicule","Piste poids lourds","Services réparation / entretien","Automate CB 24/24"]},{"id":26300012,"lat":45,"lng":5.001,"addr":"60 RUE DES MARGUERITES","city":"ALIXAN","cp":"26300","fuels":{"Gazole":{"p":2.09,"d":"2026-05-01"},"E85":{"p":0.879,"d":"2026-05-01"}},"brand":"TotalEnergies","services":["Boutique alimentaire","Boutique non alimentaire","Restauration à emporter","Station de gonflage","Carburant additivé","Vente de gaz domestique (Butane, Propane)"]},{"id":26600002,"lat":45.072,"lng":4.834,"addr":"PLACE DU MARCHE AUX FRUITS","city":"Tain-l'Hermitage","cp":"26600","fuels":{"Gazole":{"p":2.235,"d":"2026-04-29"}},"brand":"TotalEnergies","h24":true,"services":["Relais colis","Boutique alimentaire","Boutique non alimentaire","Bar","Station de gonflage","Carburant additivé","Piste poids lourds","Lavage automatique","Lavage manuel","Vente de gaz domestique (Butane, Propane)","Vente d'additifs carburants","Automate CB 24/24"]},{"id":26000015,"lat":44.923712463147,"lng":4.9172712115033,"addr":"BD FRANKLIN ROOSEVELT","city":"VALENCE","cp":"26000","fuels":{"Gazole":{"p":2.09,"d":"2026-05-01"},"E85":{"p":0.826,"d":"2026-05-01"},"E10":{"p":1.99,"d":"2026-05-01"},"SP98":{"p":1.99,"d":"2026-05-01"}},"brand":"TotalEnergies","services":["Boutique alimentaire","Boutique non alimentaire","Restauration à emporter","Station de gonflage","Carburant additivé","Piste poids lourds","Lavage automatique","Vente de gaz domestique (Butane, Propane)","DAB (Distributeur automatique de billets)"]},{"id":26800002,"lat":44.86708107,"lng":4.86473757,"addr":"A7 AIRE DE PORTES LES VALENCE","city":"PORTES-LES-VALENCE","cp":"26800","fuels":{"Gazole":{"p":2.339,"d":"2026-04-25"},"E85":{"p":1.055,"d":"2026-04-25"},"GPLc":{"p":1.13,"d":"2026-04-25"},"E10":{"p":2.119,"d":"2026-04-25"},"SP98":{"p":2.199,"d":"2026-04-25"}},"brand":"Avia","services":["Toilettes publiques","Douches","Boutique alimentaire","Boutique non alimentaire","Restauration à emporter","Station de gonflage","Carburant additivé","Piste poids lourds","Espace bébé","DAB (Distributeur automatique de billets)"]},{"id":26400009,"lat":44.734,"lng":4.925,"addr":"2 montée du beffroi","city":"grane","cp":"26400","fuels":{"Gazole":{"p":2.205,"d":"2026-04-29"},"E85":{"p":0.819,"d":"2026-04-29"},"E10":{"p":2.05,"d":"2026-04-29"},"SP98":{"p":2.15,"d":"2026-04-29"}},"brand":"Système U","h24":true,"services":["Automate CB 24/24"]},{"id":26290009,"lat":44.429,"lng":4.712,"addr":"RN-7","city":"DONZERE","cp":"26290","fuels":{"Gazole":{"p":2.09,"d":"2026-05-01"},"E85":{"p":0.839,"d":"2026-05-01"},"E10":{"p":1.99,"d":"2026-05-01"},"SP98":{"p":1.99,"d":"2026-05-01"}},"brand":"Total Petrol Access","services":["Boutique alimentaire","Station de gonflage","Piste poids lourds","Vente de gaz domestique (Butane, Propane)","Wifi"]},{"id":26110004,"lat":44.36,"lng":5.127,"addr":"31 Avenue de Venterol","city":"NYONS","cp":"26110","fuels":{"Gazole":{"p":2.199,"d":"2026-04-22"},"E85":{"p":0.819,"d":"2026-04-16"},"E10":{"p":2.039,"d":"2026-04-29"},"SP98":{"p":2.139,"d":"2026-04-29"}},"brand":"Intermarché","h24":true,"services":["Toilettes publiques","Laverie","Boutique alimentaire","Restauration à emporter","Station de gonflage","Location de véhicule","Lavage automatique","Lavage manuel","Vente de gaz domestique (Butane, Propane)","Automate CB 24/24","DAB (Distributeur automatique de billets)"]},{"id":26110003,"lat":44.36,"lng":5.134,"addr":"Route d' Orange","city":"NYONS","cp":"26110","fuels":{"Gazole":{"p":2.199,"d":"2026-04-29"},"E85":{"p":0.799,"d":"2026-04-29"},"E10":{"p":2.039,"d":"2026-04-29"},"SP98":{"p":2.139,"d":"2026-04-29"}},"brand":"Independent","h24":true,"services":["Laverie","Station de gonflage","Location de véhicule","Piste poids lourds","Lavage automatique","Lavage manuel","Vente de gaz domestique (Butane, Propane)","Automate CB 24/24","DAB (Distributeur automatique de billets)"]},{"id":26503001,"lat":44.959,"lng":4.883,"addr":"Les Chabanneries","city":"Bourg-lès-Valence","cp":"26500","fuels":{"Gazole":{"p":2.151,"d":"2026-04-30"},"SP95":{"p":2.057,"d":"2026-04-30"},"GPLc":{"p":1.029,"d":"2026-04-30"},"E10":{"p":2.024,"d":"2026-04-30"},"SP98":{"p":2.056,"d":"2026-04-30"}},"brand":"Leclerc","h24":true,"services":["Piste poids lourds","Vente d'additifs carburants","Automate CB 24/24"]},{"id":26100002,"lat":45.043,"lng":5.029,"addr":"Route de Tain","city":"ROMANS-SUR-ISèRE","cp":"26100","fuels":{"Gazole":{"p":2.178,"d":"2026-04-29"},"SP95":{"p":2.058,"d":"2026-04-29"},"E85":{"p":0.819,"d":"2026-04-24"},"E10":{"p":2.044,"d":"2026-04-29"},"SP98":{"p":2.089,"d":"2026-04-29"}},"brand":"Système U","services":["Toilettes publiques","Laverie","Boutique alimentaire","Boutique non alimentaire","Restauration sur place","Station de gonflage","Location de véhicule","Piste poids lourds","Lavage automatique","Lavage manuel","Vente de gaz domestique (Butane, Propane)","Bornes électriques","Wifi","DAB (Distributeur automatique de billets)"]},{"id":26260001,"lat":45.119,"lng":4.972,"addr":"Route de Valence","city":"SAINT-DONAT-SUR-L'HERBASSE","cp":"26260","fuels":{"Gazole":{"p":2.19,"d":"2026-04-29"},"E85":{"p":0.762,"d":"2026-04-24"},"E10":{"p":2.055,"d":"2026-04-29"},"SP98":{"p":2.135,"d":"2026-04-29"}},"brand":"Système U","h24":true,"services":["Toilettes publiques","Laverie","Relais colis","Boutique alimentaire","Boutique non alimentaire","Restauration à emporter","Station de gonflage","Carburant additivé","Location de véhicule","Piste poids lourds","Lavage automatique","Lavage manuel","Vente de gaz domestique (Butane, Propane)","Bornes électriques","Vente d'additifs carburants","Automate CB 24/24"]},{"id":26740005,"lat":44.548,"lng":4.807,"addr":"20 ROUTE DE MONTELIMAR","city":"Montboucher-sur-Jabron","cp":"26740","fuels":{"Gazole":{"p":2.259,"d":"2026-04-25"},"E10":{"p":2.019,"d":"2026-04-25"},"SP98":{"p":2.079,"d":"2026-04-25"}},"brand":"Avia","h24":true,"services":["Toilettes publiques","Relais colis","Boutique alimentaire","Boutique non alimentaire","Bar","Station de gonflage","Carburant additivé","Piste poids lourds","Lavage automatique","Vente de gaz domestique (Butane, Propane)","Automate CB 24/24"]},{"id":26270004,"lat":44.759,"lng":4.835,"addr":"Parc des Crozes","city":"LORIOL-SUR-DRôME","cp":"26270","fuels":{"Gazole":{"p":2.159,"d":"2026-04-29"},"SP95":{"p":2.039,"d":"2026-04-30"},"E85":{"p":0.819,"d":"2026-04-17"},"GPLc":{"p":1.159,"d":"2026-04-17"},"E10":{"p":1.979,"d":"2026-04-28"},"SP98":{"p":2.069,"d":"2026-04-21"}},"brand":"Intermarché","h24":true,"services":["Toilettes publiques","Laverie","Relais colis","Vente de fioul domestique","Station de gonflage","Location de véhicule","Piste poids lourds","Lavage automatique","Lavage manuel","Vente de gaz domestique (Butane, Propane)","Bornes électriques","Automate CB 24/24","DAB (Distributeur automatique de billets)"]},{"id":26270007,"lat":44.72,"lng":4.806,"addr":"1287 RN 7 - LES BLACHES","city":"Cliousclat","cp":"26270","fuels":{"Gazole":{"p":2.09,"d":"2026-04-30"},"E85":{"p":0.875,"d":"2026-04-16"},"E10":{"p":1.99,"d":"2026-04-27"},"SP98":{"p":1.99,"d":"2026-04-15"}},"brand":"TotalEnergies","h24":true,"services":["Station de gonflage","Carburant additivé","Piste poids lourds","Automate CB 24/24"]},{"id":26200004,"lat":44.567,"lng":4.759,"addr":"Avenue des Catalins","city":"MONTéLIMAR","cp":"26200","fuels":{"Gazole":{"p":2.183,"d":"2026-04-30"},"SP95":{"p":2.109,"d":"2026-04-30"},"E85":{"p":0.815,"d":"2026-04-30"},"SP98":{"p":2.049,"d":"2026-04-30"}},"brand":"Leclerc","h24":true,"services":["Boutique alimentaire","Boutique non alimentaire","Vente de pétrole lampant","Station de gonflage","Location de véhicule","Lavage automatique","Lavage manuel","Vente de gaz domestique (Butane, Propane)","Automate CB 24/24"]},{"id":26200001,"lat":44.550293935106,"lng":4.7750784205627,"addr":"Route de Dieulefit","city":"MONTéLIMAR","cp":"26200","fuels":{"Gazole":{"p":2.169,"d":"2026-04-28"},"SP95":{"p":2.079,"d":"2026-04-30"},"E85":{"p":0.829,"d":"2026-04-28"},"E10":{"p":2.029,"d":"2026-04-30"}},"brand":"Carrefour","services":["DAB (Distributeur automatique de billets)"]},{"id":26230002,"lat":44.42,"lng":4.893,"addr":"900 ROUTE DE MONTELIMAR","city":"GRIGNAN","cp":"26230","fuels":{"Gazole":{"p":2.219,"d":"2026-04-30"},"E85":{"p":0.818,"d":"2026-04-28"},"E10":{"p":2.029,"d":"2026-04-30"},"SP98":{"p":2.149,"d":"2026-04-30"}},"brand":"Intermarché","services":["Laverie","Station de gonflage","Aire de camping-cars","Location de véhicule","Piste poids lourds","Lavage automatique","Lavage manuel","Vente de gaz domestique (Butane, Propane)","DAB (Distributeur automatique de billets)"]},{"id":26400005,"lat":44.733,"lng":4.998,"addr":"Lieu-dit La Plaine","city":"Crest","cp":"26400","fuels":{"Gazole":{"p":2.25,"d":"2026-04-27"},"SP95":{"p":2.11,"d":"2026-04-16"}},"h24":true,"services":["Carburant additivé","Automate CB 24/24"]},{"id":26000019,"lat":44.927,"lng":4.916,"addr":"300 AVENUE DE CHABEUIL","city":"Valence","cp":"26000","fuels":{"Gazole":{"p":2.299,"d":"2026-04-14"},"E85":{"p":0.859,"d":"2026-03-16"},"E10":{"p":2.059,"d":"2026-04-30"},"SP98":{"p":2.159,"d":"2026-04-30"}},"brand":"Agip","h24":true,"services":["Laverie","Boutique alimentaire","Boutique non alimentaire","Restauration à emporter","Restauration sur place","Carburant additivé","Piste poids lourds","Vente de gaz domestique (Butane, Propane)","Vente d'additifs carburants","Automate CB 24/24"]},{"id":26800005,"lat":44.85,"lng":4.87,"addr":"Les Basseaux","city":"ÉTOILE-SUR-RHôNE","cp":"26800","fuels":{"Gazole":{"p":2.179,"d":"2026-04-25"},"E85":{"p":0.819,"d":"2026-04-16"},"E10":{"p":1.994,"d":"2026-04-29"},"SP98":{"p":2.099,"d":"2026-04-29"}},"brand":"Intermarché","h24":true,"services":["Laverie","Relais colis","Vente de fioul domestique","Station de gonflage","Carburant additivé","Aire de camping-cars","Piste poids lourds","Lavage automatique","Lavage manuel","Vente de gaz domestique (Butane, Propane)","Bornes électriques","Automate CB 24/24","DAB (Distributeur automatique de billets)"]},{"id":26510002,"lat":44.37894577708501,"lng":5.4260145606024,"addr":"85 route d'orpierre","city":"verclause","cp":"26510","fuels":{"Gazole":{"p":2.198,"d":"2026-04-18"},"E85":{"p":0.769,"d":"2026-04-18"},"E10":{"p":2.039,"d":"2026-04-29"},"SP98":{"p":2.118,"d":"2026-04-29"}},"brand":"Système U","h24":true,"services":["Laverie","Relais colis","Station de gonflage","Carburant additivé","Aire de camping-cars","Lavage automatique","Vente de gaz domestique (Butane, Propane)","Bornes électriques","Wifi","Automate CB 24/24","DAB (Distributeur automatique de billets)"]},{"id":26730001,"lat":45.056,"lng":5.192,"addr":"4030 Les Fauries - RN 532","city":"Eymeux","cp":"26730","fuels":{"Gazole":{"p":2.09,"d":"2026-05-01"},"E10":{"p":1.99,"d":"2026-05-01"},"SP98":{"p":1.99,"d":"2026-05-01"}},"brand":"TotalEnergies","h24":true,"services":["Toilettes publiques","Boutique alimentaire","Boutique non alimentaire","Station de gonflage","Carburant additivé","Piste poids lourds","Vente de gaz domestique (Butane, Propane)","Automate CB 24/24"]},{"id":26450002,"lat":44.6263539,"lng":4.9677336,"addr":"ZA Route de Cléon d'Andran","city":"Puy-Saint-Martin","cp":"26450","fuels":{"Gazole":{"p":2.199,"d":"2026-04-27"},"E10":{"p":2.065,"d":"2026-04-27"},"SP98":{"p":2.102,"d":"2026-04-27"}},"brand":"Système U","services":["Toilettes publiques","Boutique alimentaire","Station de gonflage","Vente de gaz domestique (Butane, Propane)","DAB (Distributeur automatique de billets)"]},{"id":26240004,"lat":45.191,"lng":4.814,"addr":"16 AVENUE DU QUEBEC","city":"SAINT-VALLIER","cp":"26240","fuels":{"Gazole":{"p":2.239,"d":"2026-04-28"},"E85":{"p":0.859,"d":"2026-03-16"},"E10":{"p":2.059,"d":"2026-04-30"},"SP98":{"p":2.159,"d":"2026-04-30"}},"brand":"Esso","services":["Boutique alimentaire","Boutique non alimentaire","Carburant additivé","Piste poids lourds","Vente de gaz domestique (Butane, Propane)"]},{"id":26200007,"lat":44.563,"lng":4.747,"addr":"25 RUE PAUL LOUBET","city":"MONTELIMAR","cp":"26200","fuels":{"Gazole":{"p":2.169,"d":"2026-04-27"},"E85":{"p":0.818,"d":"2026-04-27"},"E10":{"p":1.999,"d":"2026-04-27"},"SP98":{"p":2.049,"d":"2026-04-27"}},"brand":"Intermarché","services":["Laverie","Station de gonflage","Location de véhicule","DAB (Distributeur automatique de billets)"]},{"id":26000008,"lat":44.927,"lng":4.915,"addr":"295 Avenue de Chabeuil","city":"Valence","cp":"26000","fuels":{"Gazole":{"p":2.227,"d":"2026-05-01"},"E10":{"p":2.017,"d":"2026-05-01"},"SP98":{"p":2.097,"d":"2026-05-01"}},"brand":"Esso"},{"id":26200003,"lat":44.544,"lng":4.747,"addr":"RTE DE MARSEILLE","city":"Montélimar","cp":"26200","fuels":{"Gazole":{"p":2.221,"d":"2026-04-29"},"E10":{"p":1.99,"d":"2026-04-29"},"SP98":{"p":2.053,"d":"2026-04-29"}},"brand":"Esso"},{"id":26000007,"lat":44.91,"lng":4.884,"addr":"396 Avenue Victor Hugo","city":"Valence","cp":"26000","fuels":{"Gazole":{"p":2.261,"d":"2026-04-29"},"E10":{"p":1.99,"d":"2026-04-29"},"SP98":{"p":2.064,"d":"2026-04-29"}},"brand":"Esso"},{"id":26290003,"lat":44.42,"lng":4.712,"addr":"RN 7 - LES PEYRAUDS","city":"Donzère","cp":"26290","fuels":{"Gazole":{"p":2.119,"d":"2026-05-01"},"E10":{"p":2.019,"d":"2026-05-01"},"SP98":{"p":2.099,"d":"2026-05-01"}},"brand":"Esso"},{"id":26300005,"lat":44.999,"lng":5.001,"addr":"ROUTE NATIONALE 532","city":"Alixan","cp":"26300","fuels":{"Gazole":{"p":2.114,"d":"2026-05-01"},"E85":{"p":1.012,"d":"2026-05-01"},"E10":{"p":1.99,"d":"2026-05-01"},"SP98":{"p":2.074,"d":"2026-05-01"}},"brand":"Esso"},{"id":26300011,"lat":45.03474,"lng":5.05271,"addr":"BLD DES ALPES DE PROVENCE","city":"Bourg-de-Péage","cp":"26300","fuels":{"Gazole":{"p":2.09,"d":"2026-05-01"},"GPLc":{"p":1.079,"d":"2026-05-01"},"E10":{"p":1.99,"d":"2026-05-01"},"SP98":{"p":1.99,"d":"2026-05-01"}},"brand":"TotalEnergies","services":["Relais colis","Boutique alimentaire","Carburant additivé","Lavage manuel","Vente de gaz domestique (Butane, Propane)"]},{"id":26730005,"lat":45.072,"lng":5.211,"addr":"Autoroute A49 - Aire Royans VercorsSens Valence - Grenoble","city":"LA BAUME D'HOSTUN","cp":"26730","fuels":{"Gazole":{"p":2.445,"d":"2026-05-01"},"GPLc":{"p":1.149,"d":"2026-05-01"},"E10":{"p":2.216,"d":"2026-05-01"},"SP98":{"p":2.316,"d":"2026-05-01"}},"brand":"Esso","services":["Toilettes publiques","Douches","Boutique alimentaire","Boutique non alimentaire","Restauration à emporter","Station de gonflage","Carburant additivé","Aire de camping-cars","Piste poids lourds"]},{"id":26730006,"lat":45.076,"lng":5.211,"addr":"Autoroute A49 - Aire Porte de la DromeSens Grenoble - Valence","city":"LA BAUME D'HOSTUN","cp":"26730","fuels":{"Gazole":{"p":2.416,"d":"2026-04-30"},"E85":{"p":0.999,"d":"2026-04-30"},"E10":{"p":2.191,"d":"2026-04-30"},"SP98":{"p":2.291,"d":"2026-04-30"}},"brand":"Esso","services":["Toilettes publiques","Douches","Boutique alimentaire","Boutique non alimentaire","Restauration à emporter","Station de gonflage","Carburant additivé","Aire de camping-cars","Piste poids lourds","Espace bébé"]},{"id":26800008,"lat":44.878727999999995,"lng":4.878184,"addr":"15 AVE JEAN JAURES","city":"Portes-lès-valence","cp":"26800","fuels":{"Gazole":{"p":2.299,"d":"2026-04-30"},"E10":{"p":2.129,"d":"2026-04-30"},"SP98":{"p":2.229,"d":"2026-04-30"}},"brand":"Agip","services":["Toilettes publiques","Boutique alimentaire","Station de gonflage","Carburant additivé","Piste poids lourds","Lavage automatique","Vente de gaz domestique (Butane, Propane)"]},{"id":26340000,"lat":44.692,"lng":5.19,"addr":"Lieu-dit La Tuilière","city":"Saillans","cp":"26340","fuels":{"Gazole":{"p":2.25,"d":"2026-04-27"},"SP95":{"p":2.14,"d":"2026-04-27"}},"h24":true,"services":["Lavage manuel","Automate CB 24/24"]},{"id":26140002,"lat":45.275,"lng":4.829,"addr":"AUTOROUTE A7 AIRE DE SAINT RAMBERT DALBON","city":"Saint-Rambert-d'Albon","cp":"26140","fuels":{"Gazole":{"p":2.429,"d":"2026-05-01"},"GPLc":{"p":1.253,"d":"2026-05-01"},"E10":{"p":2.279,"d":"2026-05-01"},"SP98":{"p":2.399,"d":"2026-05-01"}},"brand":"Esso","h24":true,"services":["Toilettes publiques","Douches","Boutique alimentaire","Boutique non alimentaire","Restauration à emporter","Restauration sur place","Station de gonflage","Carburant additivé","Aire de camping-cars","Piste poids lourds","Espace bébé","Bornes électriques","Wifi","Automate CB 24/24","DAB (Distributeur automatique de billets)"]},{"id":26400004,"lat":44.723,"lng":5.037,"addr":"QUARTIER MIVOIE","city":"Aouste-sur-Sye","cp":"26400","fuels":{"Gazole":{"p":2.179,"d":"2026-04-30"},"SP95":{"p":2.059,"d":"2026-04-30"},"E85":{"p":0.819,"d":"2026-04-30"},"E10":{"p":1.999,"d":"2026-04-30"},"SP98":{"p":2.099,"d":"2026-04-30"}},"brand":"Intermarché","h24":true,"services":["Aire de camping-cars","Piste poids lourds","Vente de gaz domestique (Butane, Propane)","Bornes électriques","Automate CB 24/24"]},{"id":26790006,"lat":44.29,"lng":4.852,"addr":"87, Route De Bouchet","city":"Suze La Rousse","cp":"26790","fuels":{"Gazole":{"p":2.09,"d":"2026-04-30"},"SP95":{"p":1.99,"d":"2026-04-27"}},"h24":true,"services":["Carburant additivé","Automate CB 24/24"]},{"id":26500004,"lat":44.959697445901,"lng":4.9069256592276,"addr":"PLACE DE L'ALLET","city":"Bourg-lès-Valence","cp":"26500","fuels":{"Gazole":{"p":2.199,"d":"2026-04-22"},"E10":{"p":1.969,"d":"2026-04-22"},"SP98":{"p":2.15,"d":"2026-04-08"}},"brand":"Intermarché","h24":true,"services":["Station de gonflage","Automate CB 24/24","DAB (Distributeur automatique de billets)"]},{"id":26390001,"lat":45.256,"lng":5.026,"addr":"6 route de Romans","city":"Hauterives","cp":"26390","fuels":{"Gazole":{"p":2.19,"d":"2026-05-01"},"E10":{"p":1.999,"d":"2026-05-01"},"SP98":{"p":2.129,"d":"2026-05-01"}},"brand":"Intermarché","h24":true,"services":["Laverie","Boutique alimentaire","Boutique non alimentaire","Restauration à emporter","Station de gonflage","Carburant additivé","Lavage automatique","Vente de gaz domestique (Butane, Propane)","Automate CB 24/24"]},{"id":26450003,"lat":44.611153997653,"lng":4.9367917471658,"addr":"690, Avenue Resistance de la Déportation","city":"Cleon D'Andran","cp":"26450","fuels":{"Gazole":{"p":2.09,"d":"2026-04-30"},"SP95":{"p":1.99,"d":"2026-04-29"}}},{"id":26500002,"lat":44.968,"lng":4.886,"addr":"LES JONQUETTES","city":"Bourg-lès-Valence","cp":"26500","fuels":{"Gazole":{"p":2.249,"d":"2026-04-24"},"E10":{"p":2.059,"d":"2026-04-30"},"SP98":{"p":2.159,"d":"2026-04-30"}},"brand":"TotalEnergies","h24":true,"services":["Carburant additivé","Piste poids lourds","Automate CB 24/24"]},{"id":26780006,"lat":44.489259760693,"lng":4.719861286003,"addr":"45 RUE DE LA SOURCE","city":"Châteauneuf-du-Rhône","cp":"26780","fuels":{"Gazole":{"p":2.199,"d":"2026-04-29"},"E85":{"p":0.789,"d":"2026-04-29"},"E10":{"p":2.059,"d":"2026-04-29"},"SP98":{"p":2.089,"d":"2026-04-29"}},"brand":"U","h24":true,"services":["Toilettes publiques","Laverie","Boutique alimentaire","Station de gonflage","Aire de camping-cars","Location de véhicule","Vente de gaz domestique (Butane, Propane)","Wifi","Automate CB 24/24"]},{"id":26210001,"lat":45.29073441572199,"lng":4.9531349732032,"addr":"265 avenue des pins","city":"Saint-Sorlin-en-Valloire","cp":"26210","fuels":{"Gazole":{"p":2.209,"d":"2026-04-30"},"E10":{"p":2.059,"d":"2026-04-30"}},"brand":"Système U","services":["Toilettes publiques","Laverie","Boutique alimentaire","Boutique non alimentaire","Restauration à emporter","Restauration sur place","Bar","Vente de pétrole lampant","Station de gonflage","Carburant additivé","Location de véhicule","Piste poids lourds","Lavage automatique","Lavage manuel","Espace bébé","Services réparation / entretien","Vente de gaz domestique (Butane, Propane)","DAB (Distributeur automatique de billets)"]},{"id":26740006,"lat":44.608315546374,"lng":4.8605173992222,"addr":"1075, Route de Crest","city":"La Laupie","cp":"26740","fuels":{"Gazole":{"p":2.09,"d":"2026-04-30"},"SP95":{"p":1.99,"d":"2026-04-29"}}},{"id":26620001,"lat":44.667,"lng":5.697,"addr":"655 ROUTE DE SISTERON RD 1075","city":"LUS-LA-CROIX-HAUTE","cp":"26620","fuels":{"Gazole":{"p":2.447,"d":"2026-04-17"},"GPLc":{"p":1.037,"d":"2026-04-07"},"E10":{"p":2.177,"d":"2026-04-07"},"SP98":{"p":2.267,"d":"2026-04-07"}},"brand":"Avia","h24":true,"services":["Boutique alimentaire","Boutique non alimentaire","Restauration à emporter","Station de gonflage","Carburant additivé","Piste poids lourds","Services réparation / entretien","Automate CB 24/24"]},{"id":26790005,"lat":44.28,"lng":4.922,"addr":"ZONE INTERMARCHE - ROUTE D ORANGE - LE PEYRON","city":"Tulette","cp":"26790","fuels":{"Gazole":{"p":2.219,"d":"2026-04-29"},"SP95":{"p":2.079,"d":"2026-04-29"},"E10":{"p":2.025,"d":"2026-04-29"},"SP98":{"p":2.119,"d":"2026-04-29"}},"brand":"Intermarché","h24":true,"services":["Boutique alimentaire","Restauration sur place","Station de gonflage","Piste poids lourds","Lavage automatique","Lavage manuel","Vente de gaz domestique (Butane, Propane)","Automate CB 24/24","DAB (Distributeur automatique de billets)"]},{"id":26600011,"lat":45.020146848083,"lng":4.876368447721,"addr":"Autoroute A7","city":"Pont-de-l'Isère","cp":"26600","fuels":{"Gazole":{"p":2.339,"d":"2026-04-21"},"GPLc":{"p":1.095,"d":"2026-02-18"},"E10":{"p":2.119,"d":"2026-04-25"},"SP98":{"p":2.199,"d":"2026-04-17"}},"brand":"Avia","h24":true,"services":["Toilettes publiques","Douches","Boutique alimentaire","Boutique non alimentaire","Restauration à emporter","Restauration sur place","Station de gonflage","Carburant additivé","Piste poids lourds","Espace bébé","Bornes électriques","Wifi","Automate CB 24/24","DAB (Distributeur automatique de billets)"]},{"id":26208001,"lat":44.532,"lng":4.748,"addr":"Route de Marseille","city":"MONTéLIMAR","cp":"26200","fuels":{"Gazole":{"p":2.169,"d":"2026-04-28"},"E10":{"p":1.999,"d":"2026-04-28"},"SP98":{"p":2.099,"d":"2026-04-28"}},"brand":"Carrefour","h24":true,"services":["Laverie","Vente de fioul domestique","Station de gonflage","Location de véhicule","Vente de gaz domestique (Butane, Propane)","Wifi","Automate CB 24/24","DAB (Distributeur automatique de billets)"]},{"id":26320002,"lat":44.964,"lng":4.946,"addr":"41 RUE DU VIVARAIS","city":"Saint-Marcel-lès-Valence","cp":"26320","fuels":{"Gazole":{"p":2.299,"d":"2026-04-17"},"E85":{"p":0.859,"d":"2026-03-16"},"E10":{"p":2.059,"d":"2026-04-30"}},"brand":"Eni","h24":true,"services":["Automate CB 24/24"]},{"id":26790003,"lat":44.287,"lng":4.943,"addr":"rte de nyons","city":"Tulette","cp":"26790","fuels":{"Gazole":{"p":2.263,"d":"2026-04-27"},"SP95":{"p":2.099,"d":"2026-04-27"},"SP98":{"p":2.165,"d":"2026-04-27"}},"brand":"Système U","h24":true,"services":["Station de gonflage","Piste poids lourds","Automate CB 24/24","DAB (Distributeur automatique de billets)"]},{"id":26170003,"lat":44.274,"lng":5.271,"addr":"avenue boissy d'anglas","city":"Buis-les-Baronnies","cp":"26170","fuels":{"Gazole":{"p":2.199,"d":"2026-04-24"},"E85":{"p":0.849,"d":"2026-04-13"},"E10":{"p":2.049,"d":"2026-04-24"},"SP98":{"p":2.139,"d":"2026-04-24"}},"brand":"Système U","h24":true,"services":["Laverie","Automate CB 24/24"]},{"id":26000016,"lat":44.94,"lng":4.91,"addr":"BOULEVARD GUSTAVE ANDRE","city":"VALENCE","cp":"26000","fuels":{"Gazole":{"p":2.09,"d":"2026-05-01"},"E85":{"p":0.829,"d":"2026-05-01"},"GPLc":{"p":1.069,"d":"2026-05-01"},"E10":{"p":1.99,"d":"2026-05-01"},"SP98":{"p":1.99,"d":"2026-05-01"}},"brand":"TotalEnergies","services":["Boutique alimentaire","Boutique non alimentaire","Station de gonflage","Carburant additivé","Lavage automatique","Lavage manuel","Vente de gaz domestique (Butane, Propane)","Bornes électriques","Vente d'additifs carburants","Wifi"]},{"id":26190002,"lat":45.025,"lng":5.287,"addr":"Zone d'activité de la roue est","city":"Saint-Jean-en-Royans","cp":"26190","fuels":{"Gazole":{"p":2.169,"d":"2026-04-29"},"SP95":{"p":2.049,"d":"2026-04-29"},"E85":{"p":0.819,"d":"2026-04-20"},"SP98":{"p":2.099,"d":"2026-04-09"}},"brand":"Intermarché","services":["Station de gonflage","Vente de gaz domestique (Butane, Propane)"]},{"id":26310000,"lat":44.623,"lng":5.44,"addr":"Lieu-dit Les Grangiers","city":"Luc-en-Diois","cp":"26310","fuels":{"Gazole":{"p":2.29,"d":"2026-04-28"},"SP95":{"p":2.15,"d":"2026-04-28"}},"brand":"Independent","h24":true,"services":["Carburant additivé","Automate CB 24/24"]},{"id":26700001,"lat":44.37701,"lng":4.70128,"addr":"CC LA CROIX D'OR","city":"PIERRELATTE","cp":"26700","fuels":{"Gazole":{"p":2.189,"d":"2026-04-30"},"E85":{"p":0.809,"d":"2026-04-28"},"E10":{"p":2.039,"d":"2026-04-30"},"SP98":{"p":2.149,"d":"2026-04-30"}},"brand":"Carrefour","h24":true,"services":["Station de gonflage","Lavage manuel","Vente de gaz domestique (Butane, Propane)","Automate CB 24/24","DAB (Distributeur automatique de billets)"]},{"id":26750001,"lat":45.057,"lng":5.099,"addr":"95 RUE CLAIR","city":"Saint-Paul-lès-Romans","cp":"26750","fuels":{"Gazole":{"p":2.177,"d":"2026-04-29"},"SP95":{"p":2.057,"d":"2026-04-29"},"E85":{"p":0.819,"d":"2026-04-20"},"GPLc":{"p":1.119,"d":"2026-04-20"},"E10":{"p":2.043,"d":"2026-04-29"},"SP98":{"p":2.089,"d":"2026-04-29"}},"brand":"Leclerc","h24":true,"services":["Boutique alimentaire","Boutique non alimentaire","Vente de pétrole lampant","Station de gonflage","Carburant additivé","Location de véhicule","Piste poids lourds","Lavage automatique","Vente de gaz domestique (Butane, Propane)","Bornes électriques","Automate CB 24/24","DAB (Distributeur automatique de billets)"]},{"id":26240002,"lat":45.195,"lng":4.814,"addr":"31 avenue de quebec","city":"Saint-Vallier","cp":"26240","fuels":{"Gazole":{"p":2.09,"d":"2026-05-01"},"E85":{"p":0.839,"d":"2026-05-01"},"E10":{"p":1.99,"d":"2026-05-01"},"SP98":{"p":1.99,"d":"2026-05-01"}},"brand":"TotalEnergies","h24":true,"services":["Boutique alimentaire","Boutique non alimentaire","Restauration à emporter","Station de gonflage","Carburant additivé","Location de véhicule","Piste poids lourds","Lavage automatique","Vente de gaz domestique (Butane, Propane)","Vente d'additifs carburants","Automate CB 24/24"]},{"id":26220001,"lat":44.521,"lng":5.056,"addr":"181 Route de Montélimar","city":"Dieulefit","cp":"26220","fuels":{"Gazole":{"p":2.199,"d":"2026-04-21"},"SP95":{"p":2.059,"d":"2026-04-15"},"SP98":{"p":2.169,"d":"2026-03-25"}},"brand":"Système U","h24":true,"services":["Toilettes publiques","Laverie","Relais colis","Boutique alimentaire","Boutique non alimentaire","Restauration à emporter","Vente de pétrole lampant","Station de gonflage","Carburant additivé","Aire de camping-cars","Location de véhicule","Piste poids lourds","Lavage automatique","Vente de gaz domestique (Butane, Propane)","Automate CB 24/24","DAB (Distributeur automatique de billets)"]},{"id":26150002,"lat":44.748,"lng":5.381,"addr":"135 route de gap","city":"Die","cp":"26150","fuels":{"Gazole":{"p":2.25,"d":"2026-04-27"},"SP95":{"p":2.13,"d":"2026-04-28"},"SP98":{"p":2.18,"d":"2026-04-28"}},"brand":"TotalEnergies","h24":true,"services":["Toilettes publiques","Boutique non alimentaire","Station de gonflage","Carburant additivé","Piste poids lourds","Lavage automatique","Lavage manuel","Vente de gaz domestique (Butane, Propane)","Automate CB 24/24"]},{"id":26000013,"lat":44.912,"lng":4.914,"addr":"362 rue Faventines","city":"VALENCE","cp":"26000","fuels":{"Gazole":{"p":2.172,"d":"2026-04-29"},"E85":{"p":0.819,"d":"2026-04-16"},"GPLc":{"p":1.069,"d":"2026-04-07"},"E10":{"p":1.994,"d":"2026-04-28"},"SP98":{"p":2.079,"d":"2026-04-24"}},"brand":"Intermarché","h24":true,"services":["Station de gonflage","Lavage automatique","Automate CB 24/24","DAB (Distributeur automatique de billets)"]},{"id":26400010,"lat":44.738147023824,"lng":5.0045973767269,"addr":"Zac de la Condamine - Rue Commandant Hélie Denoix de St Marc","city":"Crest","cp":"26400","fuels":{"Gazole":{"p":2.189,"d":"2026-04-30"},"E85":{"p":0.819,"d":"2026-04-15"},"E10":{"p":2.009,"d":"2026-04-28"},"SP98":{"p":2.109,"d":"2026-04-20"}},"brand":"Auchan","h24":true,"services":["Piste poids lourds","Vente de gaz domestique (Butane, Propane)","Automate CB 24/24"]},{"id":26600007,"lat":45.068632052999995,"lng":4.86562184044,"addr":"route de Romans","city":"TAIN-L'HERMITAGE","cp":"26600","fuels":{"Gazole":{"p":2.155,"d":"2026-04-30"},"E85":{"p":0.819,"d":"2026-04-16"},"E10":{"p":1.97,"d":"2026-04-30"},"SP98":{"p":2.065,"d":"2026-04-28"}},"brand":"Intermarché","h24":true,"services":["Vente de fioul domestique","Vente de gaz domestique (Butane, Propane)","Automate CB 24/24"]},{"id":26260002,"lat":45.12,"lng":4.985,"addr":"Avenue du Général de Gaulle","city":"SAINT-DONAT-SUR-L'HERBASSE","cp":"26260","fuels":{"Gazole":{"p":2.19,"d":"2026-04-28"},"E10":{"p":2.055,"d":"2026-04-28"},"SP98":{"p":2.135,"d":"2026-04-28"}},"brand":"Netto","h24":true,"services":["Boutique alimentaire","Restauration à emporter","Vente de pétrole lampant","Station de gonflage","Carburant additivé","Lavage automatique","Vente de gaz domestique (Butane, Propane)","Automate CB 24/24","DAB (Distributeur automatique de billets)"]},{"id":26250001,"lat":44.777,"lng":4.847,"addr":"113 AVENUE LEON AUBIN","city":"Livron-sur-Drôme","cp":"26250","fuels":{"Gazole":{"p":2.299,"d":"2026-04-11"},"E10":{"p":2.059,"d":"2026-04-30"},"SP98":{"p":2.159,"d":"2026-04-30"}},"brand":"Eni","h24":true,"services":["Boutique alimentaire","Boutique non alimentaire","Restauration à emporter","Restauration sur place","Bar","Station de gonflage","Carburant additivé","Piste poids lourds","Lavage automatique","Lavage manuel","Vente de gaz domestique (Butane, Propane)","Vente d'additifs carburants","Automate CB 24/24"]},{"id":26120004,"lat":44.929,"lng":5.022,"addr":"Les Champs","city":"Montélier","cp":"26120","fuels":{"Gazole":{"p":2.183,"d":"2026-04-30"},"SP95":{"p":2.065,"d":"2026-04-27"},"E85":{"p":0.818,"d":"2026-04-17"},"E10":{"p":1.994,"d":"2026-04-24"},"SP98":{"p":2.095,"d":"2026-04-27"}},"brand":"Intermarché","h24":true,"services":["Vente de fioul domestique","Lavage manuel","Vente de gaz domestique (Butane, Propane)","Automate CB 24/24","DAB (Distributeur automatique de billets)"]},{"id":26600015,"lat":45.068,"lng":4.848,"addr":"49 AVENUE DU PRESIDENT ROOSEVELT","city":"Tain-l'Hermitage","cp":"26600","fuels":{"Gazole":{"p":2.188,"d":"2026-04-29"},"E85":{"p":0.819,"d":"2026-04-29"},"E10":{"p":1.985,"d":"2026-04-29"},"SP98":{"p":2.08,"d":"2026-04-29"}},"brand":"Netto","h24":true,"services":["Vente de gaz domestique (Butane, Propane)","Automate CB 24/24"]},{"id":26300016,"lat":45.035687372843995,"lng":5.080530996007,"addr":"8 rue Marcel Battelier  Pizancon","city":"Chatuzange-le-Goubet","cp":"26300","fuels":{"Gazole":{"p":2.199,"d":"2026-04-30"},"SP95":{"p":2.099,"d":"2026-04-30"},"E85":{"p":0.859,"d":"2026-04-18"},"E10":{"p":2.059,"d":"2026-04-30"},"SP98":{"p":2.109,"d":"2026-04-30"}},"brand":"Utile","h24":true,"services":["Piste poids lourds","Vente de gaz domestique (Butane, Propane)","Automate CB 24/24"]},{"id":26100009,"lat":45.044243035506,"lng":5.0312536164688,"addr":"Avenue Louis Saillant - D532","city":"ROMANS SUR ISERE","cp":"26100","fuels":{"Gazole":{"p":2.269,"d":"2026-04-24"},"E85":{"p":0.998,"d":"2026-04-24"},"E10":{"p":1.998,"d":"2026-04-24"}},"brand":"Avia","h24":true,"services":["Automate CB 24/24"]},{"id":26270006,"lat":44.706,"lng":4.8,"addr":"AVENUE DU DAUPHINE","city":"Saulce-sur-Rhône","cp":"26270","fuels":{"Gazole":{"p":2.154,"d":"2026-04-30"},"SP95":{"p":2.059,"d":"2026-04-30"},"E85":{"p":0.819,"d":"2026-04-30"},"E10":{"p":2.015,"d":"2026-04-30"}},"brand":"Leclerc","h24":true,"services":["Boutique alimentaire","Piste poids lourds","Vente de gaz domestique (Butane, Propane)","Automate CB 24/24","DAB (Distributeur automatique de billets)"]},{"id":26120001,"lat":44.902,"lng":5.008,"addr":"ZONE DES GOUVERNAUX","city":"CHABEUIL","cp":"26120","fuels":{"Gazole":{"p":2.19,"d":"2026-04-30"},"E85":{"p":0.826,"d":"2026-04-29"},"E10":{"p":1.99,"d":"2026-04-29"},"SP98":{"p":1.99,"d":"2026-04-29"}},"brand":"TotalEnergies","h24":true,"services":["Relais colis","Boutique alimentaire","Boutique non alimentaire","Restauration à emporter","Restauration sur place","Bar","Station de gonflage","Carburant additivé","Piste poids lourds","Lavage automatique","Lavage manuel","Vente de gaz domestique (Butane, Propane)","Automate CB 24/24"]},{"id":26300013,"lat":45.007,"lng":4.928,"addr":"rond point du gymnase - quartier les peches","city":"Châteauneuf-sur-Isère","cp":"26300","fuels":{"Gazole":{"p":2.246,"d":"2026-04-24"},"E85":{"p":0.865,"d":"2026-03-24"},"E10":{"p":2.034,"d":"2026-04-24"},"SP98":{"p":2.11,"d":"2026-04-24"}},"brand":"Carrefour","h24":true,"services":["Automate CB 24/24","DAB (Distributeur automatique de billets)"]},{"id":26700002,"lat":44.403905,"lng":4.689508,"addr":"21 route de St Paul","city":"PIERRELATTE","cp":"26700","fuels":{"Gazole":{"p":2.189,"d":"2026-04-30"},"E85":{"p":0.819,"d":"2026-04-16"},"E10":{"p":1.999,"d":"2026-04-30"},"SP98":{"p":2.159,"d":"2026-04-30"}},"brand":"Intermarché"},{"id":26780007,"lat":44.519182196207,"lng":4.7453022156893,"addr":"RN 7","city":"Châteauneuf-du-Rhône","cp":"26780","fuels":{"Gazole":{"p":2.09,"d":"2026-05-01"},"E85":{"p":0.835,"d":"2026-05-01"},"GPLc":{"p":1.099,"d":"2026-05-01"},"E10":{"p":1.99,"d":"2026-05-01"},"SP98":{"p":1.99,"d":"2026-05-01"}},"brand":"TotalEnergies","services":["Toilettes publiques","Douches","Boutique alimentaire","Boutique non alimentaire","Restauration à emporter","Restauration sur place","Bar","Station de gonflage","Carburant additivé","Piste poids lourds","Vente de gaz domestique (Butane, Propane)","DAB (Distributeur automatique de billets)"]},{"id":26740003,"lat":44.667,"lng":4.793,"addr":"RN 7","city":"LES TOURRETTES","cp":"26740","fuels":{"Gazole":{"p":2.09,"d":"2026-05-01"},"E10":{"p":1.99,"d":"2026-05-01"},"SP98":{"p":1.99,"d":"2026-05-01"}},"brand":"TotalEnergies","services":["Boutique alimentaire","Boutique non alimentaire","Station de gonflage","Piste poids lourds","Vente de gaz domestique (Butane, Propane)","Wifi"]},{"id":26000005,"lat":44.907,"lng":4.886,"addr":"114 Avenue de la Libération","city":"VALENCE","cp":"26000","fuels":{"Gazole":{"p":2.25,"d":"2026-04-30"},"SP95":{"p":1.99,"d":"2026-04-30"}},"brand":"TotalEnergies","services":["Toilettes publiques","Relais colis","Boutique alimentaire","Boutique non alimentaire","Restauration à emporter","Station de gonflage","Carburant additivé","Services réparation / entretien","Vente de gaz domestique (Butane, Propane)","Vente d'additifs carburants"]},{"id":26140004,"lat":45.287,"lng":4.815,"addr":"ZA LA TULANDIERE 26 route de la Maison Blanche","city":"Saint-Rambert-d'Albon","cp":"26140","fuels":{"Gazole":{"p":2.158,"d":"2026-04-30"},"E85":{"p":0.819,"d":"2026-04-30"},"E10":{"p":2.004,"d":"2026-04-30"},"SP98":{"p":2.067,"d":"2026-04-30"}},"brand":"Leclerc","h24":true,"services":["Piste poids lourds","Automate CB 24/24"]},{"id":26800009,"lat":44.875,"lng":4.879,"addr":"PLACE DU 8 MAI 1945","city":"PORTES LES VALENCES","cp":"26800","fuels":{"Gazole":{"p":2.179,"d":"2026-04-30"},"SP95":{"p":1.994,"d":"2026-04-30"},"E85":{"p":0.819,"d":"2026-04-30"}},"brand":"Auchan","h24":true,"services":["Boutique alimentaire","Boutique non alimentaire","Station de gonflage","Vente de gaz domestique (Butane, Propane)","Wifi","Automate CB 24/24"]},{"id":26300003,"lat":45.037,"lng":5.07,"addr":"1005 AV. CHARLES DE GAULLE","city":"Chatuzange-le-Goubet","cp":"26300","fuels":{"Gazole":{"p":2.09,"d":"2026-05-01"},"E10":{"p":1.99,"d":"2026-05-01"}},"brand":"Total Contact","h24":true,"services":["Laverie","Boutique alimentaire","Boutique non alimentaire","Station de gonflage","Carburant additivé","Piste poids lourds","Lavage automatique","Lavage manuel","Vente d'additifs carburants","Automate CB 24/24"]},{"id":26600014,"lat":45.008,"lng":4.87,"addr":"RN7","city":"Pont-de-l'Isère","cp":"26600","fuels":{"Gazole":{"p":2.09,"d":"2026-05-01"},"E85":{"p":0.831,"d":"2026-05-01"}},"brand":"TotalEnergies","services":["Boutique alimentaire","Boutique non alimentaire","Station de gonflage","Carburant additivé","Piste poids lourds","Vente de gaz domestique (Butane, Propane)","Vente d'additifs carburants","Wifi"]},{"id":26170002,"lat":44.271,"lng":5.267,"addr":"245 AVENUE DU GENERAL DE GAULLE","city":"BUIS-LES-BARONNIES","cp":"26170","fuels":{"Gazole":{"p":2.269,"d":"2026-04-28"},"E10":{"p":2.079,"d":"2026-04-17"},"SP98":{"p":2.179,"d":"2026-04-17"}},"brand":"Avia","h24":true,"services":["Toilettes publiques","Boutique non alimentaire","Vente de fioul domestique","Station de gonflage","Services réparation / entretien","Vente de gaz domestique (Butane, Propane)","Vente d'additifs carburants","Automate CB 24/24","DAB (Distributeur automatique de billets)"]},{"id":26000014,"lat":44.919,"lng":4.878,"addr":"162 AVENUE DE PROVENCE","city":"VALENCE","cp":"26000","fuels":{"E85":{"p":0.829,"d":"2026-05-01"},"GPLc":{"p":1.069,"d":"2026-05-01"},"E10":{"p":1.99,"d":"2026-05-01"}},"brand":"TotalEnergies","services":["Boutique alimentaire","Station de gonflage","Carburant additivé","Piste poids lourds","Lavage automatique","Vente de gaz domestique (Butane, Propane)","DAB (Distributeur automatique de billets)"]},{"id":26780008,"lat":44.516,"lng":4.78,"addr":"A 7 - AIRE DE MONTELIMAR OUEST","city":"ALLAN","cp":"26780","fuels":{"Gazole":{"p":2.577,"d":"2026-05-01"},"GPLc":{"p":1.132,"d":"2026-05-01"},"E10":{"p":2.506,"d":"2026-05-01"},"SP98":{"p":2.656,"d":"2026-05-01"}},"brand":"Shell","h24":true,"services":["Toilettes publiques","Douches","Boutique alimentaire","Boutique non alimentaire","Station de gonflage","Carburant additivé","Piste poids lourds","Espace bébé","Bornes électriques","Vente d'additifs carburants","Wifi","Automate CB 24/24","DAB (Distributeur automatique de billets)"]},{"id":26150001,"lat":44.761,"lng":5.357,"addr":"84 AVENUE DE LA RÉSISTANCE","city":"Die","cp":"26150","fuels":{"Gazole":{"p":2.211,"d":"2026-04-27"},"SP95":{"p":2.051,"d":"2026-04-17"},"E85":{"p":0.819,"d":"2026-04-27"},"E10":{"p":1.991,"d":"2026-04-17"},"SP98":{"p":2.161,"d":"2026-04-17"}},"brand":"Intermarché","h24":true,"services":["Station de gonflage","Automate CB 24/24"]},{"id":26330001,"lat":45.229281706181,"lng":4.9599148298532,"addr":"ZA les Airs","city":"Châteauneuf-de-Galaure","cp":"26330","fuels":{"Gazole":{"p":2.19,"d":"2026-04-30"},"E10":{"p":2.055,"d":"2026-04-30"}},"h24":true,"services":["Boutique non alimentaire","Piste poids lourds","Automate CB 24/24"]},{"id":26420001,"lat":45.02389599999999,"lng":5.443455999999999,"addr":"225 Rte de St Julien en Vercors","city":"Saint-Martin-en-Vercors","cp":"26420","fuels":{"Gazole":{"p":2.175,"d":"2026-04-29"},"SP95":{"p":2.05,"d":"2026-04-29"}},"h24":true,"services":["Automate CB 24/24"]},{"id":26740004,"lat":44.548,"lng":4.802,"addr":"410 ROUTE DE MONTELIMAR","city":"MONTBOUCHER SUR JABRON","cp":"26740","fuels":{"Gazole":{"p":2.249,"d":"2026-04-17"},"E85":{"p":0.859,"d":"2026-03-16"},"E10":{"p":2.059,"d":"2026-04-30"},"SP98":{"p":2.159,"d":"2026-04-30"}},"brand":"Eni","h24":true,"services":["Carburant additivé","Piste poids lourds","Automate CB 24/24"]},{"id":26400011,"lat":44.73185032370699,"lng":5.0015444516272,"addr":"7 Rue Henri Barbusse","city":"Crest","cp":"26400","fuels":{"Gazole":{"p":2.213,"d":"2026-04-24"},"E10":{"p":1.999,"d":"2026-04-24"}},"h24":true,"services":["Piste poids lourds","Automate CB 24/24"]},{"id":26600016,"lat":45.068,"lng":4.845,"addr":"20 AVENUE PRESIDENT ROOSEVELT","city":"TAIN L'HERMITAGE","cp":"26600","fuels":{"Gazole":{"p":2.269,"d":"2026-04-24"},"SP95":{"p":2.039,"d":"2026-04-24"},"SP98":{"p":2.099,"d":"2026-04-24"}},"h24":true,"services":["Relais colis","Boutique alimentaire","Boutique non alimentaire","Station de gonflage","Carburant additivé","Lavage automatique","Vente de gaz domestique (Butane, Propane)","Automate CB 24/24"]},{"id":26290012,"lat":44.455,"lng":4.713,"addr":"ROUTE DE MARSEILLE","city":"CHATEAUNEUF DU RHONE","cp":"26780","fuels":{"E85":{"p":0.835,"d":"2026-04-27"},"E10":{"p":1.984,"d":"2026-04-27"},"SP98":{"p":1.99,"d":"2026-04-27"}},"services":["Boutique alimentaire","Boutique non alimentaire","Station de gonflage","Piste poids lourds","Lavage automatique","Vente de gaz domestique (Butane, Propane)","Wifi"]},{"id":26200009,"lat":44.575,"lng":4.744,"addr":"ZA Avenue du Meyrol","city":"Montélimar","cp":"26200","fuels":{"Gazole":{"p":2.259,"d":"2026-04-24"},"E10":{"p":2.019,"d":"2026-04-24"},"SP98":{"p":2.099,"d":"2026-04-24"}},"brand":"Avia","h24":true,"services":["Toilettes publiques","Douches","Laverie","Relais colis","Boutique alimentaire","Boutique non alimentaire","Bar","Station de gonflage","Piste poids lourds","Lavage automatique","Lavage manuel","Vente de gaz domestique (Butane, Propane)","Bornes électriques","Automate CB 24/24"]}]