[{"id":34150003,"lat":43.651,"lng":3.547,"addr":"Route de Pézenas","city":"GIGNAC","cp":"34150","fuels":{"Gazole":{"p":2.157,"d":"2026-04-30"},"E85":{"p":0.819,"d":"2026-04-16"},"E10":{"p":1.977,"d":"2026-04-30"},"SP98":{"p":2.082,"d":"2026-04-30"}},"brand":"Intermarché","h24":true,"services":["Boutique alimentaire","Bar","Station de gonflage","Location de véhicule","Piste poids lourds","Lavage automatique","Lavage manuel","Vente de gaz domestique (Butane, Propane)","Automate CB 24/24","DAB (Distributeur automatique de billets)"]},{"id":34670001,"lat":43.655,"lng":3.996,"addr":"103 Avenue de la Biste","city":"BAILLARGUES","cp":"34670","fuels":{"Gazole":{"p":2.229,"d":"2026-04-24"},"E10":{"p":2.059,"d":"2026-04-28"},"SP98":{"p":2.179,"d":"2026-04-28"}},"brand":"AS 24","services":["Laverie","Station de gonflage","Piste poids lourds","Vente de gaz domestique (Butane, Propane)","DAB (Distributeur automatique de billets)"]},{"id":34420003,"lat":43.322,"lng":3.291,"addr":"ZAE Pôle Méditerranée","city":"Villeneuve-lès-Béziers","cp":"34420","fuels":{"Gazole":{"p":2.167,"d":"2026-04-30"},"SP95":{"p":2.019,"d":"2026-04-30"},"SP98":{"p":2.109,"d":"2026-04-30"}},"brand":"Carrefour","h24":true,"services":["Laverie","Relais colis","Boutique alimentaire","Restauration à emporter","Restauration sur place","Vente de pétrole lampant","Lavage automatique","Vente de gaz domestique (Butane, Propane)","Automate CB 24/24","DAB (Distributeur automatique de billets)"]},{"id":34170001,"lat":43.623,"lng":3.898,"addr":"753 Route de la Pompignane","city":"CASTELNAU-LE-LEZ","cp":"34170","fuels":{"Gazole":{"p":2.227,"d":"2026-04-30"},"E85":{"p":0.859,"d":"2026-04-30"},"E10":{"p":2.094,"d":"2026-04-30"},"SP98":{"p":2.174,"d":"2026-04-30"}},"brand":"Station U","h24":true,"services":["Boutique alimentaire","Station de gonflage","Location de véhicule","Piste poids lourds","Vente de gaz domestique (Butane, Propane)","Automate CB 24/24","DAB (Distributeur automatique de billets)"]},{"id":34620002,"lat":43.367,"lng":3.049,"addr":"43 avenue de béziers","city":"Puisserguier","cp":"34620","fuels":{"Gazole":{"p":2.294,"d":"2026-05-01"},"SP95":{"p":2.106,"d":"2026-03-20"},"E85":{"p":0.915,"d":"2026-05-01"},"SP98":{"p":2.164,"d":"2026-03-20"}},"brand":"Dyneff","h24":true,"services":["Vente de fioul domestique","Station de gonflage","Piste poids lourds","Vente de gaz domestique (Butane, Propane)","Automate CB 24/24"]},{"id":34360002,"lat":43.422409575399996,"lng":2.93681726025,"addr":"420, avenue de Saint Pons","city":"SAINT-CHINIAN","cp":"34360","fuels":{"Gazole":{"p":2.199,"d":"2026-04-29"},"E10":{"p":2.049,"d":"2026-04-29"}},"brand":"Intermarché","services":["Station de gonflage","Piste poids lourds","Lavage automatique","Vente de gaz domestique (Butane, Propane)","DAB (Distributeur automatique de billets)"]},{"id":34690009,"lat":43.548175937549,"lng":3.7956014943175,"addr":"A9 - AIRE DE FABREGUES NORD","city":"FABREGUES","cp":"34690","fuels":{"Gazole":{"p":2.09,"d":"2026-05-01"},"E85":{"p":0.999,"d":"2026-05-01"},"GPLc":{"p":1.149,"d":"2026-05-01"},"E10":{"p":1.99,"d":"2026-05-01"},"SP98":{"p":1.99,"d":"2026-05-01"}},"brand":"TotalEnergies"},{"id":34110002,"lat":43.449,"lng":3.753,"addr":"27 avenue du marechal juin","city":"FRONTIGNAN","cp":"34110","fuels":{"Gazole":{"p":2.299,"d":"2026-04-30"},"SP95":{"p":2.059,"d":"2026-04-30"},"SP98":{"p":2.109,"d":"2026-04-30"}},"brand":"Avia","h24":true,"services":["Laverie","Piste poids lourds","Lavage automatique","Lavage manuel","Automate CB 24/24"]},{"id":34920001,"lat":43.659613186824,"lng":3.9361696295143,"addr":"Route de Jacou","city":"LE CRèS","cp":"34920","fuels":{"Gazole":{"p":2.185,"d":"2026-04-30"},"SP95":{"p":2.065,"d":"2026-04-30"},"E85":{"p":0.84,"d":"2026-04-30"},"SP98":{"p":2.155,"d":"2026-04-30"}},"brand":"Carrefour","services":["Boutique alimentaire","Restauration à emporter","Station de gonflage","Location de véhicule","Piste poids lourds","Lavage automatique","Vente de gaz domestique (Butane, Propane)","DAB (Distributeur automatique de billets)"]},{"id":34000017,"lat":43.578845,"lng":3.8767620000000003,"addr":"ZAC DE TOURNEZY","city":"Montpellier","cp":"34000","fuels":{"Gazole":{"p":2.259,"d":"2026-05-01"},"GPLc":{"p":1.099,"d":"2026-05-01"},"E10":{"p":2.129,"d":"2026-05-01"},"SP98":{"p":2.229,"d":"2026-05-01"}},"brand":"Agip","h24":true,"services":["Toilettes publiques","Boutique alimentaire","Station de gonflage","Carburant additivé","Piste poids lourds","Vente de gaz domestique (Butane, Propane)","Automate CB 24/24"]},{"id":34540002,"lat":43.439,"lng":3.7,"addr":"Route de Sète","city":"Balaruc-les-Bains","cp":"34540","fuels":{"Gazole":{"p":2.209,"d":"2026-04-30"},"E10":{"p":1.99,"d":"2026-04-25"},"SP98":{"p":1.99,"d":"2026-04-25"}},"brand":"TotalEnergies","services":["Carburant additivé","Piste poids lourds","Lavage automatique","Services réparation / entretien","Vente de gaz domestique (Butane, Propane)"]},{"id":34410009,"lat":43.29988743551,"lng":3.2484989992494997,"addr":"2 ROUTE DE BEZIERS","city":"sauvian","cp":"34410","fuels":{"Gazole":{"p":2.176,"d":"2026-04-25"},"E10":{"p":1.998,"d":"2026-04-22"}},"h24":true,"services":["Laverie","Station de gonflage","Lavage automatique","Vente de gaz domestique (Butane, Propane)","Automate CB 24/24"]},{"id":34500025,"lat":43.35448,"lng":3.22184,"addr":"152 AV.MARECHAL FOCH ROUTE DE BE","city":"BEZIERS","cp":"34500","fuels":{"Gazole":{"p":2.09,"d":"2026-05-01"},"E85":{"p":0.849,"d":"2026-05-01"},"E10":{"p":1.99,"d":"2026-05-01"},"SP98":{"p":1.99,"d":"2026-05-01"}},"brand":"TotalEnergies","services":["Toilettes publiques","Boutique alimentaire","Boutique non alimentaire","Station de gonflage","Carburant additivé","Lavage automatique","Vente de gaz domestique (Butane, Propane)","DAB (Distributeur automatique de billets)"]},{"id":34500032,"lat":43.358321,"lng":3.243799,"addr":"ROUTE DE PEZENAS","city":"Béziers","cp":"34500","fuels":{"Gazole":{"p":2.329,"d":"2026-04-30"},"E10":{"p":2.129,"d":"2026-04-30"},"SP98":{"p":2.229,"d":"2026-04-30"}},"brand":"Eni","services":["Toilettes publiques","Boutique alimentaire","Station de gonflage","Carburant additivé","Piste poids lourds","Vente de gaz domestique (Butane, Propane)"]},{"id":34190002,"lat":43.92689,"lng":3.721,"addr":"ROUTE DE MONTPELLIER","city":"LAROQUE","cp":"34190","fuels":{"Gazole":{"p":2.153,"d":"2026-04-30"},"SP95":{"p":2.03,"d":"2026-04-20"},"E10":{"p":2.023,"d":"2026-04-30"},"SP98":{"p":2.097,"d":"2026-04-29"}},"brand":"Intermarché","h24":true,"services":["Toilettes publiques","Laverie","Relais colis","Station de gonflage","Piste poids lourds","Lavage automatique","Vente de gaz domestique (Butane, Propane)","Bornes électriques","Automate CB 24/24","DAB (Distributeur automatique de billets)"]},{"id":34220002,"lat":43.488,"lng":2.764,"addr":"12 Avenue de la gare","city":"Saint-Pons-de-Thomières","cp":"34220","fuels":{"Gazole":{"p":2.24,"d":"2026-04-30"},"SP95":{"p":2.08,"d":"2026-04-30"},"E85":{"p":0.85,"d":"2026-04-14"}},"brand":"Gallien","services":["Boutique alimentaire","Restauration à emporter","Restauration sur place","Station de gonflage","Carburant additivé","Piste poids lourds","DAB (Distributeur automatique de billets)"]},{"id":34990001,"lat":43.614,"lng":3.809,"addr":"Route de Saint Georges d'Orques","city":"JUVIGNAC","cp":"34990","fuels":{"Gazole":{"p":2.229,"d":"2026-04-30"},"E85":{"p":0.819,"d":"2026-04-16"},"GPLc":{"p":1.085,"d":"2026-04-13"},"E10":{"p":2.059,"d":"2026-04-30"},"SP98":{"p":2.179,"d":"2026-04-30"}},"brand":"Intermarché","h24":true,"services":["Toilettes publiques","Laverie","Boutique alimentaire","Restauration à emporter","Restauration sur place","Bar","Station de gonflage","Location de véhicule","Piste poids lourds","Lavage automatique","Services réparation / entretien","Vente de gaz domestique (Butane, Propane)","Bornes électriques","Automate CB 24/24","DAB (Distributeur automatique de billets)"]},{"id":34320003,"lat":43.501,"lng":3.32,"addr":"AVENUE DE PEZENAS","city":"ROUJAN","cp":"34320","fuels":{"Gazole":{"p":2.195,"d":"2026-04-29"},"E85":{"p":0.799,"d":"2026-04-27"},"E10":{"p":2.049,"d":"2026-04-29"},"SP98":{"p":2.085,"d":"2026-04-24"}},"brand":"Système U","h24":true,"services":["Laverie","Relais colis","Boutique alimentaire","Station de gonflage","Aire de camping-cars","Location de véhicule","Piste poids lourds","Lavage automatique","Lavage manuel","Vente de gaz domestique (Butane, Propane)","Wifi","Automate CB 24/24","DAB (Distributeur automatique de billets)"]},{"id":34120008,"lat":43.464,"lng":3.427,"addr":"28 Faubourg des cordeliers, route de Montpellier","city":"Pézenas","cp":"34120","fuels":{"Gazole":{"p":2.249,"d":"2026-04-30"},"E10":{"p":2.079,"d":"2026-04-30"},"SP98":{"p":2.209,"d":"2026-04-30"}},"brand":"Esso","h24":true,"services":["Relais colis","Boutique alimentaire","Boutique non alimentaire","Station de gonflage","Piste poids lourds","Lavage automatique","Services réparation / entretien","Vente de gaz domestique (Butane, Propane)","Automate CB 24/24"]},{"id":34140006,"lat":43.448,"lng":3.643,"addr":"180 chemin des esparrieres","city":"BOUZIGUES","cp":"34140","fuels":{"Gazole":{"p":2.299,"d":"2026-05-01"},"GPLc":{"p":1.089,"d":"2026-04-15"},"E10":{"p":2.099,"d":"2026-04-15"},"SP98":{"p":2.199,"d":"2026-04-15"}},"brand":"Avia","h24":true,"services":["Relais colis","Boutique alimentaire","Boutique non alimentaire","Restauration à emporter","Restauration sur place","Vente de fioul domestique","Station de gonflage","Piste poids lourds","Services réparation / entretien","Vente de gaz domestique (Butane, Propane)","Vente d'additifs carburants","Automate CB 24/24","DAB (Distributeur automatique de billets)"]},{"id":34500033,"lat":43.355531129999996,"lng":3.239479914,"addr":"ROUTE DE PEZENAS","city":"BEZIERS","cp":"34500","fuels":{"Gazole":{"p":2.168,"d":"2026-04-30"},"E10":{"p":2.038,"d":"2026-04-30"},"SP98":{"p":2.048,"d":"2026-04-24"}},"brand":"Auchan","services":["Station de gonflage","Vente de gaz domestique (Butane, Propane)"]},{"id":34200003,"lat":43.414,"lng":3.716,"addr":"1356 avenue Gilbert Martelli","city":"SèTE","cp":"34200","fuels":{"Gazole":{"p":2.279,"d":"2026-04-30"},"E85":{"p":0.849,"d":"2026-04-30"},"GPLc":{"p":1.095,"d":"2026-04-30"},"E10":{"p":2.079,"d":"2026-04-30"},"SP98":{"p":2.199,"d":"2026-04-30"}},"brand":"Dyneff","services":["Toilettes publiques","Boutique alimentaire","Boutique non alimentaire","Vente de fioul domestique","Vente de pétrole lampant","Station de gonflage","Piste poids lourds","Lavage automatique","Vente de gaz domestique (Butane, Propane)","DAB (Distributeur automatique de billets)"]},{"id":34370001,"lat":43.387,"lng":3.11,"addr":"ROUTE DE BEZIERS","city":"CAZOULS-LèS-BéZIERS","cp":"34370","fuels":{"Gazole":{"p":2.192,"d":"2026-04-28"},"SP95":{"p":2.07,"d":"2026-04-28"},"E85":{"p":0.82,"d":"2026-04-28"},"E10":{"p":2.024,"d":"2026-04-28"}},"brand":"Carrefour","h24":true,"services":["Station de gonflage","Piste poids lourds","Vente de gaz domestique (Butane, Propane)","Automate CB 24/24","DAB (Distributeur automatique de billets)"]},{"id":34250003,"lat":43.529,"lng":3.931,"addr":"PONT DES 4 CANAUX - RD 986","city":"Palavas-les-Flots","cp":"34250","fuels":{"Gazole":{"p":2.09,"d":"2026-05-01"},"E10":{"p":1.99,"d":"2026-05-01"}},"brand":"TotalEnergies","h24":true,"services":["Boutique alimentaire","Boutique non alimentaire","Restauration à emporter","Station de gonflage","Carburant additivé","Piste poids lourds","Lavage automatique","Vente de gaz domestique (Butane, Propane)","Wifi","Automate CB 24/24"]},{"id":34520002,"lat":43.86449,"lng":3.31188,"addr":"AUTOROUTE A75 - AIRE DU CAYLAR","city":"LE CAYLAR","cp":"34520","fuels":{"Gazole":{"p":2.09,"d":"2026-05-01"},"E85":{"p":0.999,"d":"2026-05-01"},"GPLc":{"p":1.129,"d":"2026-05-01"},"E10":{"p":1.99,"d":"2026-05-01"},"SP98":{"p":1.99,"d":"2026-05-01"}},"brand":"TotalEnergies"},{"id":34400016,"lat":43.716,"lng":4.134,"addr":"A9, AIRE AMBRUSSUM NORD (direction Nimes Montpellier)","city":"villetelle","cp":"34400","fuels":{"Gazole":{"p":2.322,"d":"2026-05-01"},"E85":{"p":0.999,"d":"2026-05-01"},"GPLc":{"p":1.206,"d":"2026-05-01"},"E10":{"p":2.236,"d":"2026-05-01"},"SP98":{"p":2.312,"d":"2026-05-01"}},"brand":"Esso","h24":true,"services":["Toilettes publiques","Douches","Boutique alimentaire","Boutique non alimentaire","Restauration à emporter","Restauration sur place","Station de gonflage","Carburant additivé","Aire de camping-cars","Piste poids lourds","Espace bébé","Bornes électriques","Wifi","Automate CB 24/24","DAB (Distributeur automatique de billets)"]},{"id":34070004,"lat":43.592,"lng":3.867,"addr":"Avenue Villeneuve d'Angoulême","city":"MONTPELLIER","cp":"34070","fuels":{"Gazole":{"p":2.249,"d":"2026-04-27"},"E10":{"p":2.033,"d":"2026-04-27"},"SP98":{"p":2.171,"d":"2026-04-27"}},"brand":"Auchan","h24":true,"services":["Relais colis","Automate CB 24/24","DAB (Distributeur automatique de billets)"]},{"id":34250002,"lat":43.535,"lng":3.911,"addr":"LES 4 CANAUX","city":"PALAVAS-LES-FLOTS","cp":"34250","fuels":{"Gazole":{"p":2.289,"d":"2026-04-25"},"SP95":{"p":2.129,"d":"2026-04-25"},"E10":{"p":2.009,"d":"2026-04-25"},"SP98":{"p":2.129,"d":"2026-04-25"}},"brand":"Carrefour","h24":true,"services":["Laverie","Boutique alimentaire","Boutique non alimentaire","Station de gonflage","Location de véhicule","Vente de gaz domestique (Butane, Propane)","Automate CB 24/24","DAB (Distributeur automatique de billets)"]},{"id":34070012,"lat":43.595,"lng":3.868,"addr":"AVENUE VILLENEUVE D'ANGOULEME","city":"MONTPELLIER","cp":"34070","fuels":{"Gazole":{"p":2.29,"d":"2026-04-24"},"SP95":{"p":2.169,"d":"2026-04-24"},"E85":{"p":0.999,"d":"2026-04-07"},"SP98":{"p":2.199,"d":"2026-04-24"}},"brand":"Dyneff","h24":true,"services":["Station de gonflage","Automate CB 24/24"]},{"id":34725001,"lat":43.65075,"lng":3.50952,"addr":"Avenue de Montpellier","city":"SAINT-ANDRé-DE-SANGONIS","cp":"34725","fuels":{"Gazole":{"p":2.199,"d":"2026-04-27"},"E10":{"p":2.029,"d":"2026-04-27"},"SP98":{"p":2.169,"d":"2026-04-27"}},"brand":"Esso","services":["Boutique alimentaire","Boutique non alimentaire","Station de gonflage","Vente de gaz domestique (Butane, Propane)","DAB (Distributeur automatique de billets)"]},{"id":34550002,"lat":43.372,"lng":3.422,"addr":"Route St Thibéry","city":"BESSAN","cp":"34550","fuels":{"Gazole":{"p":2.229,"d":"2026-04-29"},"E85":{"p":0.818,"d":"2026-04-17"},"GPLc":{"p":1.069,"d":"2026-04-08"},"E10":{"p":1.999,"d":"2026-04-14"},"SP98":{"p":2.189,"d":"2026-04-08"}},"brand":"Intermarché","h24":true,"services":["Boutique alimentaire","Station de gonflage","Carburant additivé","Location de véhicule","Piste poids lourds","Lavage automatique","Lavage manuel","Vente de gaz domestique (Butane, Propane)","Automate CB 24/24","DAB (Distributeur automatique de billets)"]},{"id":34700002,"lat":43.72279323,"lng":3.32299427,"addr":"ROUTE DE MONTPELLIER","city":"LODèVE","cp":"34700","fuels":{"Gazole":{"p":2.174,"d":"2026-04-30"},"E85":{"p":0.859,"d":"2026-04-30"},"E10":{"p":2.025,"d":"2026-04-30"},"SP98":{"p":2.109,"d":"2026-04-30"}},"brand":"Avia","services":["Toilettes publiques","Boutique non alimentaire","Vente de fioul domestique","Vente de pétrole lampant","Station de gonflage","Lavage automatique","Lavage manuel","Vente de gaz domestique (Butane, Propane)","DAB (Distributeur automatique de billets)"]},{"id":34570002,"lat":43.6427954,"lng":3.69559828,"addr":"Zac du Pradas","city":"Montarnaud","cp":"34570","fuels":{"Gazole":{"p":2.192,"d":"2026-04-30"},"E85":{"p":0.819,"d":"2026-04-23"},"E10":{"p":2.06,"d":"2026-04-30"},"SP98":{"p":2.139,"d":"2026-04-30"}},"brand":"Système U"},{"id":34460001,"lat":43.44814,"lng":3.05598,"addr":"55 Avenue de Béziers","city":"CESSENON-SUR-ORB","cp":"34460","fuels":{"Gazole":{"p":2.26,"d":"2026-04-23"},"E10":{"p":2.01,"d":"2026-04-23"},"SP98":{"p":2.11,"d":"2026-04-23"}},"brand":"Dyneff","services":["Toilettes publiques","Boutique alimentaire","Station de gonflage","Vente de gaz domestique (Butane, Propane)","DAB (Distributeur automatique de billets)"]},{"id":34973001,"lat":43.58112502463099,"lng":3.9310174668007,"addr":"ROUTE DE CARNON - Av. Georges Frêche - CS61015","city":"LATTES","cp":"34970","fuels":{"Gazole":{"p":2.164,"d":"2026-04-29"},"SP95":{"p":2.052,"d":"2026-04-29"},"E10":{"p":2.006,"d":"2026-04-29"},"SP98":{"p":2.139,"d":"2026-04-29"}},"brand":"Carrefour","h24":true,"services":["Vente de gaz domestique (Butane, Propane)","Automate CB 24/24","DAB (Distributeur automatique de billets)"]},{"id":34200002,"lat":43.40612,"lng":3.70318,"addr":"332 Avenue du Maréchal Juin","city":"Sète","cp":"34200","fuels":{"Gazole":{"p":2.199,"d":"2026-04-30"},"E85":{"p":0.859,"d":"2026-04-10"},"E10":{"p":1.999,"d":"2026-04-27"},"SP98":{"p":2.199,"d":"2026-04-10"}},"brand":"Carrefour","h24":true,"services":["Vente de gaz domestique (Butane, Propane)","Automate CB 24/24"]},{"id":34120002,"lat":43.452029065111994,"lng":3.4178689993915,"addr":"38 Avenue de Verdun","city":"PéZENAS","cp":"34120","fuels":{"Gazole":{"p":2.247,"d":"2026-04-29"},"E10":{"p":1.99,"d":"2026-04-29"},"SP98":{"p":1.99,"d":"2026-04-29"}},"brand":"TotalEnergies","services":["Toilettes publiques","Boutique alimentaire","Boutique non alimentaire","Vente de fioul domestique","Station de gonflage","Carburant additivé","Piste poids lourds","Lavage automatique","Lavage manuel","Services réparation / entretien","Vente de gaz domestique (Butane, Propane)","DAB (Distributeur automatique de billets)"]},{"id":34800002,"lat":43.632,"lng":3.44,"addr":"9 RN 9","city":"CLERMONT-L'HéRAULT","cp":"34800","fuels":{"Gazole":{"p":2.279,"d":"2026-04-20"},"SP95":{"p":2.099,"d":"2026-04-20"},"E10":{"p":2.079,"d":"2026-04-20"}},"h24":true,"services":["Station de gonflage","Carburant additivé","Location de véhicule","Piste poids lourds","Vente d'additifs carburants","Automate CB 24/24"]},{"id":34590001,"lat":43.662,"lng":4.178,"addr":"10 rue Alphonse Daudet","city":"MARSILLARGUES","cp":"34590","fuels":{"Gazole":{"p":2.179,"d":"2026-04-30"},"E10":{"p":2.079,"d":"2026-04-30"},"SP98":{"p":2.139,"d":"2026-04-30"}},"brand":"Système U","h24":true,"services":["Relais colis","Boutique alimentaire","Boutique non alimentaire","Station de gonflage","Vente de gaz domestique (Butane, Propane)","Automate CB 24/24"]},{"id":34570001,"lat":43.58474,"lng":3.77903,"addr":"AVENUE GENERAL GROLLIER","city":"Pignan","cp":"34570","fuels":{"Gazole":{"p":2.25,"d":"2026-04-30"},"E10":{"p":1.99,"d":"2026-04-30"},"SP98":{"p":1.99,"d":"2026-04-30"}},"brand":"TotalEnergies","services":["Toilettes publiques","Boutique non alimentaire","Station de gonflage","Carburant additivé","Location de véhicule","Piste poids lourds","Lavage automatique","Lavage manuel","DAB (Distributeur automatique de billets)"]},{"id":34450002,"lat":43.312,"lng":3.419,"addr":"LIEUDIT LE GRANEVAS","city":"VIAS","cp":"34450","fuels":{"Gazole":{"p":2.249,"d":"2026-04-20"},"E85":{"p":0.818,"d":"2026-04-22"},"E10":{"p":1.999,"d":"2026-04-15"},"SP98":{"p":2.099,"d":"2026-04-15"}},"brand":"Intermarché","services":["Boutique alimentaire","Location de véhicule","DAB (Distributeur automatique de billets)"]},{"id":34810001,"lat":43.391,"lng":3.489,"addr":"2 CHEMIN DU PORTOU","city":"Pomérols","cp":"34810","fuels":{"Gazole":{"p":2.195,"d":"2026-04-25"},"E10":{"p":2.039,"d":"2026-04-24"},"SP98":{"p":2.139,"d":"2026-04-24"}},"brand":"Système U","services":["Laverie","Relais colis","Boutique alimentaire","Boutique non alimentaire","Piste poids lourds","Vente de gaz domestique (Butane, Propane)","Wifi","DAB (Distributeur automatique de billets)"]},{"id":34490001,"lat":43.421,"lng":3.161,"addr":"Rue de la Carrièrasse","city":"Thézan-lès-Béziers","cp":"34490","fuels":{"Gazole":{"p":2.222,"d":"2026-04-29"},"E85":{"p":0.796,"d":"2026-04-29"},"E10":{"p":2.069,"d":"2026-04-29"},"SP98":{"p":2.169,"d":"2026-04-29"}},"brand":"Système U","h24":true,"services":["Relais colis","Boutique alimentaire","Boutique non alimentaire","Restauration à emporter","Restauration sur place","Bar","Station de gonflage","Location de véhicule","Piste poids lourds","Lavage automatique","Lavage manuel","Vente de gaz domestique (Butane, Propane)","Bornes électriques","Vente d'additifs carburants","Wifi","Automate CB 24/24","DAB (Distributeur automatique de billets)"]},{"id":34070002,"lat":43.571,"lng":3.942,"addr":"CS 50003","city":"PEROLS","cp":"34475","fuels":{"Gazole":{"p":2.164,"d":"2026-04-30"},"E10":{"p":2.006,"d":"2026-04-30"},"SP98":{"p":2.139,"d":"2026-04-30"}},"brand":"Auchan","h24":true,"services":["Station de gonflage","Vente de gaz domestique (Butane, Propane)","Automate CB 24/24","DAB (Distributeur automatique de billets)"]},{"id":34380002,"lat":43.783,"lng":3.737,"addr":"ZA de la Liquière","city":"Saint-Martin-de-Londres","cp":"34380","fuels":{"Gazole":{"p":2.191,"d":"2026-04-30"},"E85":{"p":0.847,"d":"2026-04-30"},"E10":{"p":2.039,"d":"2026-04-30"},"SP98":{"p":2.148,"d":"2026-04-30"}},"brand":"Spar","h24":true,"services":["Boutique alimentaire","Restauration à emporter","Automate CB 24/24"]},{"id":34440001,"lat":43.312,"lng":3.141,"addr":"RN113-9 Lieu dit La Grillade","city":"COLOMBIERS","cp":"34440","fuels":{"Gazole":{"p":2.289,"d":"2026-04-30"},"E85":{"p":0.819,"d":"2026-04-30"},"GPLc":{"p":1.095,"d":"2026-04-30"},"E10":{"p":2.089,"d":"2026-04-30"},"SP98":{"p":2.219,"d":"2026-04-30"}},"brand":"Dyneff","h24":true,"services":["Toilettes publiques","Boutique alimentaire","Boutique non alimentaire","Vente de fioul domestique","Vente de pétrole lampant","Station de gonflage","Piste poids lourds","Lavage automatique","Vente de gaz domestique (Butane, Propane)","Automate CB 24/24"]},{"id":34410002,"lat":43.27112,"lng":3.2829,"addr":"Route de Valras","city":"Sérignan","cp":"34410","fuels":{"Gazole":{"p":2.199,"d":"2026-04-30"},"SP95":{"p":2.055,"d":"2026-04-30"},"E85":{"p":0.818,"d":"2026-04-30"},"E10":{"p":2.049,"d":"2026-04-30"},"SP98":{"p":2.119,"d":"2026-04-30"}},"brand":"Carrefour","services":["Vente de pétrole lampant","Station de gonflage","Location de véhicule","Vente de gaz domestique (Butane, Propane)","DAB (Distributeur automatique de billets)"]},{"id":34130004,"lat":43.618,"lng":3.989,"addr":"1030 Avenue Théo Luce","city":"Mauguio","cp":"34130","fuels":{"Gazole":{"p":2.09,"d":"2026-05-01"},"GPLc":{"p":1.2,"d":"2026-05-01"},"E10":{"p":1.99,"d":"2026-05-01"}},"brand":"TotalEnergies","h24":true,"services":["Relais colis","Boutique alimentaire","Boutique non alimentaire","Restauration à emporter","Vente de fioul domestique","Station de gonflage","Carburant additivé","Piste poids lourds","Lavage automatique","Vente de gaz domestique (Butane, Propane)","Vente d'additifs carburants","Automate CB 24/24"]},{"id":34500030,"lat":43.34,"lng":3.264,"addr":"ZAC de Montimaran - Bretelle Est Autoroute A9","city":"Béziers","cp":"34500","fuels":{"Gazole":{"p":2.168,"d":"2026-04-30"},"GPLc":{"p":1.11,"d":"2026-04-30"},"E10":{"p":2.049,"d":"2026-04-30"}},"brand":"Leclerc","h24":true,"services":["Carburant additivé","Vente de gaz domestique (Butane, Propane)","Automate CB 24/24"]},{"id":34200001,"lat":43.41,"lng":3.669,"addr":"54 Bd Camille Blanc","city":"Sète","cp":"34200","fuels":{"Gazole":{"p":2.148,"d":"2026-04-29"},"E85":{"p":0.859,"d":"2026-04-24"},"E10":{"p":1.99,"d":"2026-04-24"},"SP98":{"p":2.091,"d":"2026-04-28"}},"brand":"Auchan","h24":true,"services":["Toilettes publiques","Relais colis","Boutique alimentaire","Boutique non alimentaire","Restauration à emporter","Restauration sur place","Bar","Vente de pétrole lampant","Station de gonflage","Carburant additivé","Vente de gaz domestique (Butane, Propane)","Wifi","Automate CB 24/24","DAB (Distributeur automatique de billets)"]},{"id":34290007,"lat":43.369129317048,"lng":3.3910774626099,"addr":"AIRE DE BEZIERS MONTBLANC NORD","city":"MONTBLANC","cp":"34290","fuels":{"Gazole":{"p":2.563,"d":"2026-05-01"},"GPLc":{"p":1.141,"d":"2026-05-01"},"E10":{"p":2.493,"d":"2026-05-01"},"SP98":{"p":2.643,"d":"2026-05-01"}},"brand":"Shell","h24":true,"services":["Toilettes publiques","Douches","Boutique alimentaire","Boutique non alimentaire","Restauration à emporter","Restauration sur place","Station de gonflage","Carburant additivé","Aire de camping-cars","Piste poids lourds","Espace bébé","Wifi","Automate CB 24/24","DAB (Distributeur automatique de billets)"]},{"id":34750001,"lat":43.537,"lng":3.858,"addr":"93 rue des troenes","city":"Villeneuve-lès-Maguelone","cp":"34750","fuels":{"Gazole":{"p":2.19,"d":"2026-04-30"},"E85":{"p":0.818,"d":"2026-04-30"},"E10":{"p":1.999,"d":"2026-04-30"},"SP98":{"p":2.126,"d":"2026-04-30"}},"brand":"Intermarché","services":["Laverie","Station de gonflage","Location de véhicule","Piste poids lourds","Lavage manuel","Vente de gaz domestique (Butane, Propane)","DAB (Distributeur automatique de billets)"]},{"id":34280005,"lat":43.549,"lng":3.979,"addr":"ROUTE DEPARTEMENTALE 59 E CARNON","city":"MAUGUIO","cp":"34130","fuels":{"Gazole":{"p":2.09,"d":"2026-05-01"},"E10":{"p":1.99,"d":"2026-05-01"},"SP98":{"p":1.99,"d":"2026-05-01"}},"brand":"TotalEnergies","services":["Boutique alimentaire","Station de gonflage","Carburant additivé","Lavage automatique","Vente de gaz domestique (Butane, Propane)","Vente d'additifs carburants","Wifi"]},{"id":34110005,"lat":43.4457,"lng":3.75207,"addr":"RN 108 14 AVENUE DES VIGNERONS","city":"FRONTIGNAN","cp":"34110","fuels":{"Gazole":{"p":2.09,"d":"2026-05-01"},"E10":{"p":1.99,"d":"2026-05-01"}},"brand":"TotalEnergies","services":["Boutique alimentaire","Station de gonflage","Carburant additivé","Lavage manuel","Vente de gaz domestique (Butane, Propane)"]},{"id":34830001,"lat":43.66,"lng":3.904,"addr":"Lieu dit La Plaine CD 112","city":"JACOU","cp":"34830","fuels":{"Gazole":{"p":2.175,"d":"2026-04-30"},"E85":{"p":0.819,"d":"2026-04-30"},"E10":{"p":1.999,"d":"2026-04-30"},"SP98":{"p":2.125,"d":"2026-04-30"}},"brand":"Intermarché","h24":true,"services":["Piste poids lourds","Vente de gaz domestique (Butane, Propane)","Automate CB 24/24","DAB (Distributeur automatique de billets)"]},{"id":34311001,"lat":43.338,"lng":3.239,"addr":"Avenue du pech de Valras","city":"Béziers","cp":"34500","fuels":{"Gazole":{"p":2.168,"d":"2026-04-30"},"SP95":{"p":2.046,"d":"2026-04-30"},"E10":{"p":2.019,"d":"2026-04-30"},"SP98":{"p":2.089,"d":"2026-04-30"}},"brand":"Leclerc","h24":true,"services":["Laverie","Relais colis","Boutique alimentaire","Boutique non alimentaire","Vente de fioul domestique","Location de véhicule","Vente de gaz domestique (Butane, Propane)","Wifi","Automate CB 24/24","DAB (Distributeur automatique de billets)"]},{"id":34420004,"lat":43.319,"lng":3.302,"addr":"Avenue de la Promenade","city":"CERS","cp":"34420","fuels":{"Gazole":{"p":2.179,"d":"2026-04-30"},"E85":{"p":0.818,"d":"2026-04-21"},"E10":{"p":2.019,"d":"2026-04-30"},"SP98":{"p":2.149,"d":"2026-04-28"}},"brand":"Intermarché","h24":true,"services":["Toilettes publiques","Laverie","Relais colis","Boutique alimentaire","Vente de pétrole lampant","Station de gonflage","Vente de gaz domestique (Butane, Propane)","Wifi","Automate CB 24/24","DAB (Distributeur automatique de billets)"]},{"id":34480001,"lat":43.468,"lng":3.209,"addr":"ZAE L'AUDACIEUSE","city":"MAGALAS","cp":"34480","fuels":{"Gazole":{"p":2.189,"d":"2026-04-30"},"E85":{"p":0.818,"d":"2026-04-17"},"E10":{"p":2.039,"d":"2026-04-30"},"SP98":{"p":2.095,"d":"2026-04-30"}},"brand":"Intermarché"},{"id":34770001,"lat":43.494,"lng":3.709,"addr":"47, avenue de Béziers","city":"Gigean","cp":"34770","fuels":{"Gazole":{"p":2.208,"d":"2026-04-30"}},"brand":"TotalEnergies","h24":true,"services":["Station de gonflage","Carburant additivé","Piste poids lourds","Lavage automatique","Lavage manuel","Automate CB 24/24","DAB (Distributeur automatique de billets)"]},{"id":34300009,"lat":43.284815569799996,"lng":3.50286260671,"addr":"AVENUE BELLA ISLA","city":"Agde","cp":"34300","fuels":{"Gazole":{"p":2.09,"d":"2026-05-01"},"E85":{"p":0.853,"d":"2026-05-01"},"E10":{"p":1.99,"d":"2026-05-01"},"SP98":{"p":1.99,"d":"2026-05-01"}},"brand":"TotalEnergies","services":["Boutique alimentaire","Station de gonflage","Carburant additivé","Lavage automatique","Lavage manuel","Vente de gaz domestique (Butane, Propane)"]},{"id":34120007,"lat":43.455,"lng":3.423,"addr":"18 AVENUE DE VERDUN","city":"PEZENAS","cp":"34120","fuels":{"Gazole":{"p":2.259,"d":"2026-04-30"},"E85":{"p":0.899,"d":"2026-04-30"},"E10":{"p":2.069,"d":"2026-04-30"},"SP98":{"p":2.169,"d":"2026-04-30"}},"services":["Station de gonflage","Carburant additivé","Lavage automatique","DAB (Distributeur automatique de billets)"]},{"id":34300002,"lat":43.302,"lng":3.472,"addr":"59 AVENUE DE SETE","city":"Agde","cp":"34300","fuels":{"Gazole":{"p":2.09,"d":"2026-05-01"},"E10":{"p":1.99,"d":"2026-04-22"}},"brand":"TotalEnergies","h24":true,"services":["Carburant additivé","Location de véhicule","Piste poids lourds","Automate CB 24/24"]},{"id":34090003,"lat":43.627,"lng":3.876,"addr":"459 AV.DE LA JUSTICE","city":"MONTPELLIER","cp":"34090","fuels":{"Gazole":{"p":2.09,"d":"2026-05-01"},"E10":{"p":1.99,"d":"2026-05-01"}},"brand":"TotalEnergies","h24":true,"services":["Relais colis","Boutique alimentaire","Boutique non alimentaire","Restauration à emporter","Station de gonflage","Carburant additivé","Lavage automatique","Vente de gaz domestique (Butane, Propane)","Automate CB 24/24"]},{"id":34300013,"lat":43.286,"lng":3.514,"addr":"8 AVENUE DES SERGENTS","city":"Agde","cp":"34300","fuels":{"Gazole":{"p":2.329,"d":"2026-05-01"},"E85":{"p":0.899,"d":"2026-05-01"},"E10":{"p":2.129,"d":"2026-05-01"},"SP98":{"p":2.229,"d":"2026-05-01"}},"brand":"Agip","services":["Relais colis","Boutique alimentaire","Boutique non alimentaire","Station de gonflage","Carburant additivé","Location de véhicule","Lavage automatique","Lavage manuel","Services réparation / entretien","Vente de gaz domestique (Butane, Propane)"]},{"id":34200013,"lat":43.413,"lng":3.683,"addr":"134 BD DE VERDUN","city":"SETE","cp":"34200","fuels":{"Gazole":{"p":2.09,"d":"2026-05-01"},"E85":{"p":0.859,"d":"2026-05-01"},"E10":{"p":1.99,"d":"2026-05-01"},"SP98":{"p":1.99,"d":"2026-05-01"}},"brand":"TotalEnergies","h24":true,"services":["Boutique alimentaire","Boutique non alimentaire","Station de gonflage","Lavage automatique","Vente de gaz domestique (Butane, Propane)","Automate CB 24/24"]},{"id":34000014,"lat":43.635,"lng":3.823,"addr":"70 AV. DE L'EUROPE","city":"MONTPELLIER","cp":"34000","fuels":{"Gazole":{"p":2.09,"d":"2026-05-01"},"E85":{"p":0.879,"d":"2026-05-01"},"GPLc":{"p":1.089,"d":"2026-05-01"},"E10":{"p":1.99,"d":"2026-05-01"},"SP98":{"p":1.99,"d":"2026-05-01"}},"brand":"TotalEnergies","services":["Toilettes publiques","Relais colis","Boutique alimentaire","Station de gonflage","Carburant additivé","Lavage automatique","Lavage manuel","DAB (Distributeur automatique de billets)"]},{"id":34070019,"lat":43.61,"lng":3.839,"addr":"129 AVENUE DE LODEVE","city":"MONTPELLIER","cp":"34070","fuels":{"Gazole":{"p":2.09,"d":"2026-05-01"},"E10":{"p":1.99,"d":"2026-05-01"}},"brand":"TotalEnergies","services":["Station de gonflage","Carburant additivé","Lavage automatique","Vente de gaz domestique (Butane, Propane)"]},{"id":34140003,"lat":43.4280745215,"lng":3.60615111179,"addr":"RN 113","city":"MèZE","cp":"34140","fuels":{"Gazole":{"p":2.349,"d":"2026-05-01"},"E10":{"p":2.129,"d":"2026-05-01"},"SP98":{"p":2.229,"d":"2026-05-01"}},"brand":"Agip","services":["Toilettes publiques","Relais colis","Boutique alimentaire","Station de gonflage","Carburant additivé","Lavage automatique","Services réparation / entretien","Vente de gaz domestique (Butane, Propane)"]},{"id":34100001,"lat":43.618,"lng":3.844,"addr":"544 Rue Paul Rimbaud","city":"Montpellier","cp":"34080","fuels":{"Gazole":{"p":2.299,"d":"2026-04-30"},"E10":{"p":2.099,"d":"2026-04-30"},"SP98":{"p":2.199,"d":"2026-04-30"}},"brand":"Eni","services":["Relais colis","Boutique alimentaire","Boutique non alimentaire","Station de gonflage","Carburant additivé","Lavage automatique","Lavage manuel","Vente de gaz domestique (Butane, Propane)"]},{"id":34070020,"lat":43.596,"lng":3.887,"addr":"112 AVENUE DE PALAVAS","city":"MONTPELLIER","cp":"34070","fuels":{"Gazole":{"p":2.29,"d":"2026-05-01"},"E85":{"p":0.89,"d":"2026-05-01"},"E10":{"p":2.09,"d":"2026-05-01"}},"brand":"Eni","services":["Boutique alimentaire","Boutique non alimentaire","Station de gonflage","Carburant additivé","Piste poids lourds","Lavage automatique","Lavage manuel","Services réparation / entretien","Vente de gaz domestique (Butane, Propane)"]},{"id":34110003,"lat":43.434,"lng":3.738,"addr":"93, AVENUE MARECHAL JUIN","city":"Frontignan","cp":"34110","fuels":{"Gazole":{"p":2.171,"d":"2026-04-27"},"E10":{"p":2.01,"d":"2026-04-28"},"SP98":{"p":2.139,"d":"2026-04-28"}},"brand":"Intermarché","h24":true,"services":["Toilettes publiques","Laverie","Boutique alimentaire","Restauration sur place","Bar","Vente de fioul domestique","Vente de pétrole lampant","Station de gonflage","Location de véhicule","Piste poids lourds","Lavage automatique","Lavage manuel","Vente de gaz domestique (Butane, Propane)","Bornes électriques","Automate CB 24/24"]},{"id":34070017,"lat":43.5895,"lng":3.88887,"addr":"1 RUE DE L'ABRIVADO","city":"MONTPELLIER","cp":"34070","fuels":{"E85":{"p":0.879,"d":"2026-05-01"}},"brand":"TotalEnergies"},{"id":34070018,"lat":43.595,"lng":3.849,"addr":"AVENUE DE VANIERES","city":"MONTPELLIER","cp":"34070","fuels":{"Gazole":{"p":2.09,"d":"2026-05-01"},"GPLc":{"p":1.089,"d":"2026-05-01"},"E10":{"p":1.99,"d":"2026-05-01"},"SP98":{"p":1.99,"d":"2026-05-01"}},"brand":"TotalEnergies","services":["Boutique alimentaire","Restauration à emporter","Station de gonflage","Carburant additivé","Piste poids lourds","Vente de gaz domestique (Butane, Propane)"]},{"id":34270001,"lat":43.76059,"lng":3.86538,"addr":"115, avenue de la République","city":"Saint-Mathieu-de-Tréviers","cp":"34270","fuels":{"Gazole":{"p":2.215,"d":"2026-04-29"},"SP95":{"p":2.125,"d":"2026-04-29"},"E10":{"p":2.045,"d":"2026-04-28"},"SP98":{"p":2.159,"d":"2026-04-28"}},"brand":"Intermarché","services":["Laverie","Station de gonflage","Piste poids lourds","Lavage manuel","Vente de gaz domestique (Butane, Propane)","DAB (Distributeur automatique de billets)"]},{"id":34330001,"lat":43.59984,"lng":2.69757,"addr":"Allée du Plagnol","city":"La Salvetat-sur-Agout","cp":"34330","fuels":{"Gazole":{"p":2.25,"d":"2026-04-08"},"SP95":{"p":1.99,"d":"2026-03-07"},"SP98":{"p":1.99,"d":"2026-03-09"}},"brand":"Elan"},{"id":34400004,"lat":43.676,"lng":4.128,"addr":"287 Avenue du Maréchal de Lattre de Tassigny","city":"Lunel","cp":"34400","fuels":{"Gazole":{"p":2.246,"d":"2026-04-29"},"E10":{"p":1.999,"d":"2026-04-29"},"SP98":{"p":2.055,"d":"2026-04-29"}},"brand":"Esso"},{"id":34500028,"lat":43.346448175582,"lng":3.2412510394399003,"addr":"5 avenue de la voie Domitienne","city":"BEZIERS","cp":"34500","fuels":{"Gazole":{"p":2.09,"d":"2026-05-01"},"E10":{"p":1.99,"d":"2026-05-01"}},"brand":"TotalEnergies","services":["Toilettes publiques","Boutique alimentaire","Station de gonflage","Carburant additivé","Piste poids lourds","Lavage manuel","Vente de gaz domestique (Butane, Propane)"]},{"id":34500024,"lat":43.337949625164,"lng":3.2035771636848,"addr":"21 avenue du Pont Vieux","city":"BEZIERS","cp":"34500","fuels":{"Gazole":{"p":2.279,"d":"2026-04-30"},"E85":{"p":0.839,"d":"2026-04-30"},"E10":{"p":2.059,"d":"2026-04-30"}},"brand":"Dyneff","services":["DAB (Distributeur automatique de billets)"]},{"id":34500026,"lat":43.354260237735,"lng":3.2291535224152,"addr":"43 AVENUE RHIN ET DANUBE","city":"BEZIERS","cp":"34500","fuels":{"Gazole":{"p":2.09,"d":"2026-05-01"},"E85":{"p":0.846,"d":"2026-05-01"},"GPLc":{"p":1.099,"d":"2026-05-01"},"E10":{"p":1.99,"d":"2026-05-01"},"SP98":{"p":1.99,"d":"2026-05-01"}},"brand":"TotalEnergies"},{"id":34770002,"lat":43.595,"lng":3.888,"addr":"132 Avenue de Palavas","city":"Montpellier","cp":"34070","fuels":{"Gazole":{"p":2.179,"d":"2026-04-30"},"E10":{"p":2.009,"d":"2026-04-30"},"SP98":{"p":2.179,"d":"2026-04-30"}},"brand":"Esso"},{"id":34550001,"lat":43.38,"lng":3.42,"addr":"MONTS RAMUS C.D. 13","city":"Bessan","cp":"34550","fuels":{"Gazole":{"p":2.238,"d":"2026-04-30"},"E10":{"p":2.008,"d":"2026-04-30"},"SP98":{"p":2.198,"d":"2026-04-30"}},"brand":"Esso"},{"id":34740002,"lat":43.656,"lng":3.962,"addr":"ROUTE D'ALES","city":"Vendargues","cp":"34740","fuels":{"Gazole":{"p":2.164,"d":"2026-05-01"},"E10":{"p":1.999,"d":"2026-05-01"},"SP98":{"p":2.072,"d":"2026-05-01"}},"brand":"Esso"},{"id":34740004,"lat":43.654,"lng":3.966,"addr":"RN 113","city":"VENDARGUES","cp":"34740","fuels":{"Gazole":{"p":2.09,"d":"2026-05-01"},"E85":{"p":0.865,"d":"2026-05-01"},"E10":{"p":1.99,"d":"2026-05-01"},"SP98":{"p":1.99,"d":"2026-05-01"}},"brand":"TotalEnergies","h24":true,"services":["Boutique alimentaire","Boutique non alimentaire","Station de gonflage","Carburant additivé","Location de véhicule","Piste poids lourds","Lavage automatique","Vente de gaz domestique (Butane, Propane)","Vente d'additifs carburants","Wifi","Automate CB 24/24"]},{"id":34770005,"lat":43.497574148983,"lng":3.7116784796608,"addr":"24 avenue de beziers","city":"Gigean","cp":"34770","fuels":{"Gazole":{"p":2.229,"d":"2026-04-30"},"E10":{"p":2.01,"d":"2026-04-30"},"SP98":{"p":2.19,"d":"2026-04-30"}},"brand":"Carrefour","h24":true,"services":["Relais colis","Boutique alimentaire","Vente de gaz domestique (Butane, Propane)","Automate CB 24/24"]},{"id":34690010,"lat":43.544,"lng":3.792,"addr":"A9 Sens Espagne Paris","city":"Fabrègues","cp":"34690","fuels":{"Gazole":{"p":2.339,"d":"2026-05-01"},"E85":{"p":0.999,"d":"2026-05-01"},"GPLc":{"p":1.13,"d":"2026-05-01"},"E10":{"p":2.207,"d":"2026-05-01"},"SP98":{"p":2.273,"d":"2026-05-01"}},"brand":"Avia","h24":true,"services":["Toilettes publiques","Douches","Boutique alimentaire","Boutique non alimentaire","Station de gonflage","Carburant additivé","Aire de camping-cars","Piste poids lourds","Espace bébé","Wifi","Automate CB 24/24","DAB (Distributeur automatique de billets)"]},{"id":34230002,"lat":43.535,"lng":3.453,"addr":"zae la barthe bp6 la carnuse","city":"paulhan","cp":"34230","fuels":{"Gazole":{"p":2.269,"d":"2026-04-28"},"E10":{"p":2.099,"d":"2026-04-28"},"SP98":{"p":2.149,"d":"2026-04-28"}},"brand":"Carrefour","h24":true,"services":["Laverie","Relais colis","Boutique alimentaire","Boutique non alimentaire","Vente de gaz domestique (Butane, Propane)","Automate CB 24/24"]},{"id":11200003,"lat":43.58,"lng":3.953,"addr":"aérodrome Montpellier Méditerranée","city":"Mauguio","cp":"34130","fuels":{"Gazole":{"p":2.309,"d":"2026-04-30"},"E85":{"p":0.829,"d":"2026-04-30"},"GPLc":{"p":1.095,"d":"2026-04-30"},"E10":{"p":2.099,"d":"2026-04-30"}},"brand":"Dyneff","h24":true,"services":["Toilettes publiques","Boutique alimentaire","Boutique non alimentaire","Restauration à emporter","Restauration sur place","Vente de pétrole lampant","Station de gonflage","Carburant additivé","Piste poids lourds","Lavage automatique","Lavage manuel","Vente de gaz domestique (Butane, Propane)","Vente d'additifs carburants","Wifi","Automate CB 24/24"]},{"id":34320001,"lat":43.50555,"lng":3.30844,"addr":"39 Avenue de Cassan","city":"Roujan","cp":"34320","fuels":{"Gazole":{"p":2.25,"d":"2026-04-30"},"SP95":{"p":1.99,"d":"2026-04-30"},"SP98":{"p":1.99,"d":"2026-04-30"}},"brand":"TotalEnergies","services":["Toilettes publiques","Boutique alimentaire","Vente de fioul domestique","Vente de pétrole lampant","Station de gonflage","Services réparation / entretien","Vente de gaz domestique (Butane, Propane)"]},{"id":34560001,"lat":43.499,"lng":3.592,"addr":"31 rue Sauta Roch","city":"Villeveyrac","cp":"34560","fuels":{"Gazole":{"p":2.201,"d":"2026-04-29"},"E10":{"p":2.047,"d":"2026-04-29"},"SP98":{"p":2.144,"d":"2026-04-29"}},"brand":"Spar","h24":true,"services":["Laverie","Boutique alimentaire","Boutique non alimentaire","Restauration à emporter","Vente de fioul domestique","Vente de pétrole lampant","Piste poids lourds","Vente de gaz domestique (Butane, Propane)","Vente d'additifs carburants","Automate CB 24/24"]},{"id":34490002,"lat":43.3766586291,"lng":3.1779261921799997,"addr":"Z.a.e. de Montaury","city":"LIGNAN-SUR-ORB","cp":"34490","fuels":{"Gazole":{"p":2.249,"d":"2026-04-29"},"E85":{"p":0.819,"d":"2026-04-29"},"E10":{"p":1.999,"d":"2026-04-29"},"SP98":{"p":2.139,"d":"2026-04-29"}},"brand":"Intermarché","services":["Station de gonflage","Vente de gaz domestique (Butane, Propane)","DAB (Distributeur automatique de billets)"]},{"id":34400007,"lat":43.676,"lng":4.115,"addr":"Avenue des 4 Saisons","city":"LUNEL","cp":"34400","fuels":{"Gazole":{"p":2.149,"d":"2026-04-30"},"E85":{"p":0.719,"d":"2026-04-30"},"E10":{"p":2.079,"d":"2026-04-30"},"SP98":{"p":2.099,"d":"2026-04-30"}},"brand":"Système U","h24":true,"services":["Laverie","Relais colis","Boutique alimentaire","Station de gonflage","Piste poids lourds","Lavage automatique","Lavage manuel","Vente de gaz domestique (Butane, Propane)","Vente d'additifs carburants","Automate CB 24/24","DAB (Distributeur automatique de billets)"]},{"id":34500023,"lat":43.366,"lng":3.209,"addr":"48 Rue Gerry Roufs","city":"Béziers","cp":"34500","fuels":{"Gazole":{"p":2.19,"d":"2026-04-30"},"E85":{"p":0.819,"d":"2026-04-30"},"E10":{"p":2.026,"d":"2026-04-30"},"SP98":{"p":2.135,"d":"2026-04-30"}},"brand":"Intermarché","h24":true,"services":["Boutique alimentaire","Restauration à emporter","Restauration sur place","Bar","Station de gonflage","Location de véhicule","Piste poids lourds","Lavage automatique","Vente de gaz domestique (Butane, Propane)","Automate CB 24/24","DAB (Distributeur automatique de billets)"]},{"id":34070003,"lat":43.589,"lng":3.855,"addr":"1742 Route de Toulouse","city":"MONTPELLIER","cp":"34070","fuels":{"Gazole":{"p":2.199,"d":"2026-04-30"},"E10":{"p":2.016,"d":"2026-04-30"},"SP98":{"p":2.154,"d":"2026-04-30"}},"brand":"Carrefour","h24":true,"services":["Relais colis","Carburant additivé","Location de véhicule","Vente de gaz domestique (Butane, Propane)","Automate CB 24/24"]},{"id":34500027,"lat":43.332,"lng":3.248,"addr":"1 AVENUE DE LA DEVEZE","city":"BEZIERS","cp":"34500","fuels":{"Gazole":{"p":2.09,"d":"2026-05-01"},"E85":{"p":0.841,"d":"2026-05-01"},"E10":{"p":1.99,"d":"2026-05-01"}},"brand":"TotalEnergies","services":["Relais colis","Boutique alimentaire","Station de gonflage","Carburant additivé","Lavage automatique","Vente de gaz domestique (Butane, Propane)"]},{"id":34800005,"lat":43.61,"lng":3.463,"addr":"341, avenue de la salamane","city":"Clermont-l'Hérault","cp":"34800","fuels":{"Gazole":{"p":2.169,"d":"2026-04-30"},"SP95":{"p":2.119,"d":"2026-04-30"},"E85":{"p":0.818,"d":"2026-04-30"},"E10":{"p":2.029,"d":"2026-04-30"},"SP98":{"p":2.129,"d":"2026-04-30"}},"brand":"Leclerc","h24":true,"services":["Laverie","Station de gonflage","Carburant additivé","Piste poids lourds","Lavage automatique","Lavage manuel","Vente de gaz domestique (Butane, Propane)","Vente d'additifs carburants","Automate CB 24/24"]},{"id":34070016,"lat":43.60413,"lng":3.83911,"addr":"AVENUE DE LA RECAMBALE","city":"MONTPELLIER","cp":"34070","fuels":{"Gazole":{"p":2.09,"d":"2026-05-01"},"E85":{"p":0.849,"d":"2026-05-01"},"SP98":{"p":1.99,"d":"2026-05-01"}},"brand":"TotalEnergies","services":["Toilettes publiques","Boutique alimentaire","Boutique non alimentaire","Station de gonflage","Carburant additivé","Lavage automatique","Lavage manuel","Vente de gaz domestique (Butane, Propane)","DAB (Distributeur automatique de billets)"]},{"id":34400018,"lat":43.678753089699995,"lng":4.14329815767,"addr":"487 AV.GAL. DE GAULLE RN 113","city":"LUNEL","cp":"34400","fuels":{"Gazole":{"p":2.09,"d":"2026-05-01"}},"brand":"TotalEnergies","services":["Boutique alimentaire","Boutique non alimentaire","Restauration à emporter","Station de gonflage","Piste poids lourds","Vente de gaz domestique (Butane, Propane)","DAB (Distributeur automatique de billets)"]},{"id":34430001,"lat":43.578,"lng":3.835,"addr":"Route de Montpellier","city":"SAINT-JEAN-DE-VéDAS","cp":"34430","fuels":{"Gazole":{"p":2.09,"d":"2026-05-01"},"E85":{"p":0.894,"d":"2026-05-01"},"E10":{"p":1.99,"d":"2026-05-01"},"SP98":{"p":1.99,"d":"2026-05-01"}},"brand":"TotalEnergies","h24":true,"services":["Toilettes publiques","Laverie","Boutique alimentaire","Boutique non alimentaire","Station de gonflage","Carburant additivé","Piste poids lourds","Lavage automatique","Lavage manuel","Vente de gaz domestique (Butane, Propane)","Automate CB 24/24"]},{"id":34110004,"lat":43.471,"lng":3.768,"addr":"Lieu-dit Le Barnier","city":"Frontignan","cp":"34110","fuels":{"Gazole":{"p":2.27,"d":"2026-05-01"},"SP95":{"p":2.15,"d":"2026-04-13"},"E85":{"p":0.919,"d":"2026-03-20"},"E10":{"p":2.099,"d":"2026-05-01"}},"brand":"Dyneff","h24":true,"services":["Relais colis","Carburant additivé","Piste poids lourds","Automate CB 24/24"]},{"id":34600001,"lat":43.60598,"lng":3.14947,"addr":"Route de St Pons","city":"Bédarieux","cp":"34600","fuels":{"Gazole":{"p":2.145,"d":"2026-04-30"},"E85":{"p":0.817,"d":"2026-04-30"},"GPLc":{"p":1.28,"d":"2026-04-29"},"E10":{"p":1.99,"d":"2026-04-30"},"SP98":{"p":2.09,"d":"2026-04-30"}},"brand":"Carrefour","services":["Toilettes publiques","Douches","Laverie","Relais colis","Boutique alimentaire","Boutique non alimentaire","Restauration à emporter","Restauration sur place","Bar","Vente de fioul domestique","Vente de pétrole lampant","Station de gonflage","Carburant additivé","Aire de camping-cars","Location de véhicule","Piste poids lourds","Lavage automatique","Lavage manuel","Espace bébé","Services réparation / entretien","Vente de gaz domestique (Butane, Propane)","DAB (Distributeur automatique de billets)"]},{"id":34000011,"lat":43.644,"lng":3.844,"addr":"812 route de Ganges","city":"MONTPELLIER","cp":"34090","fuels":{"Gazole":{"p":2.199,"d":"2026-04-29"},"E10":{"p":2.029,"d":"2026-04-29"},"SP98":{"p":2.144,"d":"2026-04-29"}},"brand":"Intermarché"},{"id":34130003,"lat":43.612,"lng":4.006,"addr":"168 Avenue de la Mer","city":"Mauguio","cp":"34130","fuels":{"Gazole":{"p":2.132,"d":"2026-04-30"},"SP95":{"p":2.062,"d":"2026-04-30"},"E10":{"p":2.003,"d":"2026-04-24"},"SP98":{"p":2.14,"d":"2026-04-28"}},"brand":"Intermarché","services":["Station de gonflage","Lavage manuel","Vente de gaz domestique (Butane, Propane)","DAB (Distributeur automatique de billets)"]},{"id":34260001,"lat":43.657,"lng":3.15,"addr":"Route de Lodève","city":"La Tour-sur-Orb","cp":"34260","fuels":{"Gazole":{"p":2.149,"d":"2026-04-28"},"E10":{"p":1.969,"d":"2026-04-28"},"SP98":{"p":2.079,"d":"2026-04-28"}},"brand":"Intermarché","h24":true,"services":["Laverie","Boutique alimentaire","Boutique non alimentaire","Vente de gaz domestique (Butane, Propane)","Automate CB 24/24","DAB (Distributeur automatique de billets)"]},{"id":34450001,"lat":43.314,"lng":3.417,"addr":"Avenue de Béziers","city":"VIAS","cp":"34450","fuels":{"Gazole":{"p":2.09,"d":"2026-05-01"},"E85":{"p":0.859,"d":"2026-04-13"},"E10":{"p":1.99,"d":"2026-04-13"},"SP98":{"p":1.99,"d":"2026-04-13"}},"brand":"TotalEnergies","h24":true,"services":["Toilettes publiques","Boutique alimentaire","Boutique non alimentaire","Carburant additivé","Piste poids lourds","Automate CB 24/24"]},{"id":34530001,"lat":43.48,"lng":3.485,"addr":"128 Avenue Capitaine Pierre Azema","city":"MONTAGNAC","cp":"34530","fuels":{"Gazole":{"p":2.345,"d":"2026-04-27"},"E10":{"p":2.099,"d":"2026-04-27"},"SP98":{"p":2.219,"d":"2026-04-27"}},"brand":"Tabac Station Service Lopez","services":["Relais colis","Boutique alimentaire","Boutique non alimentaire","Restauration à emporter","Vente de fioul domestique","Vente de pétrole lampant","Station de gonflage","Carburant additivé","Piste poids lourds","Lavage automatique","Services réparation / entretien","Vente de gaz domestique (Butane, Propane)","Vente d'additifs carburants"]},{"id":34130005,"lat":43.627,"lng":4.01,"addr":"Z.A.C. la Louvade","city":"Mauguio","cp":"34130","fuels":{"Gazole":{"p":2.132,"d":"2026-04-30"},"SP95":{"p":2.062,"d":"2026-04-30"},"E85":{"p":0.818,"d":"2026-04-20"}},"brand":"Intermarché"},{"id":34540001,"lat":43.461,"lng":3.691,"addr":"ROUTE DE SETE","city":"BALARUC-LE-VIEUX","cp":"34540","fuels":{"Gazole":{"p":2.164,"d":"2026-04-29"},"SP95":{"p":2.052,"d":"2026-04-29"},"E10":{"p":2.006,"d":"2026-04-29"},"SP98":{"p":2.139,"d":"2026-04-29"}},"brand":"Carrefour","h24":true,"services":["Station de gonflage","Piste poids lourds","Automate CB 24/24","DAB (Distributeur automatique de billets)"]},{"id":34800001,"lat":43.623,"lng":3.438,"addr":"Centre Cial Grand Axe La Madeleine","city":"Clermont-l'Hérault","cp":"34800","fuels":{"Gazole":{"p":2.169,"d":"2026-04-30"},"E85":{"p":0.72,"d":"2026-04-30"},"GPLc":{"p":1.11,"d":"2026-04-30"},"E10":{"p":1.995,"d":"2026-04-30"},"SP98":{"p":2.129,"d":"2026-04-30"}},"brand":"Système U","h24":true,"services":["Toilettes publiques","Vente de pétrole lampant","Station de gonflage","Location de véhicule","Lavage automatique","Lavage manuel","Vente de gaz domestique (Butane, Propane)","Automate CB 24/24","DAB (Distributeur automatique de billets)"]},{"id":34660001,"lat":43.55,"lng":3.715,"addr":"RD 5 - Centre Commercial Le Frigoulet RD 5 - Centre Commercial Le Frigoulet","city":"COURNONSEC","cp":"34660","fuels":{"Gazole":{"p":2.199,"d":"2026-04-27"},"E85":{"p":0.819,"d":"2026-04-27"},"E10":{"p":1.999,"d":"2026-04-27"},"SP98":{"p":2.129,"d":"2026-04-27"}},"brand":"Intermarché","h24":true,"services":["Boutique alimentaire","Restauration à emporter","Restauration sur place","Station de gonflage","Location de véhicule","Piste poids lourds","Vente de gaz domestique (Butane, Propane)","Automate CB 24/24","DAB (Distributeur automatique de billets)"]},{"id":34140004,"lat":43.42552,"lng":3.60195,"addr":"Avenue du Général de Gaulle","city":"Mèze","cp":"34140","fuels":{"Gazole":{"p":2.209,"d":"2026-04-28"},"E85":{"p":0.819,"d":"2026-04-19"},"E10":{"p":2.039,"d":"2026-04-20"},"SP98":{"p":2.105,"d":"2026-04-24"}},"brand":"Intermarché","services":["Vente de gaz domestique (Butane, Propane)","DAB (Distributeur automatique de billets)"]},{"id":34980002,"lat":43.6795,"lng":3.82064,"addr":"Rue des Vautes","city":"SAINT-GéLY-DU-FESC","cp":"34980","fuels":{"Gazole":{"p":2.209,"d":"2026-04-29"},"E85":{"p":0.819,"d":"2026-04-17"},"GPLc":{"p":1.085,"d":"2026-04-14"},"E10":{"p":2.049,"d":"2026-04-28"},"SP98":{"p":2.159,"d":"2026-04-27"}},"brand":"Intermarché","services":["Lavage manuel","DAB (Distributeur automatique de billets)"]},{"id":34290003,"lat":43.357,"lng":3.34,"addr":"AUT A 9  AIRE DE MONTBLANC SUD","city":"SERVIAN","cp":"34290","fuels":{"Gazole":{"p":2.563,"d":"2026-05-01"},"E10":{"p":2.493,"d":"2026-05-01"},"SP98":{"p":2.643,"d":"2026-05-01"}},"brand":"Shell","h24":true,"services":["Toilettes publiques","Douches","Boutique alimentaire","Boutique non alimentaire","Restauration à emporter","Restauration sur place","Station de gonflage","Carburant additivé","Aire de camping-cars","Piste poids lourds","Espace bébé","Wifi","Automate CB 24/24","DAB (Distributeur automatique de billets)"]},{"id":34140001,"lat":43.43,"lng":3.609,"addr":"Avenue de Montpellier","city":"MèZE","cp":"34140","fuels":{"Gazole":{"p":2.179,"d":"2026-04-30"},"SP95":{"p":2.049,"d":"2026-04-30"},"E85":{"p":0.849,"d":"2026-04-30"},"SP98":{"p":2.225,"d":"2026-04-30"}},"brand":"Carrefour","h24":true,"services":["Relais colis","Vente de gaz domestique (Butane, Propane)","Automate CB 24/24"]},{"id":34500008,"lat":43.347333295735,"lng":3.2449124091117003,"addr":"4 AV DE LA VOIE DOMITIENNE","city":"Béziers","cp":"34500","fuels":{"Gazole":{"p":2.168,"d":"2026-04-30"},"E85":{"p":0.768,"d":"2026-04-07"},"GPLc":{"p":1.11,"d":"2026-04-28"},"E10":{"p":2.038,"d":"2026-04-30"},"SP98":{"p":2.048,"d":"2026-04-24"}},"brand":"Auchan","services":["Vente de pétrole lampant","Station de gonflage","Vente de gaz domestique (Butane, Propane)","DAB (Distributeur automatique de billets)"]},{"id":34600003,"lat":43.595,"lng":3.128,"addr":"Route de Bédarieux","city":"VILLEMAGNE-L'ARGENTIèRE","cp":"34600","fuels":{"Gazole":{"p":2.149,"d":"2026-04-30"},"SP95":{"p":2.061,"d":"2026-04-30"},"E85":{"p":0.818,"d":"2026-04-30"},"E10":{"p":2.004,"d":"2026-04-30"},"SP98":{"p":2.123,"d":"2026-04-30"}},"brand":"Intermarché","h24":true,"services":["Station de gonflage","Piste poids lourds","Lavage automatique","Vente de gaz domestique (Butane, Propane)","Automate CB 24/24","DAB (Distributeur automatique de billets)"]},{"id":34170004,"lat":43.631,"lng":3.906,"addr":"1001 avenue de l'europe","city":"Castelnau-le-lez","cp":"34170","fuels":{"Gazole":{"p":2.229,"d":"2026-04-30"},"E85":{"p":0.818,"d":"2026-04-30"},"E10":{"p":2.049,"d":"2026-04-30"},"SP98":{"p":2.199,"d":"2026-04-30"}},"brand":"Netto","h24":true,"services":["Station de gonflage","Automate CB 24/24"]},{"id":34700005,"lat":43.688,"lng":3.356,"addr":"la méridienne - Autouroute A75 - sortie 54","city":"Le Bosc","cp":"34700","fuels":{"Gazole":{"p":2.169,"d":"2026-04-30"},"SP95":{"p":2.089,"d":"2026-04-30"},"E85":{"p":0.714,"d":"2026-03-09"},"E10":{"p":1.999,"d":"2026-04-30"},"SP98":{"p":2.099,"d":"2026-04-30"}},"brand":"Leclerc","h24":true,"services":["Laverie","Relais colis","Boutique alimentaire","Boutique non alimentaire","Restauration à emporter","Restauration sur place","Vente de pétrole lampant","Station de gonflage","Carburant additivé","Location de véhicule","Piste poids lourds","Lavage automatique","Lavage manuel","Vente de gaz domestique (Butane, Propane)","Bornes électriques","Vente d'additifs carburants","Automate CB 24/24","DAB (Distributeur automatique de billets)"]},{"id":34980001,"lat":43.6443,"lng":3.84361,"addr":"ROUTE DE GANGES","city":"SAINT-CLéMENT-DE-RIVIèRE","cp":"34980","fuels":{"Gazole":{"p":2.137,"d":"2026-04-30"},"SP95":{"p":2.053,"d":"2026-04-30"},"E85":{"p":0.799,"d":"2026-04-30"},"E10":{"p":1.997,"d":"2026-04-30"},"SP98":{"p":2.129,"d":"2026-04-30"}},"brand":"Carrefour","services":["Station de gonflage","Piste poids lourds","Lavage automatique","Lavage manuel","DAB (Distributeur automatique de billets)"]},{"id":34360001,"lat":43.421,"lng":2.95,"addr":"Avenue de Béziers","city":"SAINT-CHINIAN","cp":"34360","fuels":{"Gazole":{"p":2.25,"d":"2026-04-22"},"E10":{"p":1.99,"d":"2026-04-22"},"SP98":{"p":1.99,"d":"2026-04-22"}},"brand":"TotalEnergies","services":["Boutique alimentaire","Boutique non alimentaire","Station de gonflage","Carburant additivé","Piste poids lourds","Services réparation / entretien"]},{"id":34340002,"lat":43.358,"lng":3.513,"addr":"Route de Bessan","city":"Marseillan","cp":"34340","fuels":{"Gazole":{"p":2.158,"d":"2026-04-30"},"SP95":{"p":2.034,"d":"2026-04-30"},"SP98":{"p":2.088,"d":"2026-04-30"}},"brand":"Carrefour","h24":true,"services":["Relais colis","Boutique alimentaire","Station de gonflage","Piste poids lourds","Lavage automatique","Lavage manuel","Vente de gaz domestique (Butane, Propane)","Automate CB 24/24","DAB (Distributeur automatique de billets)"]},{"id":34300006,"lat":43.31,"lng":3.485,"addr":"Route de Sète","city":"AGDE","cp":"34300","fuels":{"Gazole":{"p":2.169,"d":"2026-04-29"},"E85":{"p":0.819,"d":"2026-04-29"},"GPLc":{"p":1.069,"d":"2026-04-29"},"E10":{"p":1.99,"d":"2026-04-29"},"SP98":{"p":2.089,"d":"2026-04-29"}},"brand":"Intermarché","services":["Restauration à emporter","Restauration sur place","Location de véhicule","Lavage automatique","Lavage manuel","Services réparation / entretien","Vente de gaz domestique (Butane, Propane)","DAB (Distributeur automatique de billets)"]},{"id":34370002,"lat":43.359648853961,"lng":3.1694527990723,"addr":"CHEMIN DE PAYSSIEROU, CENTRE COMMERCIAL LE LIROU","city":"MARAUSSAN","cp":"34370","fuels":{"Gazole":{"p":2.249,"d":"2026-04-28"},"E85":{"p":0.795,"d":"2026-04-28"},"E10":{"p":2.099,"d":"2026-04-28"},"SP98":{"p":2.269,"d":"2026-04-28"}},"brand":"Système U","services":["Location de véhicule","Piste poids lourds","Vente de gaz domestique (Butane, Propane)","Wifi"]},{"id":34560002,"lat":43.48327389999999,"lng":3.6713791,"addr":"AVENUE DE SETE","city":"POUSSAN","cp":"34560","fuels":{"Gazole":{"p":2.229,"d":"2026-04-29"},"SP95":{"p":2.099,"d":"2026-04-30"}},"brand":"Carrefour","services":["Relais colis","Boutique alimentaire","Vente de pétrole lampant","Vente de gaz domestique (Butane, Propane)"]},{"id":34160003,"lat":43.675,"lng":3.983,"addr":"28 bis avenue de Montpellier","city":"Castries","cp":"34160","fuels":{"Gazole":{"p":2.234,"d":"2026-04-20"},"SP95":{"p":2.1,"d":"2026-04-29"}},"brand":"Carrefour","h24":true,"services":["Vente de gaz domestique (Butane, Propane)","Automate CB 24/24"]},{"id":34690011,"lat":43.561,"lng":3.797,"addr":"44 rue Francis Bergèse, parking LIDL","city":"FABREGUES","cp":"34690","fuels":{"Gazole":{"p":2.208,"d":"2026-04-30"},"E85":{"p":0.982,"d":"2026-04-30"},"E10":{"p":2.008,"d":"2026-04-30"},"SP98":{"p":2.128,"d":"2026-04-30"}},"brand":"Esso","h24":true,"services":["Station de gonflage","Carburant additivé","Automate CB 24/24"]},{"id":34350003,"lat":43.295950136900004,"lng":3.21755178874,"addr":"ZAC VIA EUROPA BEZIERS OUEST A9 SORTIE 36","city":"Vendres","cp":"34350","fuels":{"Gazole":{"p":2.199,"d":"2026-04-21"},"SP95":{"p":2.059,"d":"2026-04-30"},"GPLc":{"p":1.095,"d":"2026-04-16"},"E10":{"p":2.019,"d":"2026-04-30"}},"brand":"Dyneff","services":["Toilettes publiques","Douches","Laverie","Boutique alimentaire","Boutique non alimentaire","Restauration à emporter","Restauration sur place","Bar","Vente de fioul domestique","Station de gonflage","Carburant additivé","Piste poids lourds"]},{"id":34350005,"lat":43.269388,"lng":3.2379809999999996,"addr":"2 Chemin des GRUSSANOTTES","city":"VENDRES","cp":"34350","fuels":{"Gazole":{"p":2.219,"d":"2026-04-30"},"E85":{"p":0.838,"d":"2026-04-23"},"E10":{"p":2.069,"d":"2026-04-30"},"SP98":{"p":2.139,"d":"2026-04-30"}},"brand":"Carrefour","h24":true,"services":["Laverie","Boutique alimentaire","Restauration à emporter","Vente de pétrole lampant","Station de gonflage","Carburant additivé","Lavage automatique","Lavage manuel","Vente de gaz domestique (Butane, Propane)","Wifi","Automate CB 24/24","DAB (Distributeur automatique de billets)"]},{"id":34310002,"lat":43.326,"lng":3.051,"addr":"Avenue de Nissan","city":"CAPESTANG","cp":"34310","fuels":{"Gazole":{"p":2.18,"d":"2026-04-30"},"E85":{"p":0.818,"d":"2026-04-30"},"E10":{"p":1.992,"d":"2026-04-24"},"SP98":{"p":2.135,"d":"2026-04-30"}},"brand":"Intermarché","services":["Vente de gaz domestique (Butane, Propane)","DAB (Distributeur automatique de billets)"]},{"id":34200012,"lat":43.408,"lng":3.67,"addr":"79 boulevard camille","city":"SETE","cp":"34200","fuels":{"Gazole":{"p":2.249,"d":"2026-04-21"},"E85":{"p":0.999,"d":"2026-04-06"},"E10":{"p":2.029,"d":"2026-04-29"},"SP98":{"p":2.109,"d":"2026-04-29"}},"brand":"Avia","h24":true,"services":["Relais colis","Boutique alimentaire","Restauration à emporter","Station de gonflage","Lavage automatique","Lavage manuel","Vente de gaz domestique (Butane, Propane)","Vente d'additifs carburants","Automate CB 24/24"]},{"id":34190001,"lat":43.93026,"lng":3.70595,"addr":"Quartier des Calquières","city":"GANGES","cp":"34190","fuels":{"Gazole":{"p":2.153,"d":"2026-04-30"},"E85":{"p":0.759,"d":"2026-04-18"},"E10":{"p":2.023,"d":"2026-04-30"},"SP98":{"p":2.097,"d":"2026-04-29"}},"brand":"Système U","services":["Toilettes publiques","Douches","Laverie","Relais colis","Boutique alimentaire","Boutique non alimentaire","Restauration à emporter","Restauration sur place","Bar","Vente de fioul domestique","Vente de pétrole lampant","Station de gonflage","Aire de camping-cars","Location de véhicule","Piste poids lourds","Lavage automatique","Lavage manuel","Espace bébé","Services réparation / entretien","Vente de gaz domestique (Butane, Propane)","DAB (Distributeur automatique de billets)"]},{"id":34000009,"lat":43.606,"lng":3.887,"addr":"427 Avenue des États du Languedoc","city":"Montpellier","cp":"34000","fuels":{"Gazole":{"p":2.179,"d":"2026-05-01"},"E10":{"p":1.999,"d":"2026-05-01"},"SP98":{"p":2.054,"d":"2026-05-01"}},"brand":"Esso"},{"id":34130002,"lat":43.639,"lng":3.964,"addr":"ECOPARC DEPARTEMENTAL CD.112","city":"SAINT-AUNES","cp":"34130","fuels":{"Gazole":{"p":2.132,"d":"2026-04-30"},"E85":{"p":0.799,"d":"2026-04-30"},"E10":{"p":1.99,"d":"2026-04-30"},"SP98":{"p":2.089,"d":"2026-04-30"}},"brand":"Leclerc","h24":true,"services":["Toilettes publiques","Boutique alimentaire","Boutique non alimentaire","Restauration à emporter","Restauration sur place","Bar","Vente de fioul domestique","Location de véhicule","Piste poids lourds","Lavage automatique","Lavage manuel","Espace bébé","Services réparation / entretien","Vente de gaz domestique (Butane, Propane)","Bornes électriques","Wifi","Automate CB 24/24","DAB (Distributeur automatique de billets)"]},{"id":34600002,"lat":43.562,"lng":3.181,"addr":"Station Service de BEL AIR","city":"FAUGERES","cp":"34600","fuels":{"Gazole":{"p":2.24,"d":"2026-04-30"},"SP95":{"p":2.08,"d":"2026-04-30"}},"brand":"Gallien","h24":true,"services":["Boutique alimentaire","Restauration à emporter","Vente de fioul domestique","Carburant additivé","Piste poids lourds","Automate CB 24/24"]},{"id":34430003,"lat":43.571,"lng":3.847,"addr":"ROUTE DE SETE","city":"SAINT JEAN DE VEDAS","cp":"34430","fuels":{"Gazole":{"p":2.2,"d":"2026-04-30"},"E10":{"p":2.028,"d":"2026-04-30"},"SP98":{"p":2.163,"d":"2026-04-30"}},"brand":"Carrefour","h24":true,"services":["Toilettes publiques","Boutique alimentaire","Restauration à emporter","Carburant additivé","Location de véhicule","Piste poids lourds","Lavage automatique","Vente de gaz domestique (Butane, Propane)","Bornes électriques","Automate CB 24/24","DAB (Distributeur automatique de billets)"]},{"id":34280004,"lat":43.56218,"lng":4.08704,"addr":"AVENUE DE L'EUROPE","city":"LA GRANDE MOTTE","cp":"34280","fuels":{"Gazole":{"p":2.09,"d":"2026-05-01"},"E10":{"p":1.99,"d":"2026-05-01"}},"brand":"TotalEnergies","services":["Boutique alimentaire","Station de gonflage","Lavage automatique","Lavage manuel","Vente de gaz domestique (Butane, Propane)","DAB (Distributeur automatique de billets)"]},{"id":34300001,"lat":43.299,"lng":3.473,"addr":"Boulevard Maurice Pacull","city":"AGDE","cp":"34300","fuels":{"Gazole":{"p":2.159,"d":"2026-04-21"},"SP95":{"p":2.034,"d":"2026-04-29"},"E85":{"p":0.824,"d":"2026-04-14"},"E10":{"p":1.99,"d":"2026-04-29"},"SP98":{"p":2.059,"d":"2026-04-29"}},"brand":"Système U","h24":true,"services":["Laverie","Station de gonflage","Carburant additivé","Aire de camping-cars","Location de véhicule","Piste poids lourds","Lavage automatique","Lavage manuel","Vente de gaz domestique (Butane, Propane)","Automate CB 24/24","DAB (Distributeur automatique de billets)"]},{"id":34440005,"lat":43.292078109539005,"lng":3.1193382006736,"addr":"60 IMPASSE DES CHARMES","city":"NISSAN LEZ ENSERUNE","cp":"34440","fuels":{"Gazole":{"p":2.196,"d":"2026-04-23"},"E85":{"p":0.849,"d":"2026-04-20"},"E10":{"p":2.019,"d":"2026-04-30"},"SP98":{"p":2.069,"d":"2026-04-30"}},"brand":"Carrefour","h24":true,"services":["Vente de gaz domestique (Butane, Propane)","Automate CB 24/24"]},{"id":34170006,"lat":43.638321,"lng":3.926832,"addr":"Z A AUBE ROUGE","city":"CASTELNAU LE LEZ","cp":"34170","fuels":{"Gazole":{"p":2.239,"d":"2026-04-21"},"E10":{"p":2.078,"d":"2026-04-30"},"SP98":{"p":2.179,"d":"2026-04-30"}},"brand":"Casino","h24":true,"services":["Laverie","Relais colis","Restauration à emporter","Automate CB 24/24"]},{"id":34220001,"lat":43.487,"lng":2.771,"addr":"Avenue de la Gare","city":"SAINT-PONS-DE-THOMIèRES","cp":"34220","fuels":{"Gazole":{"p":2.179,"d":"2026-04-30"},"SP95":{"p":2.069,"d":"2026-04-30"},"SP98":{"p":2.122,"d":"2026-04-30"}},"brand":"Système U","h24":true,"services":["Toilettes publiques","Laverie","Relais colis","Boutique alimentaire","Boutique non alimentaire","Vente de fioul domestique","Station de gonflage","Location de véhicule","Piste poids lourds","Lavage manuel","Vente de gaz domestique (Butane, Propane)","Vente d'additifs carburants","Automate CB 24/24"]},{"id":34400017,"lat":43.71248,"lng":4.13135,"addr":"AUTOROUTE A9 - AIRE AMBRUSSUM SUD","city":"VILLETELLE","cp":"34400","fuels":{"Gazole":{"p":2.09,"d":"2026-05-01"},"E85":{"p":0.999,"d":"2026-05-01"},"GPLc":{"p":1.159,"d":"2026-05-01"},"E10":{"p":1.99,"d":"2026-05-01"},"SP98":{"p":1.99,"d":"2026-05-01"}},"brand":"TotalEnergies","services":["Toilettes publiques","Douches","Boutique alimentaire","Boutique non alimentaire","Restauration à emporter","Restauration sur place","Station de gonflage","Carburant additivé","Piste poids lourds","Espace bébé","DAB (Distributeur automatique de billets)"]},{"id":34690004,"lat":43.549,"lng":3.782,"addr":"RD 613","city":"FABREGUES","cp":"34690","fuels":{"Gazole":{"p":2.199,"d":"2026-04-30"},"E85":{"p":0.818,"d":"2026-04-30"},"GPLc":{"p":1.099,"d":"2026-04-30"},"E10":{"p":1.999,"d":"2026-04-30"},"SP98":{"p":2.119,"d":"2026-04-30"}},"brand":"Intermarché","services":["Laverie","Piste poids lourds","Vente de gaz domestique (Butane, Propane)","Vente d'additifs carburants"]},{"id":34600004,"lat":43.611861511738,"lng":3.1708982933764998,"addr":"57 Route de Clermont l'herault","city":"BEDARIEUX","cp":"34600","fuels":{"Gazole":{"p":2.149,"d":"2026-04-30"},"E85":{"p":0.818,"d":"2026-04-30"},"E10":{"p":1.999,"d":"2026-04-30"},"SP98":{"p":2.095,"d":"2026-04-30"}},"brand":"U","h24":true,"services":["Relais colis","Lavage automatique","Vente de gaz domestique (Butane, Propane)","Bornes électriques","Automate CB 24/24"]},{"id":34120001,"lat":43.454,"lng":3.421,"addr":"26 AVENUE DE VERDUN","city":"Pézenas","cp":"34120","fuels":{"Gazole":{"p":2.25,"d":"2026-04-30"},"SP95":{"p":1.99,"d":"2026-04-30"}},"brand":"TotalEnergies","h24":true,"services":["Toilettes publiques","Boutique non alimentaire","Vente de fioul domestique","Station de gonflage","Carburant additivé","Piste poids lourds","Lavage automatique","Services réparation / entretien","Vente de gaz domestique (Butane, Propane)","Automate CB 24/24"]},{"id":34700001,"lat":43.724,"lng":3.324,"addr":"55 Avenue du Général de Gaulle","city":"LODèVE","cp":"34700","fuels":{"Gazole":{"p":2.169,"d":"2026-04-30"},"E85":{"p":0.739,"d":"2026-04-28"},"E10":{"p":2.019,"d":"2026-04-30"}},"brand":"Système U","h24":true,"services":["Toilettes publiques","Relais colis","Boutique alimentaire","Boutique non alimentaire","Restauration à emporter","Restauration sur place","Bar","Station de gonflage","Location de véhicule","Lavage automatique","Vente de gaz domestique (Butane, Propane)","Bornes électriques","Automate CB 24/24","DAB (Distributeur automatique de billets)"]},{"id":34440004,"lat":43.308839424172,"lng":3.1681367941724004,"addr":"ROUTE DE NARBONNE","city":"COLOMBIERS","cp":"34440","fuels":{"Gazole":{"p":2.193,"d":"2026-04-30"},"E10":{"p":2.065,"d":"2026-04-30"},"SP98":{"p":2.135,"d":"2026-04-30"}},"brand":"Système U","h24":true,"services":["Laverie","Piste poids lourds","Lavage manuel","Automate CB 24/24"]},{"id":34290001,"lat":43.422,"lng":3.313,"addr":"1 Avenue du MAS VIEL","city":"SERVIAN","cp":"34290","fuels":{"Gazole":{"p":2.195,"d":"2026-04-28"},"SP95":{"p":2.08,"d":"2026-04-28"},"E85":{"p":0.799,"d":"2026-04-27"},"E10":{"p":2.049,"d":"2026-04-28"}},"brand":"U","h24":true,"services":["Toilettes publiques","Laverie","Relais colis","Boutique alimentaire","Boutique non alimentaire","Restauration à emporter","Restauration sur place","Bar","Station de gonflage","Carburant additivé","Location de véhicule","Piste poids lourds","Lavage automatique","Lavage manuel","Vente de gaz domestique (Butane, Propane)","Vente d'additifs carburants","Automate CB 24/24","DAB (Distributeur automatique de billets)"]},{"id":34800004,"lat":43.618,"lng":3.452,"addr":"2 rue du servent","city":"Clermont-l'Hérault","cp":"34800","fuels":{"Gazole":{"p":2.169,"d":"2026-04-30"},"GPLc":{"p":1.049,"d":"2026-02-21"},"E10":{"p":1.989,"d":"2026-04-27"},"SP98":{"p":2.129,"d":"2026-04-07"}},"brand":"Intermarché","h24":true,"services":["Toilettes publiques","Relais colis","Boutique alimentaire","Boutique non alimentaire","Restauration à emporter","Restauration sur place","Bar","Station de gonflage","Carburant additivé","Location de véhicule","Piste poids lourds","Lavage automatique","Lavage manuel","Vente de gaz domestique (Butane, Propane)","Bornes électriques","Vente d'additifs carburants","Wifi","Automate CB 24/24","DAB (Distributeur automatique de billets)"]},{"id":34000013,"lat":43.608,"lng":3.916,"addr":"1160 AV. PIERRE MENDES FRANCE","city":"MONTPELLIER","cp":"34000","fuels":{"Gazole":{"p":2.09,"d":"2026-05-01"},"E85":{"p":0.859,"d":"2026-05-01"}},"brand":"TotalEnergies","h24":true,"services":["Relais colis","Boutique alimentaire","Station de gonflage","Carburant additivé","Lavage automatique","Vente de gaz domestique (Butane, Propane)","Automate CB 24/24"]},{"id":34790004,"lat":43.645885,"lng":3.8109659999999996,"addr":"790 Route de Montpellier","city":"Grabels","cp":"34790","fuels":{"Gazole":{"p":2.209,"d":"2026-04-28"},"E85":{"p":0.799,"d":"2026-04-21"},"E10":{"p":2.049,"d":"2026-04-29"},"SP98":{"p":2.109,"d":"2026-04-29"}},"brand":"Système U","services":["Laverie","Relais colis","Boutique alimentaire","Boutique non alimentaire","Restauration à emporter","Restauration sur place","Station de gonflage","Location de véhicule","Lavage automatique","Lavage manuel","Vente de gaz domestique (Butane, Propane)","Vente d'additifs carburants","Automate CB 24/24"]},{"id":34150001,"lat":43.687,"lng":3.585,"addr":"Route de Saint-Guilhem","city":"ANIANE","cp":"34150","fuels":{"Gazole":{"p":2.199,"d":"2026-04-30"},"E10":{"p":2.029,"d":"2026-04-30"}},"brand":"Spar","services":["Boutique alimentaire","Vente de gaz domestique (Butane, Propane)","DAB (Distributeur automatique de billets)"]},{"id":34000018,"lat":43.586188,"lng":3.889156,"addr":"AVENUE DU MAS D'ARGELLIERS","city":"Montpellier","cp":"34000","fuels":{"Gazole":{"p":2.17,"d":"2026-04-30"},"GPLc":{"p":1.106,"d":"2026-04-21"},"E10":{"p":2,"d":"2026-04-30"},"SP98":{"p":2.17,"d":"2026-04-30"}},"brand":"Intermarché","h24":true,"services":["Automate CB 24/24"]},{"id":34510003,"lat":43.385493,"lng":3.4772320000000003,"addr":"2 RUE DES ACACIAS","city":"FLORENSAC","cp":"34510","fuels":{"Gazole":{"p":2.195,"d":"2026-04-25"},"E10":{"p":2.039,"d":"2026-04-24"},"SP98":{"p":2.139,"d":"2026-04-24"}},"brand":"Dyneff","h24":true,"services":["Boutique alimentaire","Automate CB 24/24"]},{"id":34160004,"lat":43.756975065519,"lng":4.0843305840957,"addr":"543 AV FREDERIC MISTRAL","city":"BOISSERON","cp":"34160","fuels":{"Gazole":{"p":2.39,"d":"2026-04-22"},"SP95":{"p":2.16,"d":"2026-04-22"},"SP98":{"p":2.19,"d":"2026-04-22"}},"brand":"Garage de Boisseron","h24":true,"services":["Station de gonflage","Piste poids lourds","Services réparation / entretien","Vente de gaz domestique (Butane, Propane)","Vente d'additifs carburants","Automate CB 24/24"]},{"id":34420005,"lat":43.298277999999996,"lng":3.3450209999999996,"addr":"1 Av. de la Méditerranée","city":"Portiragnes","cp":"34420","fuels":{"Gazole":{"p":2.199,"d":"2026-04-24"},"E85":{"p":0.815,"d":"2026-04-24"},"E10":{"p":2.029,"d":"2026-04-29"},"SP98":{"p":2.139,"d":"2026-04-29"}},"brand":"U","h24":true,"services":["Station de gonflage","Lavage automatique","Automate CB 24/24"]},{"id":34920002,"lat":43.639,"lng":3.932,"addr":"Route de Nîmes","city":"Le Crès","cp":"34920","fuels":{"Gazole":{"p":2.159,"d":"2026-04-30"},"E10":{"p":1.999,"d":"2026-04-30"},"SP98":{"p":2.069,"d":"2026-04-30"}},"brand":"Carrefour","services":["Toilettes publiques","Laverie","Boutique alimentaire","Boutique non alimentaire","Restauration à emporter","Restauration sur place","Bar","Station de gonflage","Location de véhicule","Piste poids lourds","Lavage automatique","Vente de gaz domestique (Butane, Propane)","DAB (Distributeur automatique de billets)"]},{"id":34402001,"lat":43.681,"lng":4.148,"addr":"Rue du Levant","city":"LUNEL","cp":"34400","fuels":{"Gazole":{"p":2.137,"d":"2026-04-30"},"E85":{"p":0.718,"d":"2026-04-30"},"E10":{"p":1.98,"d":"2026-04-30"},"SP98":{"p":2.055,"d":"2026-04-30"}},"brand":"Leclerc","services":["Toilettes publiques","Boutique alimentaire","Boutique non alimentaire","Restauration sur place","Bar","Vente de fioul domestique","Vente de pétrole lampant","Station de gonflage","Vente de gaz domestique (Butane, Propane)","DAB (Distributeur automatique de billets)"]},{"id":34400013,"lat":43.683,"lng":4.152,"addr":"CIAL LES PORTES DE LA MER","city":"Lunel","cp":"34400","fuels":{"Gazole":{"p":2.145,"d":"2026-04-30"},"E85":{"p":0.819,"d":"2026-04-17"},"GPLc":{"p":1.159,"d":"2026-04-17"},"E10":{"p":1.979,"d":"2026-04-30"},"SP98":{"p":2.099,"d":"2026-04-30"}},"brand":"Intermarché","h24":true,"services":["Toilettes publiques","Laverie","Relais colis","Boutique alimentaire","Boutique non alimentaire","Restauration à emporter","Restauration sur place","Bar","Station de gonflage","Location de véhicule","Piste poids lourds","Lavage automatique","Lavage manuel","Services réparation / entretien","Vente de gaz domestique (Butane, Propane)","Vente d'additifs carburants","Automate CB 24/24","DAB (Distributeur automatique de billets)"]},{"id":34730001,"lat":43.69,"lng":3.863,"addr":"Route de Montpellier","city":"PRADES-LE-LEZ","cp":"34730","fuels":{"Gazole":{"p":2.215,"d":"2026-04-30"},"E85":{"p":0.819,"d":"2026-04-17"},"E10":{"p":2.045,"d":"2026-04-29"},"SP98":{"p":2.145,"d":"2026-04-25"}},"brand":"Intermarché","h24":true,"services":["Vente de pétrole lampant","Station de gonflage","Piste poids lourds","Lavage automatique","Lavage manuel","Vente de gaz domestique (Butane, Propane)","Automate CB 24/24"]},{"id":34240001,"lat":43.588046,"lng":3.082975,"addr":"3 avenue d'alsace","city":"lamalou les bains","cp":"34240","fuels":{"Gazole":{"p":2.25,"d":"2026-04-08"},"SP98":{"p":1.99,"d":"2026-04-08"}},"brand":"TotalEnergies","services":["Carburant additivé","Location de véhicule","Services réparation / entretien","Bornes électriques","Vente d'additifs carburants"]}]