[{"id":44000009,"lat":47.204,"lng":-1.547,"addr":"16 BD DES MARTYRS NANTAIS","city":"NANTES","cp":"44200","fuels":{"Gazole":{"p":2.09,"d":"2026-05-01"},"E10":{"p":1.99,"d":"2026-05-01"},"SP98":{"p":1.99,"d":"2026-05-01"}},"brand":"TotalEnergies","services":["Toilettes publiques","Boutique alimentaire","Boutique non alimentaire","Station de gonflage","Piste poids lourds","Lavage manuel","Vente de gaz domestique (Butane, Propane)"]},{"id":44260003,"lat":47.35931,"lng":-1.86116,"addr":"Rue des Musiciens","city":"Malville","cp":"44260","fuels":{"Gazole":{"p":2.139,"d":"2026-04-22"},"SP95":{"p":2.009,"d":"2026-04-22"},"SP98":{"p":2.058,"d":"2026-04-22"}},"brand":"Système U","services":["Piste poids lourds"]},{"id":44720005,"lat":47.386232393331,"lng":-2.2034903965863997,"addr":"PLACE DE LA COMMUNE DE PARIS","city":"Saint-Joachim","cp":"44720","fuels":{"Gazole":{"p":2.489,"d":"2026-04-07"},"SP95":{"p":2.029,"d":"2026-04-28"},"SP98":{"p":2.109,"d":"2026-04-28"}},"brand":"Carrefour","h24":true,"services":["Toilettes publiques","Relais colis","Boutique alimentaire","Automate CB 24/24"]},{"id":44220005,"lat":47.21363,"lng":-1.72222,"addr":"Boulevard Paul Langevin","city":"COUERON","cp":"44220","fuels":{"Gazole":{"p":2.209,"d":"2026-04-30"},"SP95":{"p":1.955,"d":"2026-04-30"},"E10":{"p":1.909,"d":"2026-04-30"}},"brand":"Carrefour","services":["Lavage manuel","Vente de gaz domestique (Butane, Propane)","DAB (Distributeur automatique de billets)"]},{"id":44120005,"lat":47.173,"lng":-1.474,"addr":"BOULEVARD DE L'EUROPE","city":"VERTOU","cp":"44120","fuels":{"Gazole":{"p":2.09,"d":"2026-05-01"},"E85":{"p":0.829,"d":"2026-05-01"},"GPLc":{"p":0.999,"d":"2026-05-01"},"E10":{"p":1.99,"d":"2026-05-01"}},"brand":"TotalEnergies","h24":true,"services":["Boutique alimentaire","Boutique non alimentaire","Station de gonflage","Carburant additivé","Piste poids lourds","Lavage automatique","Services réparation / entretien","Vente de gaz domestique (Butane, Propane)","Vente d'additifs carburants","Wifi","Automate CB 24/24"]},{"id":44780002,"lat":47.482822997313995,"lng":-2.1613944821039,"addr":"la gargouille","city":"MISSILLAC","cp":"44780","fuels":{"Gazole":{"p":2.286,"d":"2026-04-14"},"E10":{"p":1.983,"d":"2026-04-14"}},"brand":"Spar","h24":true,"services":["Laverie","Relais colis","Lavage automatique","Lavage manuel","Vente de gaz domestique (Butane, Propane)","Automate CB 24/24"]},{"id":44270001,"lat":46.999,"lng":-1.817,"addr":"Boulevard des Prises","city":"MACHECOUL","cp":"44270","fuels":{"Gazole":{"p":2.148,"d":"2026-04-30"},"SP95":{"p":2.029,"d":"2026-04-29"},"E85":{"p":0.719,"d":"2026-04-24"},"SP98":{"p":2.069,"d":"2026-04-29"}},"brand":"Système U","h24":true,"services":["Toilettes publiques","Laverie","Relais colis","Restauration à emporter","Vente de gaz domestique (Butane, Propane)","Bornes électriques","Vente d'additifs carburants","Wifi","Automate CB 24/24","DAB (Distributeur automatique de billets)"]},{"id":44110002,"lat":47.705,"lng":-1.389,"addr":"16 Rue du Général Patton","city":"CHâTEAUBRIANT","cp":"44110","fuels":{"Gazole":{"p":2.09,"d":"2026-05-01"},"E10":{"p":1.99,"d":"2026-05-01"}},"brand":"TotalEnergies","services":["Toilettes publiques","Boutique non alimentaire","Station de gonflage","Carburant additivé","Location de véhicule","Piste poids lourds","Services réparation / entretien","Vente d'additifs carburants","Wifi"]},{"id":44360007,"lat":47.278,"lng":-1.721,"addr":"LIEU DIT TOURNEBRIDE","city":"Saint-Étienne-de-Montluc","cp":"44360","fuels":{"Gazole":{"p":2.149,"d":"2026-04-30"},"E85":{"p":0.699,"d":"2026-04-30"},"E10":{"p":1.989,"d":"2026-04-30"},"SP98":{"p":2.059,"d":"2026-04-30"}},"brand":"Leclerc","h24":true,"services":["Station de gonflage","Carburant additivé","Location de véhicule","Piste poids lourds","Lavage automatique","Lavage manuel","Vente d'additifs carburants","Automate CB 24/24"]},{"id":44400006,"lat":47.18,"lng":-1.533,"addr":"29 Rue de la Blordière","city":"REZé","cp":"44400","fuels":{"Gazole":{"p":2.162,"d":"2026-04-29"},"E10":{"p":2.029,"d":"2026-04-30"},"SP98":{"p":2.106,"d":"2026-04-29"}},"brand":"Intermarché","services":["Boutique alimentaire","Restauration sur place","Vente de gaz domestique (Butane, Propane)","DAB (Distributeur automatique de billets)"]},{"id":44530003,"lat":47.50937,"lng":-2.04035,"addr":"route de Pontchâteau","city":"Saint-Gildas-des-Bois","cp":"44530","fuels":{"Gazole":{"p":2.149,"d":"2026-04-30"},"SP95":{"p":2.049,"d":"2026-04-30"},"SP98":{"p":2.089,"d":"2026-04-30"}},"brand":"U"},{"id":44118003,"lat":47.09,"lng":-1.611,"addr":"78 Grand'Rue","city":"La Chevrolière","cp":"44118","fuels":{"Gazole":{"p":2.199,"d":"2026-04-27"},"SP95":{"p":2.059,"d":"2026-04-27"},"SP98":{"p":2.199,"d":"2026-04-27"}},"brand":"Carrefour","services":["Vente de gaz domestique (Butane, Propane)","DAB (Distributeur automatique de billets)"]},{"id":44700005,"lat":47.24,"lng":-1.59,"addr":"164 Route de Vannes","city":"ORVAULT","cp":"44700","fuels":{"Gazole":{"p":2.239,"d":"2026-05-01"},"E10":{"p":2.069,"d":"2026-05-01"},"SP98":{"p":2.219,"d":"2026-05-01"}},"brand":"Esso","h24":true,"services":["Relais colis","Station de gonflage","Carburant additivé","Automate CB 24/24"]},{"id":44430003,"lat":47.237,"lng":-1.35,"addr":"Place Bretagne","city":"Le Loroux-Bottereau","cp":"44430","fuels":{"Gazole":{"p":2.229,"d":"2026-04-16"},"E10":{"p":1.959,"d":"2026-04-08"}},"brand":"Intermarché","h24":true,"services":["Station de gonflage","Vente de gaz domestique (Butane, Propane)","Automate CB 24/24","DAB (Distributeur automatique de billets)"]},{"id":44300020,"lat":47.26,"lng":-1.576,"addr":"162 Route de Rennes","city":"Nantes","cp":"44300","fuels":{"Gazole":{"p":2.299,"d":"2026-04-30"},"E85":{"p":0.965,"d":"2026-04-30"},"GPLc":{"p":1.059,"d":"2026-04-30"},"E10":{"p":2.069,"d":"2026-04-30"},"SP98":{"p":2.199,"d":"2026-04-30"}},"brand":"Avia","h24":true,"services":["Boutique alimentaire","Boutique non alimentaire","Station de gonflage","Carburant additivé","Aire de camping-cars","Lavage automatique","Lavage manuel","Vente de gaz domestique (Butane, Propane)","Vente d'additifs carburants","Automate CB 24/24"]},{"id":44700003,"lat":47.24624,"lng":-1.58938,"addr":"54, avenue de la Ferrière","city":"Orvault","cp":"44700","fuels":{"Gazole":{"p":2.239,"d":"2026-04-28"},"E85":{"p":0.819,"d":"2026-04-17"},"E10":{"p":1.989,"d":"2026-04-28"},"SP98":{"p":2.099,"d":"2026-04-28"}},"brand":"Intermarché","services":["Relais colis","Boutique alimentaire","Restauration à emporter","Station de gonflage","Carburant additivé","DAB (Distributeur automatique de billets)"]},{"id":44630002,"lat":47.5425428,"lng":-1.8827017000000001,"addr":"11 bis rue charles perron","city":"Plessé","cp":"44630","fuels":{"Gazole":{"p":2.21,"d":"2026-04-27"},"SP95":{"p":2.068,"d":"2026-04-27"},"SP98":{"p":2.155,"d":"2026-04-27"}},"brand":"Carrefour","services":["Boutique alimentaire","Vente de gaz domestique (Butane, Propane)"]},{"id":44880001,"lat":47.26,"lng":-1.655,"addr":"20 Rue de Nantes","city":"SAUTRON","cp":"44880","fuels":{"Gazole":{"p":2.169,"d":"2026-04-28"},"SP95":{"p":2.059,"d":"2026-04-30"},"E85":{"p":0.759,"d":"2026-04-24"}},"brand":"Système U","services":["Station de gonflage","Carburant additivé","Piste poids lourds","Lavage automatique","Lavage manuel","Vente de gaz domestique (Butane, Propane)","DAB (Distributeur automatique de billets)"]},{"id":44850002,"lat":47.361,"lng":-1.408,"addr":"2 Rue Beau Soleil","city":"SAINT-MARS-DU-DéSERT","cp":"44850","fuels":{"Gazole":{"p":2.189,"d":"2026-04-30"},"SP95":{"p":2.049,"d":"2026-04-30"},"SP98":{"p":2.089,"d":"2026-04-30"}},"brand":"Système U","h24":true,"services":["Laverie","Location de véhicule","Lavage automatique","Lavage manuel","Vente de gaz domestique (Butane, Propane)","Wifi","Automate CB 24/24","DAB (Distributeur automatique de billets)"]},{"id":44120007,"lat":47.187,"lng":-1.485,"addr":"432 ROUTE DE CLISSON","city":"VERTOU","cp":"44120","fuels":{"Gazole":{"p":2.135,"d":"2026-04-29"},"GPLc":{"p":0.999,"d":"2026-04-29"},"E10":{"p":2.032,"d":"2026-04-29"},"SP98":{"p":2.109,"d":"2026-04-29"}},"brand":"Système U","h24":true,"services":["Laverie","Station de gonflage","Carburant additivé","Location de véhicule","Piste poids lourds","Lavage automatique","Lavage manuel","GNV","Vente de gaz domestique (Butane, Propane)","Wifi","Automate CB 24/24","DAB (Distributeur automatique de billets)"]},{"id":44830002,"lat":47.144,"lng":-1.679,"addr":"Rue de Nantes","city":"BOUAYE","cp":"44830","fuels":{"Gazole":{"p":2.169,"d":"2026-04-30"},"SP95":{"p":2.069,"d":"2026-04-27"},"SP98":{"p":2.109,"d":"2026-04-30"}},"brand":"Système U","services":["Relais colis","Station de gonflage","Location de véhicule","Piste poids lourds","Lavage automatique","Lavage manuel","Vente de gaz domestique (Butane, Propane)","Wifi","DAB (Distributeur automatique de billets)"]},{"id":44406001,"lat":47.194,"lng":-1.572,"addr":"1 Impasse Ordronneau","city":"REZé","cp":"44400","fuels":{"Gazole":{"p":2.155,"d":"2026-04-30"},"GPLc":{"p":0.96,"d":"2026-04-30"},"E10":{"p":2.009,"d":"2026-04-30"},"SP98":{"p":2.023,"d":"2026-04-30"}},"brand":"Leclerc","h24":true,"services":["Station de gonflage","Vente de gaz domestique (Butane, Propane)","Automate CB 24/24","DAB (Distributeur automatique de billets)"]},{"id":44810001,"lat":47.41492,"lng":-1.66024,"addr":"51 RUE DE L'OCEAN","city":"Héric","cp":"44810","fuels":{"Gazole":{"p":2.159,"d":"2026-04-30"},"E10":{"p":2.019,"d":"2026-04-30"},"SP98":{"p":2.119,"d":"2026-04-30"}},"brand":"Système U"},{"id":44400009,"lat":47.16,"lng":-1.551,"addr":"RUE BAUCHE THIRAUD - ROCADE SUD","city":"REZE","cp":"44400","fuels":{"Gazole":{"p":2.09,"d":"2026-05-01"},"E85":{"p":0.836,"d":"2026-05-01"},"GPLc":{"p":0.999,"d":"2026-05-01"},"E10":{"p":1.99,"d":"2026-05-01"},"SP98":{"p":1.99,"d":"2026-05-01"}},"brand":"TotalEnergies","services":["Toilettes publiques","Boutique alimentaire","Boutique non alimentaire","Restauration à emporter","Station de gonflage","Carburant additivé","Piste poids lourds","Lavage automatique","Lavage manuel","Espace bébé","DAB (Distributeur automatique de billets)"]},{"id":44150001,"lat":47.397,"lng":-1.19,"addr":"L'Aubinière","city":"ANCENIS","cp":"44150","fuels":{"Gazole":{"p":2.27,"d":"2026-04-30"},"SP95":{"p":2.23,"d":"2026-04-07"},"GPLc":{"p":1.079,"d":"2025-12-22"},"SP98":{"p":2.26,"d":"2026-04-07"}},"brand":"Avia","h24":true,"services":["Boutique alimentaire","Boutique non alimentaire","Vente de fioul domestique","Carburant additivé","Piste poids lourds","GNV","Automate CB 24/24"]},{"id":44190008,"lat":47.099,"lng":-1.282,"addr":"Rue des Malifestes","city":"Clisson","cp":"44190","fuels":{"Gazole":{"p":2.131,"d":"2026-04-30"},"SP95":{"p":2.001,"d":"2026-04-30"},"E85":{"p":0.71,"d":"2026-04-30"},"E10":{"p":1.987,"d":"2026-04-30"},"SP98":{"p":2.04,"d":"2026-04-30"}},"brand":"Leclerc","h24":true,"services":["Station de gonflage","Piste poids lourds","Lavage automatique","Lavage manuel","Vente d'additifs carburants","Automate CB 24/24"]},{"id":44480002,"lat":47.32906,"lng":-2.08771,"addr":"Rue du Stade","city":"DONGES","cp":"44480","fuels":{"Gazole":{"p":2.099,"d":"2026-04-24"},"E10":{"p":1.919,"d":"2026-04-24"},"SP98":{"p":2.089,"d":"2026-04-24"}},"brand":"Intermarché","services":["Vente de gaz domestique (Butane, Propane)","DAB (Distributeur automatique de billets)"]},{"id":44560001,"lat":47.284,"lng":-2.016,"addr":"Rue Férréol Prézelin","city":"PAIMBOEUF","cp":"44560","fuels":{"Gazole":{"p":2.18,"d":"2026-04-29"},"SP95":{"p":2.053,"d":"2026-04-29"},"E10":{"p":2.017,"d":"2026-04-29"},"SP98":{"p":2.097,"d":"2026-04-29"}},"brand":"Système U","services":["Station de gonflage","Location de véhicule","Piste poids lourds","Lavage automatique","Lavage manuel"]},{"id":44320007,"lat":47.2063373,"lng":-2.0440813,"addr":"CC L'Iliade","city":"Saint Pere En Retz","cp":"44320","fuels":{"Gazole":{"p":2.18,"d":"2026-04-29"},"SP95":{"p":2.053,"d":"2026-04-29"},"SP98":{"p":2.097,"d":"2026-04-29"}},"brand":"U"},{"id":44300013,"lat":47.235,"lng":-1.52,"addr":"1 Rue du Croissant","city":"NANTES","cp":"44300","fuels":{"Gazole":{"p":2.219,"d":"2026-05-01"},"E10":{"p":2.049,"d":"2026-05-01"},"SP98":{"p":2.169,"d":"2026-05-01"}},"brand":"Esso","h24":true,"services":["Relais colis","Station de gonflage","Carburant additivé","Lavage automatique","Automate CB 24/24"]},{"id":44340004,"lat":47.159,"lng":-1.6,"addr":"ZONE NANTES ATLANTIQUE","city":"Bouguenais","cp":"44340","fuels":{"Gazole":{"p":2.09,"d":"2026-04-30"},"SP95":{"p":1.99,"d":"2026-03-10"}},"brand":"Elan"},{"id":44420002,"lat":47.353,"lng":-2.512,"addr":"2 rue des Pins","city":"LA TURBALLE","cp":"44420","fuels":{"Gazole":{"p":2.137,"d":"2026-04-27"},"E10":{"p":1.997,"d":"2026-04-27"},"SP98":{"p":2.077,"d":"2026-04-27"}},"brand":"Système U","h24":true,"services":["Toilettes publiques","Laverie","Relais colis","Station de gonflage","Location de véhicule","Lavage automatique","Vente de gaz domestique (Butane, Propane)","Bornes électriques","Vente d'additifs carburants","Automate CB 24/24","DAB (Distributeur automatique de billets)"]},{"id":44340006,"lat":47.186,"lng":-1.602,"addr":"CD 723 - ZI DE CHEVIRE","city":"BOUGUENAIS","cp":"44340","fuels":{"Gazole":{"p":2.09,"d":"2026-05-01"},"E85":{"p":0.839,"d":"2026-05-01"},"E10":{"p":1.99,"d":"2026-05-01"}},"brand":"TotalEnergies","services":["Boutique alimentaire","Boutique non alimentaire","Station de gonflage","Carburant additivé","Piste poids lourds","Lavage automatique","Wifi"]},{"id":44250005,"lat":47.22914,"lng":-2.15541,"addr":"ROUTE BLEUE - LA HAUTIERE","city":"Saint-Brevin-les-Pins","cp":"44250","fuels":{"Gazole":{"p":2.09,"d":"2026-05-01"},"E85":{"p":0.843,"d":"2026-05-01"},"GPLc":{"p":1.019,"d":"2026-05-01"},"E10":{"p":1.99,"d":"2026-05-01"}},"brand":"TotalEnergies","services":["Boutique alimentaire","Boutique non alimentaire","Restauration à emporter","Restauration sur place","Station de gonflage","Carburant additivé","Piste poids lourds","Vente de gaz domestique (Butane, Propane)","DAB (Distributeur automatique de billets)"]},{"id":44130001,"lat":47.473061839157,"lng":-1.7469807605743002,"addr":"27 Route de l'Isac","city":"BLAIN","cp":"44130","fuels":{"Gazole":{"p":2.129,"d":"2026-04-30"},"SP95":{"p":2.06,"d":"2026-04-30"},"E10":{"p":1.995,"d":"2026-04-30"},"SP98":{"p":2.069,"d":"2026-04-30"}},"brand":"Système U","services":["Boutique non alimentaire","Restauration sur place","Bar","Station de gonflage","Location de véhicule","Piste poids lourds","Lavage automatique","Lavage manuel","Services réparation / entretien","Vente de gaz domestique (Butane, Propane)"]},{"id":44860002,"lat":47.129,"lng":-1.583,"addr":"Rue des Vignes","city":"PONT-SAINT-MARTIN","cp":"44860","fuels":{"Gazole":{"p":2.159,"d":"2026-04-30"},"SP95":{"p":2.059,"d":"2026-04-30"},"E10":{"p":2.019,"d":"2026-04-30"},"SP98":{"p":2.099,"d":"2026-04-30"}},"brand":"Système U","services":["Relais colis","Station de gonflage","Piste poids lourds","Vente de gaz domestique (Butane, Propane)","DAB (Distributeur automatique de billets)"]},{"id":44420003,"lat":47.397,"lng":-2.462,"addr":"rue des artisans","city":"MESQUER","cp":"44420","fuels":{"E10":{"p":1.939,"d":"2026-04-24"},"SP98":{"p":2.089,"d":"2026-04-24"}},"brand":"Carrefour","h24":true,"services":["Laverie","Relais colis","Restauration à emporter","Lavage automatique","Vente de gaz domestique (Butane, Propane)","Automate CB 24/24","DAB (Distributeur automatique de billets)"]},{"id":44400001,"lat":47.177,"lng":-1.559,"addr":"22 Rue de la Galarnière","city":"Rezé","cp":"44400","fuels":{"Gazole":{"p":2.155,"d":"2026-04-30"},"E10":{"p":2.015,"d":"2026-04-30"},"SP98":{"p":2.094,"d":"2026-04-30"}},"brand":"Système U","h24":true,"services":["Toilettes publiques","Relais colis","Station de gonflage","Location de véhicule","Lavage automatique","Lavage manuel","Vente de gaz domestique (Butane, Propane)","Automate CB 24/24","DAB (Distributeur automatique de billets)"]},{"id":44430004,"lat":47.234,"lng":-1.367,"addr":"Canton de la Haute Landelle, Routes de Nantes","city":"Loroux-Bottereau","cp":"44430","fuels":{"Gazole":{"p":2.138,"d":"2026-04-30"},"E85":{"p":0.729,"d":"2026-04-30"},"E10":{"p":1.975,"d":"2026-04-30"},"SP98":{"p":2.048,"d":"2026-04-30"}},"brand":"Leclerc","h24":true,"services":["Piste poids lourds","Vente d'additifs carburants","Automate CB 24/24"]},{"id":44110004,"lat":47.706,"lng":-1.385,"addr":"route de st nazaire la ville en bois","city":"CHâTEAUBRIANT","cp":"44110","fuels":{"Gazole":{"p":2.127,"d":"2026-04-30"},"E85":{"p":0.818,"d":"2026-04-21"},"E10":{"p":1.967,"d":"2026-04-30"},"SP98":{"p":2.062,"d":"2026-04-30"}},"brand":"Intermarché","h24":true,"services":["Laverie","Boutique alimentaire","Boutique non alimentaire","Restauration à emporter","Restauration sur place","Bar","Station de gonflage","Piste poids lourds","Vente de gaz domestique (Butane, Propane)","Automate CB 24/24","DAB (Distributeur automatique de billets)"]},{"id":44800008,"lat":47.211,"lng":-1.619,"addr":"BD CHARLES DE GAULLE - CD 17","city":"Saint-Herblain","cp":"44800","fuels":{"Gazole":{"p":2.09,"d":"2026-05-01"},"E10":{"p":1.99,"d":"2026-05-01"}},"brand":"TotalEnergies","h24":true,"services":["Relais colis","Boutique alimentaire","Boutique non alimentaire","Station de gonflage","Carburant additivé","Piste poids lourds","Lavage automatique","Vente de gaz domestique (Butane, Propane)","Wifi","Automate CB 24/24"]},{"id":44470005,"lat":47.3,"lng":-1.498,"addr":"Le souchais - route de Sucé","city":"Carquefou","cp":"44470","fuels":{"Gazole":{"p":2.189,"d":"2026-04-30"},"E85":{"p":0.809,"d":"2026-04-30"},"E10":{"p":2.019,"d":"2026-04-30"},"SP98":{"p":2.099,"d":"2026-04-30"}},"brand":"Système U"},{"id":44160006,"lat":47.449842495365004,"lng":-2.127482917,"addr":"RELAIS DE BEAULIEU RN 165","city":"PONTCHATEAU","cp":"44160","fuels":{"SP95":{"p":1.99,"d":"2026-04-22"},"SP98":{"p":1.99,"d":"2026-04-22"}},"brand":"TotalEnergies"},{"id":44590001,"lat":47.668,"lng":-1.663,"addr":"48 Rue Châteaubriant","city":"DERVAL","cp":"44590","fuels":{"Gazole":{"p":2.15,"d":"2026-04-28"},"E10":{"p":2.02,"d":"2026-04-28"},"SP98":{"p":2.15,"d":"2026-04-28"}},"brand":"Système U","h24":true,"services":["Toilettes publiques","Laverie","Relais colis","Boutique alimentaire","Boutique non alimentaire","Restauration à emporter","Restauration sur place","Bar","Station de gonflage","Carburant additivé","Location de véhicule","Piste poids lourds","Lavage automatique","Lavage manuel","Services réparation / entretien","Vente de gaz domestique (Butane, Propane)","Vente d'additifs carburants","Automate CB 24/24","DAB (Distributeur automatique de billets)"]},{"id":44220001,"lat":47.194,"lng":-1.53,"addr":"75 Boulevard Joliot Curie","city":"NANTES","cp":"44200","fuels":{"Gazole":{"p":2.189,"d":"2026-04-30"},"SP95":{"p":2.086,"d":"2026-04-30"},"SP98":{"p":2.122,"d":"2026-04-30"}},"brand":"Système U","h24":true,"services":["Automate CB 24/24","DAB (Distributeur automatique de billets)"]},{"id":44390001,"lat":47.439,"lng":-1.48,"addr":"1 rue de Bretagne - ZAC de la Pancarte","city":"NORT-SUR-ERDRE","cp":"44390","fuels":{"Gazole":{"p":2.149,"d":"2026-04-30"},"E85":{"p":0.819,"d":"2026-04-20"},"GPLc":{"p":1.099,"d":"2026-04-24"},"E10":{"p":1.989,"d":"2026-04-30"},"SP98":{"p":2.069,"d":"2026-04-30"}},"brand":"Intermarché","h24":true,"services":["Toilettes publiques","Boutique alimentaire","Boutique non alimentaire","Restauration à emporter","Location de véhicule","Piste poids lourds","Lavage automatique","Lavage manuel","Vente de gaz domestique (Butane, Propane)","Automate CB 24/24","DAB (Distributeur automatique de billets)"]},{"id":44230003,"lat":47.192,"lng":-1.492,"addr":"2 Rue Pierre Mendès France","city":"Saint-Sébastien-sur-Loire","cp":"44230","fuels":{"Gazole":{"p":2.135,"d":"2026-04-30"},"E85":{"p":0.799,"d":"2026-03-24"},"GPLc":{"p":0.999,"d":"2026-04-29"},"E10":{"p":2.032,"d":"2026-04-30"},"SP98":{"p":2.109,"d":"2026-04-30"}},"brand":"Auchan","h24":true,"services":["Station de gonflage","Piste poids lourds","Vente de gaz domestique (Butane, Propane)","Automate CB 24/24"]},{"id":44490002,"lat":47.286,"lng":-2.507,"addr":"rue emmanuel provost","city":"LE CROISIC","cp":"44490","fuels":{"Gazole":{"p":2.199,"d":"2026-04-27"},"E85":{"p":0.819,"d":"2026-04-23"},"E10":{"p":1.999,"d":"2026-04-30"},"SP98":{"p":2.099,"d":"2026-04-08"}},"brand":"Intermarché","h24":true,"services":["Laverie","Boutique alimentaire","Station de gonflage","Lavage automatique","Lavage manuel","Vente de gaz domestique (Butane, Propane)","Automate CB 24/24","DAB (Distributeur automatique de billets)"]},{"id":44220002,"lat":47.215,"lng":-1.685,"addr":"48 Boulevard de la Libération","city":"Couëron","cp":"44220","fuels":{"Gazole":{"p":2.149,"d":"2026-04-28"},"E10":{"p":1.999,"d":"2026-04-28"},"SP98":{"p":2.079,"d":"2026-04-28"}},"brand":"Station U","h24":true,"services":["Toilettes publiques","Relais colis","Restauration à emporter","Location de véhicule","Vente de gaz domestique (Butane, Propane)","Automate CB 24/24","DAB (Distributeur automatique de billets)"]},{"id":44240012,"lat":47.285,"lng":-1.55,"addr":"Rue d'Utrecht","city":"La chapelle sur Erdre","cp":"44240","fuels":{"Gazole":{"p":2.184,"d":"2026-04-30"},"E85":{"p":0.809,"d":"2026-04-30"},"GPLc":{"p":1.069,"d":"2026-04-30"},"E10":{"p":1.999,"d":"2026-04-30"},"SP98":{"p":2.078,"d":"2026-04-30"}},"brand":"Station U","h24":true,"services":["Relais colis","Restauration à emporter","Restauration sur place","Location de véhicule","Piste poids lourds","Vente de gaz domestique (Butane, Propane)","Automate CB 24/24","DAB (Distributeur automatique de billets)"]},{"id":44170001,"lat":47.57,"lng":-1.629,"addr":"15, Boulevard du Petit Versailles","city":"NOZAY","cp":"44170","fuels":{"Gazole":{"p":2.169,"d":"2026-04-30"},"E85":{"p":0.759,"d":"2026-04-28"},"E10":{"p":2.029,"d":"2026-04-30"},"SP98":{"p":2.129,"d":"2026-04-30"}},"brand":"U","h24":true,"services":["Laverie","Relais colis","Restauration à emporter","Station de gonflage","Carburant additivé","Aire de camping-cars","Location de véhicule","Piste poids lourds","Lavage automatique","Lavage manuel","Vente de gaz domestique (Butane, Propane)","Automate CB 24/24"]},{"id":44370008,"lat":47.418,"lng":-1.018,"addr":"AUTOROUTE A11 - AIRE VARADES LA BÉDOIRE","city":"VARADES","cp":"44370","fuels":{"Gazole":{"p":2.09,"d":"2026-05-01"},"E85":{"p":0.999,"d":"2026-05-01"},"E10":{"p":1.99,"d":"2026-05-01"},"SP98":{"p":1.99,"d":"2026-05-01"}},"brand":"TotalEnergies","services":["Toilettes publiques","Douches","Boutique alimentaire","Boutique non alimentaire","Restauration à emporter","Restauration sur place","Station de gonflage","Carburant additivé","Piste poids lourds","Espace bébé","Bornes électriques","Vente d'additifs carburants","Wifi"]},{"id":44650001,"lat":46.8886,"lng":-1.59155,"addr":"Avenue des Visitandines","city":"LEGE","cp":"44650","fuels":{"Gazole":{"p":2.119,"d":"2026-04-30"},"E85":{"p":0.779,"d":"2026-04-13"},"E10":{"p":1.979,"d":"2026-04-29"},"SP98":{"p":2.059,"d":"2026-04-29"}},"brand":"Système U","services":["Station de gonflage","Piste poids lourds","Lavage automatique","Lavage manuel","Vente de gaz domestique (Butane, Propane)","DAB (Distributeur automatique de billets)"]},{"id":44290001,"lat":47.635,"lng":-1.805,"addr":"7, rue des Boisseliers","city":"Guémené-Penfao","cp":"44290","fuels":{"Gazole":{"p":2.129,"d":"2026-04-28"},"E85":{"p":0.759,"d":"2026-04-27"},"E10":{"p":1.999,"d":"2026-04-28"},"SP98":{"p":2.099,"d":"2026-04-28"}},"h24":true,"services":["Station de gonflage","Piste poids lourds","Lavage automatique","Lavage manuel","Vente de gaz domestique (Butane, Propane)","Automate CB 24/24"]},{"id":44570001,"lat":47.301882584606,"lng":-2.212697736,"addr":"ZAC DE LA FONTAINE AU BRUN - 31 Rue de la Héronnière","city":"Trignac","cp":"44570","fuels":{"Gazole":{"p":2.151,"d":"2026-04-30"},"GPLc":{"p":1.018,"d":"2026-04-30"},"E10":{"p":1.994,"d":"2026-04-30"},"SP98":{"p":2.072,"d":"2026-04-30"}},"brand":"Auchan","h24":true,"services":["Vente de pétrole lampant","Station de gonflage","Vente de gaz domestique (Butane, Propane)","Automate CB 24/24"]},{"id":44570006,"lat":47.293,"lng":-2.209,"addr":"ROUTE DE ST NAZAIRE - Z.C. SAVIN","city":"TRIGNAC","cp":"44570","fuels":{"Gazole":{"p":2.09,"d":"2026-05-01"},"E85":{"p":0.854,"d":"2026-05-01"},"SP98":{"p":1.99,"d":"2026-05-01"}},"brand":"TotalEnergies","services":["Boutique alimentaire","Boutique non alimentaire","Station de gonflage","Carburant additivé","Piste poids lourds","Lavage automatique","Lavage manuel","Vente de gaz domestique (Butane, Propane)","DAB (Distributeur automatique de billets)"]},{"id":44410007,"lat":47.448,"lng":-2.241,"addr":"4 RUE DES LEVEES MIRAUD","city":"LA CHAPELLE DES MARAIS","cp":"44410","fuels":{"Gazole":{"p":2.169,"d":"2026-04-30"},"E10":{"p":2.02,"d":"2026-04-30"},"SP98":{"p":2.085,"d":"2026-04-30"}},"brand":"Système U","h24":true,"services":["Laverie","Station de gonflage","Location de véhicule","Piste poids lourds","Lavage automatique","Lavage manuel","Automate CB 24/24"]},{"id":44320002,"lat":47.114543249043,"lng":-1.9511237760851,"addr":"ZA LE BUTAI","city":"Arthon-en-Retz","cp":"44320","fuels":{"Gazole":{"p":2.159,"d":"2026-04-28"},"E85":{"p":0.799,"d":"2026-04-18"},"E10":{"p":2.079,"d":"2026-04-28"},"SP98":{"p":1.999,"d":"2026-04-28"}},"brand":"Système U"},{"id":44240004,"lat":47.302,"lng":-1.548,"addr":"15 Rue de Sucé","city":"La Chapelle-sur-Erdre","cp":"44240","fuels":{"Gazole":{"p":2.189,"d":"2026-04-30"},"E10":{"p":1.989,"d":"2026-04-30"},"SP98":{"p":2.079,"d":"2026-04-30"}},"brand":"Intermarché","services":["Boutique alimentaire","Restauration à emporter","Restauration sur place","Vente de gaz domestique (Butane, Propane)","DAB (Distributeur automatique de billets)"]},{"id":44190007,"lat":47.095,"lng":-1.292,"addr":"Route de Gorges","city":"Clisson","cp":"44190","fuels":{"Gazole":{"p":2.189,"d":"2026-04-20"},"SP95":{"p":2.049,"d":"2026-04-20"},"SP98":{"p":2.099,"d":"2026-04-20"}},"brand":"Intermarché","h24":true,"services":["Laverie","Piste poids lourds","Vente de gaz domestique (Butane, Propane)","Automate CB 24/24","DAB (Distributeur automatique de billets)"]},{"id":44410001,"lat":47.45,"lng":-2.314,"addr":"7 AVENUE DE LA MONNERAYE","city":"HERBIGNAC","cp":"44410","fuels":{"Gazole":{"p":2.168,"d":"2026-04-30"},"E85":{"p":0.818,"d":"2026-04-30"},"E10":{"p":2.009,"d":"2026-04-30"},"SP98":{"p":2.08,"d":"2026-04-30"}},"brand":"Leclerc","services":["Station de gonflage","Location de véhicule","Piste poids lourds","Lavage automatique","Lavage manuel","Vente de gaz domestique (Butane, Propane)"]},{"id":44470006,"lat":47.266,"lng":-1.488,"addr":"RN 23 ROUTE DE PARIS","city":"CARQUEFOU","cp":"44470","fuels":{"Gazole":{"p":2.09,"d":"2026-05-01"},"E85":{"p":0.832,"d":"2026-05-01"},"GPLc":{"p":0.999,"d":"2026-05-01"},"E10":{"p":1.99,"d":"2026-05-01"}},"brand":"TotalEnergies","h24":true,"services":["Laverie","Relais colis","Boutique alimentaire","Boutique non alimentaire","Station de gonflage","Carburant additivé","Vente de gaz domestique (Butane, Propane)","Bornes électriques","Wifi","Automate CB 24/24"]},{"id":44100006,"lat":47.216,"lng":-1.606,"addr":"57 A 61, BD DU TERTRE","city":"NANTES","cp":"44100","fuels":{"Gazole":{"p":2.09,"d":"2026-05-01"}},"brand":"TotalEnergies","h24":true,"services":["Relais colis","Boutique alimentaire","Boutique non alimentaire","Station de gonflage","Lavage automatique","Lavage manuel","Vente de gaz domestique (Butane, Propane)","Vente d'additifs carburants","Wifi","Automate CB 24/24"]},{"id":44119005,"lat":47.336,"lng":-1.652,"addr":"ROUTE NATIONALE 137 - AIRE DE LAMBRECY EST (sens Nantes => Rennes)","city":"TREILLIERES","cp":"44119","fuels":{"Gazole":{"p":2.09,"d":"2026-05-01"},"E85":{"p":0.999,"d":"2026-05-01"},"GPLc":{"p":1.129,"d":"2026-05-01"},"E10":{"p":1.99,"d":"2026-05-01"},"SP98":{"p":1.99,"d":"2026-05-01"}},"brand":"TotalEnergies","services":["Toilettes publiques","Douches","Boutique alimentaire","Boutique non alimentaire","Station de gonflage","Carburant additivé","Piste poids lourds","Espace bébé","Bornes électriques","Vente d'additifs carburants","Wifi"]},{"id":44450002,"lat":47.269,"lng":-1.335,"addr":"BD PASTEUR","city":"LA CHAPELLE-BASSE-MER","cp":"44450","fuels":{"Gazole":{"p":2.149,"d":"2026-04-27"},"E10":{"p":2.009,"d":"2026-04-30"},"SP98":{"p":2.099,"d":"2026-04-27"}},"brand":"Système U"},{"id":44450003,"lat":47.248,"lng":-1.371,"addr":"Centre Commercial du Chêne - l'Aulnaie","city":"SAINT-JULIEN-DE-CONCELLES","cp":"44450","fuels":{"Gazole":{"p":2.149,"d":"2026-04-20"},"SP95":{"p":1.999,"d":"2026-04-20"},"SP98":{"p":2.069,"d":"2026-04-27"}},"brand":"Carrefour","h24":true,"services":["Toilettes publiques","Laverie","Relais colis","Boutique alimentaire","Boutique non alimentaire","Restauration sur place","Bar","Station de gonflage","Vente de gaz domestique (Butane, Propane)","Wifi","Automate CB 24/24","DAB (Distributeur automatique de billets)"]},{"id":44210004,"lat":47.124357,"lng":-2.103635,"addr":"Route Bleue","city":"Pornic","cp":"44210","fuels":{"Gazole":{"p":2.25,"d":"2026-04-30"},"E85":{"p":0.849,"d":"2026-04-28"},"E10":{"p":1.99,"d":"2026-04-23"},"SP98":{"p":1.99,"d":"2026-04-10"}},"brand":"TotalEnergies","services":["Station de gonflage","Carburant additivé","Piste poids lourds","Services réparation / entretien","DAB (Distributeur automatique de billets)"]},{"id":44370005,"lat":47.38927,"lng":-1.0203,"addr":"ROUTE D'ANGERS","city":"Varades","cp":"44370","fuels":{"Gazole":{"p":2.149,"d":"2026-04-28"},"SP95":{"p":2.049,"d":"2026-04-30"},"E85":{"p":0.919,"d":"2026-04-10"},"GPLc":{"p":1.049,"d":"2026-04-29"},"SP98":{"p":2.089,"d":"2026-04-30"}},"brand":"Système U"},{"id":44522002,"lat":47.435,"lng":-1.236,"addr":"731 rue de la picardie","city":"MESANGER","cp":"44522","fuels":{"Gazole":{"p":2.149,"d":"2026-04-30"},"E85":{"p":0.699,"d":"2026-03-25"},"E10":{"p":2.009,"d":"2026-04-30"},"SP98":{"p":2.099,"d":"2026-04-30"}},"brand":"Système U","h24":true,"services":["Station de gonflage","Location de véhicule","Piste poids lourds","Lavage automatique","Lavage manuel","Vente de gaz domestique (Butane, Propane)","Automate CB 24/24"]},{"id":44740002,"lat":47.278,"lng":-2.468,"addr":"ROUTE DU POULIGUEN","city":"Batz-sur-Mer","cp":"44740","fuels":{"Gazole":{"p":2.299,"d":"2026-04-30"},"E10":{"p":2.099,"d":"2026-04-30"},"SP98":{"p":2.199,"d":"2026-04-30"}},"brand":"Avia","services":["Boutique alimentaire","Boutique non alimentaire","Station de gonflage","Carburant additivé","Piste poids lourds","Lavage manuel","Services réparation / entretien","Vente de gaz domestique (Butane, Propane)","Vente d'additifs carburants"]},{"id":44120004,"lat":47.162,"lng":-1.513,"addr":"AUTOROUTE A83 - AIRE DE LA GRASSINIÈRE","city":"VERTOU","cp":"44120","fuels":{"Gazole":{"p":2.09,"d":"2026-05-01"},"E85":{"p":0.833,"d":"2026-05-01"},"GPLc":{"p":1.019,"d":"2026-05-01"},"E10":{"p":1.99,"d":"2026-05-01"}},"brand":"TotalEnergies","h24":true,"services":["Toilettes publiques","Douches","Boutique alimentaire","Boutique non alimentaire","Station de gonflage","Carburant additivé","Piste poids lourds","Espace bébé","GNV","Bornes électriques","Wifi","Automate CB 24/24"]},{"id":44150007,"lat":47.373105051321,"lng":-1.1783565175484,"addr":"BOULEVARD PASTEUR","city":"ANCENIS","cp":"44150","fuels":{"Gazole":{"p":2.148,"d":"2026-04-30"},"E10":{"p":2.008,"d":"2026-04-30"},"SP98":{"p":2.098,"d":"2026-04-30"}},"brand":"Esso","h24":true,"services":["Relais colis","Station de gonflage","Automate CB 24/24"]},{"id":44410006,"lat":47.395,"lng":-2.305,"addr":"8 RUE DE KERVILY","city":"Saint-Lyphard","cp":"44410","fuels":{"Gazole":{"p":2.148,"d":"2026-04-30"},"E85":{"p":0.818,"d":"2026-04-30"},"E10":{"p":1.979,"d":"2026-04-30"},"SP98":{"p":2.062,"d":"2026-04-30"}},"brand":"Intermarché","h24":true,"services":["Station de gonflage","Lavage automatique","Automate CB 24/24","DAB (Distributeur automatique de billets)"]},{"id":44580001,"lat":47.041,"lng":-1.956,"addr":"ROUTE DE BOUIN","city":"Bourgneuf-en-Retz","cp":"44580","fuels":{"Gazole":{"p":2.25,"d":"2026-04-30"},"SP95":{"p":1.99,"d":"2026-04-30"}},"brand":"TotalEnergies","services":["Boutique alimentaire","Boutique non alimentaire","Vente de fioul domestique","Station de gonflage","Carburant additivé","Piste poids lourds","Lavage automatique","Lavage manuel","Services réparation / entretien","DAB (Distributeur automatique de billets)"]},{"id":44370009,"lat":47.419621,"lng":-1.0145410000000001,"addr":"A11 - AIRE DE VARADES PAYS DE LOIRE","city":"VARADES","cp":"44370","fuels":{"Gazole":{"p":2.09,"d":"2026-05-01"},"E85":{"p":0.999,"d":"2026-05-01"},"GPLc":{"p":1.129,"d":"2026-05-01"},"E10":{"p":1.99,"d":"2026-05-01"}},"brand":"Esso"},{"id":44521001,"lat":47.39123,"lng":-1.29207,"addr":"RN 23 - LES HAUTES LANDES","city":"COUFFé","cp":"44521","fuels":{"Gazole":{"p":2.231,"d":"2026-04-29"},"SP95":{"p":1.99,"d":"2026-04-29"}},"brand":"TotalEnergies","services":["Boutique alimentaire","Boutique non alimentaire","Vente de fioul domestique","Station de gonflage","Carburant additivé","Piste poids lourds","Lavage automatique","Lavage manuel","Services réparation / entretien","DAB (Distributeur automatique de billets)"]},{"id":44510001,"lat":47.27503,"lng":-2.44083,"addr":"Rue de Cornen","city":"LE POULIGUEN","cp":"44510","fuels":{"Gazole":{"p":2.201,"d":"2026-04-29"},"E10":{"p":1.979,"d":"2026-04-29"},"SP98":{"p":2.091,"d":"2026-04-29"}},"services":["Laverie","Vente de pétrole lampant","Station de gonflage","Piste poids lourds","Lavage automatique","Lavage manuel","Vente de gaz domestique (Butane, Propane)","DAB (Distributeur automatique de billets)"]},{"id":44800004,"lat":47.226,"lng":-1.635,"addr":"Zone Atlantis","city":"Saint-Herblain","cp":"44800","fuels":{"Gazole":{"p":2.139,"d":"2026-04-30"},"E85":{"p":0.699,"d":"2026-04-30"},"GPLc":{"p":1.075,"d":"2026-04-30"},"E10":{"p":1.969,"d":"2026-04-30"},"SP98":{"p":2.029,"d":"2026-04-30"}},"brand":"Leclerc","services":["Boutique non alimentaire","Vente de pétrole lampant","Station de gonflage","Lavage automatique","Vente de gaz domestique (Butane, Propane)","Vente d'additifs carburants","DAB (Distributeur automatique de billets)"]},{"id":44600002,"lat":47.28,"lng":-2.228,"addr":"54 Rue Léon Bourgeois","city":"SAINT-NAZAIRE","cp":"44600","fuels":{"Gazole":{"p":2.155,"d":"2026-04-30"},"E10":{"p":1.995,"d":"2026-04-30"},"SP98":{"p":2.075,"d":"2026-04-30"}},"brand":"Système U","services":["Station de gonflage","Location de véhicule"]},{"id":44390004,"lat":47.517434238999,"lng":-1.3012053214615,"addr":"23 rue des chenes","city":"Riaille","cp":"44440","fuels":{"Gazole":{"p":2.169,"d":"2026-04-18"},"SP95":{"p":1.959,"d":"2026-04-18"},"SP98":{"p":2.039,"d":"2026-04-18"}},"brand":"Carrefour","h24":true,"services":["Vente de gaz domestique (Butane, Propane)","Automate CB 24/24","DAB (Distributeur automatique de billets)"]},{"id":44220003,"lat":47.21344,"lng":-1.719,"addr":"6 Rue des Ardillets","city":"COUëRON","cp":"44220","fuels":{"Gazole":{"p":2.09,"d":"2026-05-01"}},"brand":"TotalEnergies","services":["Toilettes publiques","Boutique non alimentaire","Station de gonflage","Carburant additivé"]},{"id":44850001,"lat":47.414,"lng":-1.392,"addr":"89, rue du Souvenir","city":"LIGNE","cp":"44850","fuels":{"Gazole":{"p":2.169,"d":"2026-04-30"},"E85":{"p":0.795,"d":"2026-04-30"},"E10":{"p":2.009,"d":"2026-04-30"},"SP98":{"p":2.089,"d":"2026-04-30"}},"brand":"Système U","services":["Station de gonflage","Piste poids lourds","Lavage manuel","Vente de gaz domestique (Butane, Propane)"]},{"id":44360008,"lat":47.33,"lng":-1.781,"addr":"ROUTE NATIONALE 165","city":"Vigneux-de-Bretagne","cp":"44360","fuels":{"Gazole":{"p":2.09,"d":"2026-05-01"},"E10":{"p":1.99,"d":"2026-05-01"},"SP98":{"p":1.99,"d":"2026-05-01"}},"brand":"TotalEnergies","h24":true,"services":["Toilettes publiques","Douches","Boutique alimentaire","Boutique non alimentaire","Station de gonflage","Carburant additivé","Piste poids lourds","Espace bébé","Wifi","Automate CB 24/24"]},{"id":44210002,"lat":47.11293,"lng":-2.08468,"addr":"Route de Nantes","city":"PORNIC","cp":"44210","fuels":{"Gazole":{"p":2.135,"d":"2026-04-29"},"SP95":{"p":1.999,"d":"2026-04-18"},"E85":{"p":0.818,"d":"2026-04-21"},"GPLc":{"p":0.999,"d":"2026-04-04"},"E10":{"p":1.978,"d":"2026-04-29"}},"brand":"Intermarché","services":["Lavage manuel","Vente de gaz domestique (Butane, Propane)","DAB (Distributeur automatique de billets)"]},{"id":44800007,"lat":47.2412179839,"lng":-1.59335907484,"addr":"205 ROUTE DE VANNES","city":"Saint-Herblain","cp":"44800","fuels":{"Gazole":{"p":2.09,"d":"2026-05-01"},"E10":{"p":1.99,"d":"2026-05-01"}},"brand":"TotalEnergies","services":["Toilettes publiques","Relais colis","Boutique alimentaire","Station de gonflage","Carburant additivé","Lavage automatique","Lavage manuel","DAB (Distributeur automatique de billets)"]},{"id":44300015,"lat":47.2377,"lng":-1.56947,"addr":"78 BD ROBERT SCHUMAN","city":"NANTES","cp":"44300","fuels":{"Gazole":{"p":2.09,"d":"2026-05-01"},"E85":{"p":0.859,"d":"2026-05-01"}},"brand":"TotalEnergies","services":["Toilettes publiques","Relais colis","Boutique alimentaire","Station de gonflage","Carburant additivé","Lavage automatique","Services réparation / entretien","Vente de gaz domestique (Butane, Propane)","DAB (Distributeur automatique de billets)"]},{"id":44700002,"lat":47.262,"lng":-1.588,"addr":"1 Rue de la Conraie","city":"Orvault","cp":"44700","fuels":{"Gazole":{"p":2.139,"d":"2026-04-30"},"E10":{"p":1.974,"d":"2026-04-30"},"SP98":{"p":2.032,"d":"2026-04-30"}},"brand":"Leclerc","h24":true,"services":["Toilettes publiques","Relais colis","Boutique alimentaire","Boutique non alimentaire","Restauration à emporter","Restauration sur place","Vente de pétrole lampant","Station de gonflage","Carburant additivé","Espace bébé","Vente de gaz domestique (Butane, Propane)","Bornes électriques","Wifi","Automate CB 24/24","DAB (Distributeur automatique de billets)"]},{"id":44000005,"lat":47.23769,"lng":-1.53264,"addr":"55 Boulevard Jules Verne","city":"Nantes","cp":"44300","fuels":{"Gazole":{"p":2.25,"d":"2026-04-08"},"SP95":{"p":1.999,"d":"2026-04-08"},"SP98":{"p":1.999,"d":"2026-04-08"}},"brand":"Elan"},{"id":44260005,"lat":47.368621940000004,"lng":-1.96231179,"addr":"Parc comemrcial de la Colleraye","city":"SAVENAY","cp":"44260","fuels":{"Gazole":{"p":2.159,"d":"2026-04-30"},"E85":{"p":0.729,"d":"2026-04-24"},"E10":{"p":1.989,"d":"2026-04-29"},"SP98":{"p":2.059,"d":"2026-04-29"}},"brand":"Station U","services":["Toilettes publiques","Laverie","Boutique alimentaire","Boutique non alimentaire","Restauration à emporter","Restauration sur place","Station de gonflage","Aire de camping-cars","Piste poids lourds","Lavage automatique","Lavage manuel","Espace bébé","Vente de gaz domestique (Butane, Propane)"]},{"id":44170002,"lat":47.564,"lng":-1.62,"addr":"44 ROUTE D'ABBARETZ","city":"NOZAY","cp":"44170","fuels":{"Gazole":{"p":2.24,"d":"2026-04-30"},"SP95":{"p":1.99,"d":"2026-04-30"}},"brand":"TotalEnergies","h24":true,"services":["Boutique non alimentaire","Station de gonflage","Carburant additivé","Location de véhicule","Piste poids lourds","Services réparation / entretien","Vente de gaz domestique (Butane, Propane)","Automate CB 24/24"]},{"id":44300017,"lat":47.251,"lng":-1.518,"addr":"14 route de Paris","city":"NANTES","cp":"44300","fuels":{"Gazole":{"p":2.129,"d":"2026-04-30"},"E10":{"p":1.989,"d":"2026-04-30"},"SP98":{"p":2.059,"d":"2026-04-30"}},"brand":"Leclerc","h24":true,"services":["Automate CB 24/24"]},{"id":44750002,"lat":47.412902747675005,"lng":-1.9705121262687,"addr":"AVENUE DES SPORTS","city":"CAMPBON","cp":"44750","fuels":{"Gazole":{"p":2.169,"d":"2026-04-30"},"SP95":{"p":2.072,"d":"2026-04-20"},"SP98":{"p":2.128,"d":"2026-04-20"}},"brand":"Intermarché"},{"id":44000001,"lat":47.257,"lng":-1.513,"addr":"Route de PARIS","city":"NANTES","cp":"44300","fuels":{"Gazole":{"p":2.151,"d":"2026-04-30"},"SP95":{"p":2.027,"d":"2026-04-30"},"GPLc":{"p":0.999,"d":"2026-04-27"},"E10":{"p":1.979,"d":"2026-04-30"}},"brand":"Carrefour","h24":true,"services":["Piste poids lourds","Vente de gaz domestique (Butane, Propane)","Automate CB 24/24","DAB (Distributeur automatique de billets)"]},{"id":44730002,"lat":47.17027,"lng":-2.14844,"addr":"Route de la Plaine","city":"SAINT-MICHEL-CHEF-CHEF","cp":"44730","fuels":{"Gazole":{"p":2.137,"d":"2026-04-30"},"SP95":{"p":2.048,"d":"2026-04-30"},"E10":{"p":2.012,"d":"2026-04-30"},"SP98":{"p":2.088,"d":"2026-04-30"}},"brand":"Système U","services":["Toilettes publiques","Laverie","Relais colis","Station de gonflage","Aire de camping-cars","Location de véhicule","Piste poids lourds","Lavage automatique","Lavage manuel","Vente de gaz domestique (Butane, Propane)","DAB (Distributeur automatique de billets)"]},{"id":44115003,"lat":47.222,"lng":-1.473,"addr":"226 BLD DE LA LOIRE","city":"Basse-Goulaine","cp":"44115","fuels":{"Gazole":{"p":2.09,"d":"2026-05-01"}},"brand":"TotalEnergies","h24":true,"services":["Toilettes publiques","Douches","Boutique alimentaire","Boutique non alimentaire","Restauration à emporter","Restauration sur place","Station de gonflage","Carburant additivé","Piste poids lourds","Espace bébé","Vente de gaz domestique (Butane, Propane)","Automate CB 24/24"]},{"id":44460001,"lat":47.647,"lng":-2.078,"addr":"Avenue Jean Burel","city":"Saint-Nicolas-de-Redon","cp":"44460","fuels":{"Gazole":{"p":2.119,"d":"2026-04-30"},"E85":{"p":0.729,"d":"2026-04-30"},"GPLc":{"p":1.049,"d":"2026-04-30"},"E10":{"p":1.977,"d":"2026-04-30"},"SP98":{"p":2.059,"d":"2026-04-30"}},"brand":"Leclerc","h24":true,"services":["Toilettes publiques","Laverie","Restauration à emporter","Restauration sur place","Bar","Station de gonflage","Location de véhicule","Piste poids lourds","Espace bébé","Vente de gaz domestique (Butane, Propane)","Vente d'additifs carburants","Wifi","Automate CB 24/24","DAB (Distributeur automatique de billets)"]},{"id":44250003,"lat":47.242,"lng":-2.158,"addr":"Zone d'activités de la Guerche","city":"Saint-Brevin-les-Pins","cp":"44250","fuels":{"Gazole":{"p":2.135,"d":"2026-04-30"},"E10":{"p":1.978,"d":"2026-04-30"},"SP98":{"p":2.043,"d":"2026-04-30"}},"brand":"Leclerc","h24":true,"services":["Boutique alimentaire","Boutique non alimentaire","Vente de gaz domestique (Butane, Propane)","Automate CB 24/24"]},{"id":44300016,"lat":47.241,"lng":-1.508,"addr":"272, ROUTE DE SAINTE LUCE","city":"NANTES","cp":"44300","fuels":{"Gazole":{"p":2.09,"d":"2026-05-01"},"E85":{"p":0.831,"d":"2026-05-01"},"GPLc":{"p":0.999,"d":"2026-05-01"},"E10":{"p":1.99,"d":"2026-05-01"},"SP98":{"p":1.99,"d":"2026-05-01"}},"brand":"TotalEnergies","h24":true,"services":["Relais colis","Boutique alimentaire","Boutique non alimentaire","Station de gonflage","Carburant additivé","Lavage automatique","Vente de gaz domestique (Butane, Propane)","Vente d'additifs carburants","Wifi","Automate CB 24/24","DAB (Distributeur automatique de billets)"]},{"id":44100005,"lat":47.2239,"lng":-1.52985,"addr":"49-61 BLD DALBY","city":"NANTES","cp":"44100","fuels":{"Gazole":{"p":2.09,"d":"2026-05-01"},"E85":{"p":0.858,"d":"2026-05-01"},"E10":{"p":1.99,"d":"2026-05-01"},"SP98":{"p":1.99,"d":"2026-05-01"}},"brand":"TotalEnergies","services":["Boutique alimentaire","Boutique non alimentaire","Station de gonflage","Carburant additivé","Lavage automatique","Vente de gaz domestique (Butane, Propane)","DAB (Distributeur automatique de billets)"]},{"id":44200002,"lat":47.125,"lng":-2.123,"addr":"Rue du Traité d'Amsterdam","city":"Pornic","cp":"44210","fuels":{"Gazole":{"p":2.135,"d":"2026-04-30"},"E10":{"p":1.978,"d":"2026-04-30"},"SP98":{"p":2.04,"d":"2026-04-30"}},"brand":"Leclerc","services":["Boutique alimentaire","Boutique non alimentaire","Vente de gaz domestique (Butane, Propane)"]},{"id":44100004,"lat":47.214,"lng":-1.586,"addr":"110 boulevard Égalite ( place zola )","city":"NANTES","cp":"44100","fuels":{"Gazole":{"p":2.299,"d":"2026-04-30"},"E10":{"p":2.069,"d":"2026-04-30"},"SP98":{"p":2.199,"d":"2026-04-30"}},"brand":"Avia","services":["Relais colis","Boutique alimentaire","Boutique non alimentaire","Station de gonflage","Carburant additivé","Lavage automatique","Services réparation / entretien","Vente de gaz domestique (Butane, Propane)"]},{"id":44412001,"lat":47.16,"lng":-1.545,"addr":"10 Rond Point de la Corbinerie","city":"REZé","cp":"44400","fuels":{"Gazole":{"p":2.155,"d":"2026-04-30"},"GPLc":{"p":0.999,"d":"2026-04-30"},"E10":{"p":2.009,"d":"2026-04-30"},"SP98":{"p":2.029,"d":"2026-04-30"}},"brand":"Leclerc","h24":true,"services":["Toilettes publiques","Boutique alimentaire","Boutique non alimentaire","Restauration à emporter","Restauration sur place","Station de gonflage","Location de véhicule","Lavage automatique","Lavage manuel","Vente de gaz domestique (Butane, Propane)","Automate CB 24/24","DAB (Distributeur automatique de billets)"]},{"id":44110003,"lat":47.706,"lng":-1.388,"addr":"route de St Nazaire","city":"CHâTEAUBRIANT","cp":"44110","fuels":{"Gazole":{"p":2.119,"d":"2026-04-30"},"GPLc":{"p":0.927,"d":"2026-04-30"},"E10":{"p":1.956,"d":"2026-04-30"},"SP98":{"p":2.037,"d":"2026-04-30"}},"brand":"Leclerc","services":["Toilettes publiques","Relais colis","Boutique alimentaire","Boutique non alimentaire","Restauration à emporter","Restauration sur place","Bar","Vente de pétrole lampant","Station de gonflage","Location de véhicule","Piste poids lourds","Lavage automatique","Vente de gaz domestique (Butane, Propane)","Bornes électriques","DAB (Distributeur automatique de billets)"]},{"id":44210003,"lat":47.12229,"lng":-2.11717,"addr":"Boulevard de Linz","city":"PORNIC","cp":"44210","fuels":{"Gazole":{"p":2.135,"d":"2026-04-29"},"E85":{"p":0.81,"d":"2026-04-28"},"E10":{"p":1.978,"d":"2026-04-29"},"SP98":{"p":2.04,"d":"2026-04-29"}},"brand":"Système U","services":["Relais colis","Station de gonflage","Location de véhicule","Piste poids lourds","Lavage automatique","Vente de gaz domestique (Butane, Propane)","DAB (Distributeur automatique de billets)"]},{"id":44240011,"lat":47.256759,"lng":-1.546015,"addr":"BOULEVARD ALEXANDRE FLEMING","city":"La Chapelle-sur-Erdre","cp":"44240","fuels":{"Gazole":{"p":2.09,"d":"2026-05-01"},"E85":{"p":0.835,"d":"2026-05-01"},"GPLc":{"p":1.014,"d":"2026-05-01"},"E10":{"p":1.99,"d":"2026-05-01"},"SP98":{"p":1.99,"d":"2026-05-01"}},"brand":"TotalEnergies","services":["Boutique alimentaire","Boutique non alimentaire","Station de gonflage","Carburant additivé","Piste poids lourds","Vente de gaz domestique (Butane, Propane)","DAB (Distributeur automatique de billets)"]},{"id":44380001,"lat":47.258,"lng":-2.318,"addr":"1 AVENUE DU HECQUEUX","city":"PORNICHET","cp":"44380","fuels":{"Gazole":{"p":2.149,"d":"2026-04-27"},"SP95":{"p":2.027,"d":"2026-04-27"},"SP98":{"p":2.11,"d":"2026-04-27"}},"brand":"Carrefour","h24":true,"services":["Toilettes publiques","Relais colis","Boutique alimentaire","Boutique non alimentaire","Restauration à emporter","Station de gonflage","Location de véhicule","Vente de gaz domestique (Butane, Propane)","Wifi","Automate CB 24/24","DAB (Distributeur automatique de billets)"]},{"id":44330003,"lat":47.158229280939,"lng":-1.2747920508980999,"addr":"28 Route de clisson","city":"Vallet","cp":"44330","fuels":{"Gazole":{"p":2.142,"d":"2026-04-30"},"SP95":{"p":2.009,"d":"2026-04-30"},"E85":{"p":0.729,"d":"2026-04-21"},"GPLc":{"p":0.999,"d":"2026-04-14"},"E10":{"p":1.998,"d":"2026-04-30"},"SP98":{"p":2.049,"d":"2026-04-30"}},"brand":"Système U","h24":true,"services":["Station de gonflage","Piste poids lourds","Lavage automatique","Lavage manuel","Vente de gaz domestique (Butane, Propane)","Vente d'additifs carburants","Automate CB 24/24"]},{"id":44000006,"lat":47.24459,"lng":-1.53364,"addr":"173, route de Saint Joseph","city":"Nantes","cp":"44300","fuels":{"Gazole":{"p":2.122,"d":"2026-04-30"},"E85":{"p":0.819,"d":"2026-04-30"},"E10":{"p":1.946,"d":"2026-04-30"},"SP98":{"p":2.055,"d":"2026-04-30"}},"brand":"Intermarché","services":["Toilettes publiques","Boutique alimentaire","Boutique non alimentaire","Restauration à emporter","Restauration sur place","Bar","Station de gonflage","Carburant additivé","DAB (Distributeur automatique de billets)"]},{"id":44000010,"lat":47.247,"lng":-1.555,"addr":"BOULEVARD GUY MOLLET","city":"NANTES","cp":"44000","fuels":{"Gazole":{"p":2.09,"d":"2026-05-01"}},"brand":"TotalEnergies","services":["Toilettes publiques","Relais colis","Boutique alimentaire","Boutique non alimentaire","Restauration à emporter","Station de gonflage","Lavage automatique","Vente de gaz domestique (Butane, Propane)","Vente d'additifs carburants"]},{"id":44300018,"lat":47.248,"lng":-1.512,"addr":"95 rue du Perray","city":"NANTES","cp":"44300","fuels":{"Gazole":{"p":2.129,"d":"2026-04-30"},"E10":{"p":1.989,"d":"2026-04-30"},"SP98":{"p":2.059,"d":"2026-04-30"}},"brand":"Leclerc","h24":true,"services":["Automate CB 24/24"]},{"id":44260006,"lat":47.362,"lng":-1.956,"addr":"BOULEVARD BRANLY","city":"Savenay","cp":"44260","fuels":{"Gazole":{"p":2.219,"d":"2026-04-30"},"GPLc":{"p":1.069,"d":"2026-04-20"},"E10":{"p":2.029,"d":"2026-04-30"},"SP98":{"p":2.139,"d":"2026-04-30"}},"brand":"Intermarché","services":["Laverie","Relais colis","Station de gonflage","Carburant additivé","Piste poids lourds","Lavage automatique","Lavage manuel","Vente de gaz domestique (Butane, Propane)","Vente d'additifs carburants","DAB (Distributeur automatique de billets)"]},{"id":44130003,"lat":47.476,"lng":-1.75,"addr":"7 impasse de la boulonnerie","city":"BLAIN","cp":"44130","fuels":{"Gazole":{"p":2.134,"d":"2026-04-30"},"E85":{"p":0.699,"d":"2026-04-30"},"E10":{"p":1.978,"d":"2026-04-30"},"SP98":{"p":2.058,"d":"2026-04-30"}},"brand":"Leclerc","h24":true,"services":["Laverie","Relais colis","Vente de pétrole lampant","Carburant additivé","Location de véhicule","Piste poids lourds","Lavage automatique","Lavage manuel","Vente de gaz domestique (Butane, Propane)","Bornes électriques","Automate CB 24/24","DAB (Distributeur automatique de billets)"]},{"id":44802001,"lat":47.222,"lng":-1.606,"addr":"Boulevard de la Baule","city":"SAINT-HERBLAIN","cp":"44800","fuels":{"Gazole":{"p":2.121,"d":"2026-05-01"},"SP95":{"p":2.052,"d":"2026-05-01"},"E85":{"p":0.699,"d":"2026-05-01"},"E10":{"p":1.965,"d":"2026-05-01"},"SP98":{"p":2.121,"d":"2026-05-01"}},"brand":"Carrefour","h24":true,"services":["Station de gonflage","Carburant additivé","Piste poids lourds","Lavage automatique","Automate CB 24/24","DAB (Distributeur automatique de billets)"]},{"id":44272001,"lat":47.206,"lng":-1.535,"addr":"RUE GAETAN RONDEAU","city":"NANTES","cp":"44200","fuels":{"Gazole":{"p":2.201,"d":"2026-04-29"},"SP95":{"p":2.022,"d":"2026-04-29"},"E85":{"p":0.834,"d":"2026-04-29"},"E10":{"p":1.985,"d":"2026-04-29"},"SP98":{"p":2.111,"d":"2026-04-29"}},"brand":"Carrefour","h24":true,"services":["Station de gonflage","Lavage manuel","Automate CB 24/24"]},{"id":44540001,"lat":47.53,"lng":-1.186,"addr":"RTE DE CHATEAUBRIANT","city":"SAINT-MARS-LA-JAILLE","cp":"44540","fuels":{"Gazole":{"p":2.159,"d":"2026-04-27"},"E85":{"p":0.749,"d":"2026-02-25"},"E10":{"p":1.999,"d":"2026-04-29"},"SP98":{"p":2.079,"d":"2026-04-27"}},"brand":"Système U","h24":true,"services":["Wifi","Automate CB 24/24"]},{"id":44116001,"lat":46.971,"lng":-1.434,"addr":"6, rue de Quarteron","city":"VIEILLEVIGNE","cp":"44116","fuels":{"Gazole":{"p":2.142,"d":"2026-04-29"},"E85":{"p":0.818,"d":"2026-04-28"},"E10":{"p":1.952,"d":"2026-04-29"},"SP98":{"p":2.042,"d":"2026-04-27"}},"brand":"Intermarché","h24":true,"services":["Laverie","Station de gonflage","Vente de gaz domestique (Butane, Propane)","Bornes électriques","Automate CB 24/24"]},{"id":44600007,"lat":47.29,"lng":-2.257,"addr":"Le Point du Jour","city":"SAINT-NAZAIRE","cp":"44600","fuels":{"Gazole":{"p":2.154,"d":"2026-04-30"},"E85":{"p":0.847,"d":"2026-04-30"},"GPLc":{"p":1.051,"d":"2026-04-30"},"E10":{"p":1.989,"d":"2026-04-30"},"SP98":{"p":2.052,"d":"2026-04-30"}},"brand":"Leclerc","h24":true,"services":["Vente de pétrole lampant","Station de gonflage","Lavage manuel","Vente de gaz domestique (Butane, Propane)","Automate CB 24/24","DAB (Distributeur automatique de billets)"]},{"id":44160005,"lat":47.436,"lng":-2.077,"addr":"LA HIRTAIS","city":"Sainte-Anne-sur-Brivet","cp":"44160","fuels":{"Gazole":{"p":2.159,"d":"2026-04-30"},"E85":{"p":0.729,"d":"2026-04-29"},"E10":{"p":1.989,"d":"2026-04-29"},"SP98":{"p":2.059,"d":"2026-04-29"}},"brand":"Leclerc","h24":true,"services":["Laverie","Boutique non alimentaire","Vente de pétrole lampant","Station de gonflage","Location de véhicule","Piste poids lourds","Lavage automatique","Lavage manuel","Services réparation / entretien","Vente de gaz domestique (Butane, Propane)","Bornes électriques","Automate CB 24/24","DAB (Distributeur automatique de billets)"]},{"id":44380007,"lat":47.265467051322005,"lng":-2.3335748698712,"addr":"Avenue du Baulois","city":"PORNICHET","cp":"44380","fuels":{"Gazole":{"p":2.199,"d":"2026-04-21"},"SP95":{"p":2.019,"d":"2026-04-28"},"E85":{"p":0.819,"d":"2026-04-17"},"E10":{"p":1.999,"d":"2026-04-30"},"SP98":{"p":2.099,"d":"2026-04-23"}},"brand":"Intermarché","services":["Station de gonflage","Lavage automatique","Vente de gaz domestique (Butane, Propane)","DAB (Distributeur automatique de billets)"]},{"id":44110005,"lat":47.719,"lng":-1.364,"addr":"Rue des 27 Otages","city":"CHâTEAUBRIANT","cp":"44110","fuels":{"Gazole":{"p":2.401,"d":"2026-04-16"},"SP95":{"p":2.203,"d":"2026-04-08"},"SP98":{"p":2.175,"d":"2026-04-23"}},"brand":"Avia","h24":true,"services":["Carburant additivé","Piste poids lourds","Vente de gaz domestique (Butane, Propane)","Automate CB 24/24"]},{"id":44340005,"lat":47.167,"lng":-1.575,"addr":"ROCADE SUD","city":"BOUGUENAIS","cp":"44340","fuels":{"Gazole":{"p":2.09,"d":"2026-05-01"},"GPLc":{"p":0.999,"d":"2026-05-01"}},"brand":"TotalEnergies","h24":true,"services":["Toilettes publiques","Boutique alimentaire","Boutique non alimentaire","Station de gonflage","Carburant additivé","Piste poids lourds","Espace bébé","Vente de gaz domestique (Butane, Propane)","Vente d'additifs carburants","Wifi","Automate CB 24/24"]},{"id":44290002,"lat":47.628,"lng":-1.831,"addr":"10 Rue de Châteaubriant","city":"Guémené-Penfao","cp":"44290","fuels":{"Gazole":{"p":2.25,"d":"2026-04-30"},"E10":{"p":1.99,"d":"2026-04-24"},"SP98":{"p":1.99,"d":"2026-04-24"}},"brand":"Total Contact","h24":true,"services":["Relais colis","Boutique alimentaire","Boutique non alimentaire","Carburant additivé","Piste poids lourds","Services réparation / entretien","Vente de gaz domestique (Butane, Propane)","Automate CB 24/24"]},{"id":44580002,"lat":47.04693,"lng":-1.95644,"addr":"Chemin de la Culee","city":"BOURGNEUF-EN-RETZ","cp":"44580","fuels":{"Gazole":{"p":2.159,"d":"2026-04-29"},"E10":{"p":2.029,"d":"2026-04-29"},"SP98":{"p":2.109,"d":"2026-04-30"}},"brand":"Independent"},{"id":44119004,"lat":47.33220773084601,"lng":-1.6174122928930001,"addr":"Rue de Rennes","city":"TREILLIèRES","cp":"44119","fuels":{"Gazole":{"p":2.139,"d":"2026-04-30"},"E85":{"p":0.699,"d":"2026-02-25"},"E10":{"p":1.989,"d":"2026-04-28"},"SP98":{"p":2.065,"d":"2026-04-30"}},"brand":"Système U","h24":true,"services":["Relais colis","Station de gonflage","Location de véhicule","Piste poids lourds","Lavage automatique","Bornes électriques","Vente d'additifs carburants","Automate CB 24/24"]},{"id":44310001,"lat":47.04729577,"lng":-1.6403904800000002,"addr":"ESPACE CIAL GRAND LAC","city":"SAINT-PHILBERT-DE-GRAND-LIEU","cp":"44310","fuels":{"Gazole":{"p":2.149,"d":"2026-04-30"},"GPLc":{"p":0.999,"d":"2026-04-30"},"E10":{"p":1.989,"d":"2026-04-30"},"SP98":{"p":2.069,"d":"2026-04-30"}},"brand":"Station U","services":["Toilettes publiques","Relais colis","Boutique alimentaire","Vente de pétrole lampant","Station de gonflage","Location de véhicule","Piste poids lourds","Lavage automatique","Lavage manuel","Vente de gaz domestique (Butane, Propane)","DAB (Distributeur automatique de billets)"]},{"id":44230004,"lat":47.199,"lng":-1.519,"addr":"5 Rue du Lieutenant Auge","city":"SAINT-SéBASTIEN-SUR-LOIRE","cp":"44230","fuels":{"Gazole":{"p":2.134,"d":"2026-04-30"},"E10":{"p":2.009,"d":"2026-04-30"},"SP98":{"p":2.067,"d":"2026-04-30"}},"brand":"Intermarché","h24":true,"services":["Relais colis","Boutique alimentaire","Station de gonflage","Lavage automatique","Lavage manuel","Vente de gaz domestique (Butane, Propane)","Bornes électriques","Automate CB 24/24","DAB (Distributeur automatique de billets)"]},{"id":44800001,"lat":47.247,"lng":-1.606,"addr":"325 Route de Vannes","city":"SAINT-HERBLAIN","cp":"44800","fuels":{"Gazole":{"p":2.149,"d":"2026-04-29"},"E85":{"p":0.819,"d":"2026-04-24"},"GPLc":{"p":0.985,"d":"2026-04-24"},"E10":{"p":1.984,"d":"2026-04-30"},"SP98":{"p":2.042,"d":"2026-04-30"}},"brand":"Auchan","services":["Relais colis","Station de gonflage","Vente de gaz domestique (Butane, Propane)","DAB (Distributeur automatique de billets)"]},{"id":44360005,"lat":47.32,"lng":-1.738,"addr":"RUE DU PETIT PRINCE","city":"Vigneux-de-Bretagne","cp":"44360","fuels":{"Gazole":{"p":2.175,"d":"2026-04-28"},"E10":{"p":2.05,"d":"2026-04-28"},"SP98":{"p":2.12,"d":"2026-04-28"}},"brand":"Système U","services":["Toilettes publiques","Laverie","Relais colis","Boutique alimentaire","Restauration à emporter","Station de gonflage","Piste poids lourds","Lavage automatique","Lavage manuel","Vente de gaz domestique (Butane, Propane)","Wifi","DAB (Distributeur automatique de billets)"]},{"id":44400005,"lat":47.155,"lng":-1.537,"addr":"140 Route des Sorinières","city":"Rezé","cp":"44400","fuels":{"Gazole":{"p":2.191,"d":"2026-04-29"}},"brand":"TotalEnergies","services":["Toilettes publiques","Relais colis","Boutique alimentaire","Station de gonflage","Piste poids lourds","Lavage automatique","Lavage manuel","Vente de gaz domestique (Butane, Propane)"]},{"id":44190001,"lat":47.084,"lng":-1.263,"addr":"14 avenue Xavier Rineau - Le Barillet","city":"GETIGNE","cp":"44190","fuels":{"Gazole":{"p":2.131,"d":"2026-04-30"},"SP95":{"p":2.02,"d":"2026-04-30"},"E10":{"p":1.987,"d":"2026-04-30"},"SP98":{"p":2.058,"d":"2026-04-30"}},"brand":"Système U","h24":true,"services":["Station de gonflage","Piste poids lourds","Lavage automatique","Automate CB 24/24","DAB (Distributeur automatique de billets)"]},{"id":44570007,"lat":47.305033,"lng":-2.212259,"addr":"RN 171","city":"TRIGNAC","cp":"44570","fuels":{"Gazole":{"p":2.319,"d":"2026-04-29"},"E85":{"p":0.965,"d":"2026-04-29"},"GPLc":{"p":1.059,"d":"2026-04-29"},"E10":{"p":2.119,"d":"2026-04-29"},"SP98":{"p":2.199,"d":"2026-04-29"}},"services":["Boutique alimentaire","Boutique non alimentaire","Station de gonflage","Carburant additivé","Piste poids lourds","Vente d'additifs carburants"]},{"id":44600011,"lat":47.258910992176,"lng":-2.2650246791612,"addr":"332 ROUTE DE LA COTE D'AMOUR","city":"ST NAZAIRE","cp":"44600","fuels":{"Gazole":{"p":2.155,"d":"2026-04-30"},"E85":{"p":0.851,"d":"2026-04-28"},"GPLc":{"p":1.009,"d":"2026-04-23"},"E10":{"p":1.99,"d":"2026-04-30"},"SP98":{"p":2.075,"d":"2026-04-30"}},"brand":"Auchan","h24":true,"services":["Toilettes publiques","Laverie","Relais colis","Boutique alimentaire","Boutique non alimentaire","Station de gonflage","Carburant additivé","Lavage automatique","Services réparation / entretien","Vente de gaz domestique (Butane, Propane)","Bornes électriques","Vente d'additifs carburants","Wifi","Automate CB 24/24","DAB (Distributeur automatique de billets)"]},{"id":44150004,"lat":47.373,"lng":-1.185,"addr":"BOULEVARD BAD BRUCKENAU","city":"ANCENIS","cp":"44150","fuels":{"Gazole":{"p":2.149,"d":"2026-04-30"},"E10":{"p":2.009,"d":"2026-04-29"},"SP98":{"p":2.099,"d":"2026-04-27"}},"brand":"Système U","h24":true,"services":["Toilettes publiques","Relais colis","Restauration sur place","Bar","Station de gonflage","Location de véhicule","Piste poids lourds","Lavage automatique","Lavage manuel","Vente de gaz domestique (Butane, Propane)","Bornes électriques","Wifi","Automate CB 24/24","DAB (Distributeur automatique de billets)"]},{"id":44770001,"lat":47.141,"lng":-2.189,"addr":"1 Rue des Filets","city":"LA PLAINE-SUR-MER","cp":"44770","fuels":{"Gazole":{"p":2.199,"d":"2026-04-30"},"E85":{"p":0.819,"d":"2026-04-21"},"E10":{"p":1.969,"d":"2026-04-30"},"SP98":{"p":2.079,"d":"2026-04-30"}},"brand":"Intermarché","h24":true,"services":["Laverie","Station de gonflage","Location de véhicule","Lavage automatique","Lavage manuel","Vente de gaz domestique (Butane, Propane)","Automate CB 24/24","DAB (Distributeur automatique de billets)"]},{"id":44500004,"lat":47.287,"lng":-2.381,"addr":"41 Avenue du Bois d'Amour","city":"LA BAULE-ESCOUBLAC","cp":"44500","fuels":{"Gazole":{"p":2.399,"d":"2026-04-30"},"E10":{"p":2.099,"d":"2026-04-30"},"SP98":{"p":2.219,"d":"2026-04-30"}},"brand":"Esso","services":["Relais colis","Station de gonflage","Carburant additivé"]},{"id":44119006,"lat":47.357050659966006,"lng":-1.6016296214263999,"addr":"RUE DES SPORTS ZA DE BELLEVUE","city":"Grandchamp-des-Fontaines","cp":"44119","fuels":{"Gazole":{"p":2.197,"d":"2026-04-28"},"E10":{"p":1.961,"d":"2026-04-28"},"SP98":{"p":2.065,"d":"2026-04-28"}},"brand":"Intermarché","h24":true,"services":["Toilettes publiques","Relais colis","Station de gonflage","Lavage automatique","Lavage manuel","Vente de gaz domestique (Butane, Propane)","Bornes électriques","Automate CB 24/24","DAB (Distributeur automatique de billets)"]},{"id":44550001,"lat":47.327,"lng":-2.152,"addr":"C.C. DE LA BERNUAIS","city":"MONTOIR-DE-BRETAGNE","cp":"44550","fuels":{"Gazole":{"p":2.151,"d":"2026-04-30"},"E85":{"p":0.846,"d":"2026-04-22"},"E10":{"p":1.989,"d":"2026-04-30"},"SP98":{"p":2.069,"d":"2026-04-30"}},"brand":"Système U","h24":true,"services":["Relais colis","Vente de pétrole lampant","Station de gonflage","Aire de camping-cars","Location de véhicule","Piste poids lourds","Lavage automatique","Lavage manuel","Vente de gaz domestique (Butane, Propane)","Wifi","Automate CB 24/24","DAB (Distributeur automatique de billets)"]},{"id":44230002,"lat":47.209033556831,"lng":-1.5109141112012,"addr":"80 Boulevard des Pas Enchantés","city":"Saint-Sébastien-sur-Loire","cp":"44230","fuels":{"Gazole":{"p":2.169,"d":"2026-04-30"},"SP95":{"p":2.039,"d":"2026-04-30"},"E10":{"p":2.009,"d":"2026-04-30"},"SP98":{"p":2.059,"d":"2026-04-30"}},"brand":"Système U","h24":true,"services":["Automate CB 24/24"]},{"id":44350006,"lat":47.304,"lng":-2.409,"addr":"Route de la Baule","city":"GUéRANDE","cp":"44350","fuels":{"Gazole":{"p":2.199,"d":"2026-04-30"},"E85":{"p":0.819,"d":"2026-04-17"},"E10":{"p":1.999,"d":"2026-04-29"},"SP98":{"p":2.12,"d":"2026-04-30"}},"brand":"Intermarché","h24":true,"services":["Toilettes publiques","Laverie","Station de gonflage","Location de véhicule","Piste poids lourds","Lavage automatique","Lavage manuel","Vente de gaz domestique (Butane, Propane)","Bornes électriques","Automate CB 24/24","DAB (Distributeur automatique de billets)"]},{"id":44600009,"lat":47.271,"lng":-2.25,"addr":"LIEU DIT RETON","city":"Saint-Nazaire","cp":"44600","fuels":{"Gazole":{"p":2.09,"d":"2026-05-01"},"E85":{"p":0.851,"d":"2026-05-01"},"GPLc":{"p":1.009,"d":"2026-05-01"},"E10":{"p":1.99,"d":"2026-05-01"}},"brand":"TotalEnergies","h24":true,"services":["Toilettes publiques","Boutique alimentaire","Station de gonflage","Carburant additivé","Piste poids lourds","Lavage automatique","Vente de gaz domestique (Butane, Propane)","Vente d'additifs carburants","Automate CB 24/24","DAB (Distributeur automatique de billets)"]},{"id":44140002,"lat":47.055,"lng":-1.511,"addr":"1 Avenue de la Vendée","city":"Geneston","cp":"44140","fuels":{"Gazole":{"p":2.182,"d":"2026-04-30"},"E85":{"p":0.818,"d":"2026-04-30"},"E10":{"p":1.974,"d":"2026-04-30"},"SP98":{"p":2.086,"d":"2026-04-30"}},"brand":"Intermarché","h24":true,"services":["Toilettes publiques","Laverie","Location de véhicule","Piste poids lourds","Vente de gaz domestique (Butane, Propane)","Automate CB 24/24","DAB (Distributeur automatique de billets)"]},{"id":44350007,"lat":47.39,"lng":-2.432,"addr":"2 impasse de Breninguen","city":"Saint-Molf","cp":"44350","fuels":{"Gazole":{"p":2.159,"d":"2026-04-29"},"E85":{"p":0.818,"d":"2026-04-29"},"E10":{"p":1.938,"d":"2026-04-29"},"SP98":{"p":2.088,"d":"2026-04-29"}},"brand":"Avia"},{"id":44110001,"lat":47.716,"lng":-1.392,"addr":"ROUTE DE SAINT AUBIN DES CHATEAUX","city":"Châteaubriant","cp":"44110","fuels":{"Gazole":{"p":2.169,"d":"2026-04-30"},"SP95":{"p":2.059,"d":"2026-04-30"},"E10":{"p":1.989,"d":"2026-04-30"}},"brand":"La Station U","h24":true,"services":["Toilettes publiques","Relais colis","Boutique alimentaire","Boutique non alimentaire","Restauration à emporter","Restauration sur place","Bar","Vente de fioul domestique","Vente de pétrole lampant","Station de gonflage","Location de véhicule","Piste poids lourds","Lavage automatique","Lavage manuel","Vente de gaz domestique (Butane, Propane)","Bornes électriques","Wifi","Automate CB 24/24","DAB (Distributeur automatique de billets)"]},{"id":44330001,"lat":47.17,"lng":-1.267,"addr":"Route d'Ancenis","city":"Vallet","cp":"44330","fuels":{"Gazole":{"p":2.142,"d":"2026-04-30"},"SP95":{"p":2.009,"d":"2026-04-30"},"SP98":{"p":2.049,"d":"2026-04-30"}},"brand":"Système U","h24":true,"services":["Station de gonflage","Location de véhicule","Piste poids lourds","Lavage automatique","Lavage manuel","Vente de gaz domestique (Butane, Propane)","Vente d'additifs carburants","Automate CB 24/24"]},{"id":44140004,"lat":47.082,"lng":-1.412,"addr":"Avenue de Nantes ZA le Haut Coin","city":"Aigrefeuille-sur-Maine","cp":"44140","fuels":{"Gazole":{"p":2.15,"d":"2026-04-30"},"E10":{"p":1.96,"d":"2026-04-30"},"SP98":{"p":2.075,"d":"2026-04-30"}},"brand":"Intermarché","h24":true,"services":["Laverie","Station de gonflage","Piste poids lourds","Lavage automatique","Vente de gaz domestique (Butane, Propane)","Automate CB 24/24","DAB (Distributeur automatique de billets)"]},{"id":44140006,"lat":47.052,"lng":-1.509,"addr":"22 Avenue de la Vendée","city":"Geneston","cp":"44140","fuels":{"E10":{"p":1.986,"d":"2026-04-29"}},"brand":"TotalEnergies","h24":true,"services":["Toilettes publiques","Relais colis","Boutique alimentaire","Boutique non alimentaire","Bar","Carburant additivé","Piste poids lourds","Lavage automatique","Vente de gaz domestique (Butane, Propane)","Vente d'additifs carburants","Wifi","Automate CB 24/24"]},{"id":44150003,"lat":47.373,"lng":-1.194,"addr":"Espace 23 SAINT-GEREON","city":"ANCENIS","cp":"44150","fuels":{"Gazole":{"p":2.124,"d":"2026-04-30"},"SP95":{"p":2.047,"d":"2026-04-30"},"E85":{"p":0.795,"d":"2026-04-30"},"E10":{"p":1.986,"d":"2026-04-30"},"SP98":{"p":2.069,"d":"2026-04-30"}},"brand":"Leclerc","h24":true,"services":["Piste poids lourds","Vente de gaz domestique (Butane, Propane)","Automate CB 24/24"]},{"id":44190004,"lat":47.078,"lng":-1.24,"addr":"Recouvrance","city":"GéTIGNé","cp":"44190","fuels":{"Gazole":{"p":2.09,"d":"2026-05-01"},"E85":{"p":0.879,"d":"2026-04-02"},"E10":{"p":1.99,"d":"2026-04-23"},"SP98":{"p":1.99,"d":"2026-04-07"}},"brand":"TotalEnergies","h24":true,"services":["Relais colis","Boutique alimentaire","Boutique non alimentaire","Carburant additivé","Piste poids lourds","Lavage automatique","Vente de gaz domestique (Butane, Propane)","Vente d'additifs carburants","Automate CB 24/24"]},{"id":44370003,"lat":47.3863,"lng":-1.03342,"addr":"306, Rue du Maréchal Foch","city":"Varades","cp":"44370","fuels":{"SP95":{"p":1.99,"d":"2026-03-24"},"SP98":{"p":1.99,"d":"2026-03-20"}},"brand":"TotalEnergies","services":["Boutique alimentaire","Boutique non alimentaire","Station de gonflage","Carburant additivé"]},{"id":44350004,"lat":47.32944,"lng":-2.41115,"addr":"Rue de Villejames","city":"Guérande","cp":"44350","fuels":{"Gazole":{"p":2.141,"d":"2026-04-30"},"GPLc":{"p":1.069,"d":"2026-04-15"},"E10":{"p":1.984,"d":"2026-04-30"},"SP98":{"p":2.062,"d":"2026-04-30"}},"brand":"Leclerc","services":["Toilettes publiques","Restauration sur place","Bar","Vente de fioul domestique","Station de gonflage","Location de véhicule","Piste poids lourds","Lavage automatique","Services réparation / entretien","Vente de gaz domestique (Butane, Propane)","DAB (Distributeur automatique de billets)"]},{"id":44420004,"lat":47.348292,"lng":-2.5016629999999997,"addr":"20 rue de la frégate","city":"LA TURBALLE","cp":"44420","fuels":{"Gazole":{"p":2.25,"d":"2026-04-28"},"E10":{"p":1.99,"d":"2026-04-28"},"SP98":{"p":1.99,"d":"2026-04-28"}},"brand":"TotalEnergies","services":["Station de gonflage","Piste poids lourds","Services réparation / entretien","Automate CB 24/24"]},{"id":44340011,"lat":47.16772400000001,"lng":-1.643608,"addr":"RD 723 AIRE DES AJONCS","city":"BOUGUENAIS","cp":"44340","fuels":{"Gazole":{"p":2.279,"d":"2026-04-27"},"E85":{"p":0.965,"d":"2026-04-27"},"E10":{"p":2.069,"d":"2026-04-27"},"SP98":{"p":2.149,"d":"2026-04-27"}},"services":["Toilettes publiques","Douches","Boutique alimentaire","Boutique non alimentaire","Restauration à emporter","Restauration sur place","Station de gonflage","Piste poids lourds","Espace bébé","Vente de gaz domestique (Butane, Propane)"]},{"id":44360009,"lat":47.274,"lng":-1.78,"addr":"D17 - ROUTE DE COUERON","city":"Saint-Étienne-de-Montluc","cp":"44360","fuels":{"Gazole":{"p":2.09,"d":"2026-05-01"},"E10":{"p":1.99,"d":"2026-04-24"}},"brand":"TotalEnergies","h24":true,"services":["Boutique non alimentaire","Station de gonflage","Carburant additivé","Lavage manuel","Vente de gaz domestique (Butane, Propane)","Vente d'additifs carburants","Automate CB 24/24"]},{"id":44640002,"lat":47.198,"lng":-1.758,"addr":"28 Rue de la Jouardais","city":"LE PELLERIN","cp":"44640","fuels":{"Gazole":{"p":2.149,"d":"2026-04-30"},"E10":{"p":1.999,"d":"2026-04-30"},"SP98":{"p":2.079,"d":"2026-04-30"}},"brand":"Intermarché","h24":true,"services":["Toilettes publiques","Laverie","Boutique alimentaire","Boutique non alimentaire","Vente de gaz domestique (Butane, Propane)","Wifi","Automate CB 24/24","DAB (Distributeur automatique de billets)"]},{"id":44160003,"lat":47.432,"lng":-2.083,"addr":"Route de Nantes-CS 20077","city":"Pontchâteau","cp":"44160","fuels":{"Gazole":{"p":2.159,"d":"2026-04-30"},"GPLc":{"p":1.099,"d":"2026-04-23"},"E10":{"p":1.989,"d":"2026-04-29"},"SP98":{"p":2.059,"d":"2026-04-29"}},"brand":"Leclerc","h24":true,"services":["Lavage automatique","Automate CB 24/24","DAB (Distributeur automatique de billets)"]},{"id":44470002,"lat":47.262,"lng":-1.447,"addr":"RUE DE LA MALNOUE","city":"Thouaré-sur-Loire","cp":"44470","fuels":{"Gazole":{"p":2.179,"d":"2026-04-30"},"SP95":{"p":2.049,"d":"2026-04-30"},"E10":{"p":2.019,"d":"2026-04-30"},"SP98":{"p":2.099,"d":"2026-04-30"}},"brand":"Station U","services":["Toilettes publiques","Laverie","Relais colis","Boutique alimentaire","Boutique non alimentaire","Restauration à emporter","Restauration sur place","Station de gonflage","Location de véhicule","Piste poids lourds","Lavage automatique","Lavage manuel","Vente de gaz domestique (Butane, Propane)","Bornes électriques","Wifi","DAB (Distributeur automatique de billets)"]},{"id":44390003,"lat":47.437,"lng":-1.517,"addr":"rue de l'Océan - ZI DE LA SANGLE","city":"Nort-sur-Erdre","cp":"44390","fuels":{"Gazole":{"p":2.179,"d":"2026-04-30"},"E10":{"p":2.029,"d":"2026-04-30"},"SP98":{"p":2.119,"d":"2026-04-30"}},"brand":"Système U","services":["Relais colis","Station de gonflage","Location de véhicule","Piste poids lourds","Lavage automatique","Lavage manuel","Vente de gaz domestique (Butane, Propane)"]},{"id":44840002,"lat":47.159,"lng":-1.513,"addr":"AUTOROUTE A83 - AIRE DE LA GRASSINIÈRE","city":"LES SORINIERES","cp":"44840","fuels":{"Gazole":{"p":2.09,"d":"2026-05-01"},"E85":{"p":0.829,"d":"2026-05-01"},"GPLc":{"p":1.019,"d":"2026-05-01"},"E10":{"p":1.99,"d":"2026-05-01"}},"brand":"TotalEnergies","h24":true,"services":["Toilettes publiques","Douches","Boutique alimentaire","Boutique non alimentaire","Restauration à emporter","Restauration sur place","Station de gonflage","Carburant additivé","Aire de camping-cars","Piste poids lourds","Lavage automatique","Espace bébé","Bornes électriques","Vente d'additifs carburants","Wifi","Automate CB 24/24"]},{"id":44130004,"lat":47.476667007029,"lng":-1.7614514139338,"addr":"11 Rue Du 8 Mai 1945","city":"BLAIN","cp":"44130","fuels":{"Gazole":{"p":2.25,"d":"2026-04-30"},"E10":{"p":1.99,"d":"2026-04-28"},"SP98":{"p":1.99,"d":"2026-04-28"}},"h24":true,"services":["Boutique alimentaire","Boutique non alimentaire","Restauration à emporter","Restauration sur place","Station de gonflage","Carburant additivé","Piste poids lourds","Lavage manuel","Services réparation / entretien","Automate CB 24/24"]},{"id":44680001,"lat":47.10399,"lng":-1.80297,"addr":"RUE DES CHARMES","city":"SAINTE-PAZANNE","cp":"44680","fuels":{"Gazole":{"p":2.149,"d":"2026-04-27"},"E10":{"p":1.999,"d":"2026-04-29"},"SP98":{"p":2.069,"d":"2026-04-27"}}},{"id":44360010,"lat":47.270007987698,"lng":-1.7750433764143,"addr":"24 Rte de Couëron","city":"Saint-Étienne-de-Montluc","cp":"44360","fuels":{"Gazole":{"p":2.149,"d":"2026-04-29"},"SP95":{"p":1.999,"d":"2026-04-25"},"E85":{"p":0.709,"d":"2026-04-21"},"GPLc":{"p":1.069,"d":"2026-04-22"},"E10":{"p":1.989,"d":"2026-04-30"},"SP98":{"p":2.059,"d":"2026-04-30"}},"h24":true,"services":["Station de gonflage","Aire de camping-cars","Location de véhicule","Piste poids lourds","Lavage automatique","Lavage manuel","Vente de gaz domestique (Butane, Propane)","Bornes électriques","Vente d'additifs carburants","Automate CB 24/24","DAB (Distributeur automatique de billets)"]},{"id":44600010,"lat":47.287,"lng":-2.299,"addr":"ANGLE RUE FONDELINE ET AUGUSTIN FRESNEL","city":"SAINT NAZAIRE","cp":"44600","fuels":{"Gazole":{"p":2.09,"d":"2026-05-01"},"E85":{"p":0.848,"d":"2026-05-01"},"E10":{"p":1.99,"d":"2026-05-01"}},"brand":"TotalEnergies","h24":true,"services":["Boutique alimentaire","Boutique non alimentaire","Restauration à emporter","Station de gonflage","Carburant additivé","Piste poids lourds","Lavage automatique","Vente de gaz domestique (Butane, Propane)","Bornes électriques","Vente d'additifs carburants","Wifi","Automate CB 24/24"]},{"id":44590002,"lat":47.648,"lng":-1.669,"addr":"Lieu-dit Le Mortier","city":"Derval","cp":"44590","fuels":{"Gazole":{"p":2.399,"d":"2026-04-14"}},"brand":"Avia","services":["Carburant additivé","Piste poids lourds"]},{"id":44620002,"lat":47.176,"lng":-1.678,"addr":"Avenue de la Libération","city":"La Montagne","cp":"44620","fuels":{"Gazole":{"p":2.155,"d":"2026-04-30"},"SP95":{"p":2.042,"d":"2026-04-30"},"E85":{"p":0.799,"d":"2026-04-29"},"GPLc":{"p":0.999,"d":"2026-04-27"},"E10":{"p":2.009,"d":"2026-04-30"},"SP98":{"p":2.055,"d":"2026-04-30"}},"brand":"U","services":["Laverie","Relais colis","Station de gonflage","Location de véhicule","Lavage automatique","Vente de gaz domestique (Butane, Propane)","DAB (Distributeur automatique de billets)"]},{"id":44540002,"lat":47.516056,"lng":-1.187332,"addr":"2 IMPASSE DES CIGALES / SAINT MARS LA JAILLE","city":"ANGERS","cp":"44540","fuels":{"Gazole":{"p":2.2,"d":"2026-04-23"},"SP95":{"p":1.94,"d":"2026-04-23"}},"h24":true,"services":["Services réparation / entretien","Automate CB 24/24"]}]