[{"id":46300004,"lat":44.726,"lng":1.373,"addr":"Route de Fumel","city":"GOURDON","cp":"46300","fuels":{"Gazole":{"p":2.149,"d":"2026-04-29"},"E85":{"p":0.819,"d":"2026-04-20"},"E10":{"p":1.985,"d":"2026-04-29"},"SP98":{"p":2.069,"d":"2026-04-29"}},"brand":"Intermarché","services":["Toilettes publiques","Laverie","Boutique alimentaire","Boutique non alimentaire","Restauration à emporter","Restauration sur place","Bar","Station de gonflage","Location de véhicule","Lavage automatique","Lavage manuel","Espace bébé","Vente de gaz domestique (Butane, Propane)","DAB (Distributeur automatique de billets)"]},{"id":46200003,"lat":44.898,"lng":1.463,"addr":"Avenue de Verdun","city":"SOUILLAC","cp":"46200","fuels":{"Gazole":{"p":2.159,"d":"2026-04-30"},"E85":{"p":0.817,"d":"2026-04-30"},"E10":{"p":1.999,"d":"2026-04-30"},"SP98":{"p":2.076,"d":"2026-04-30"}},"brand":"Leclerc","h24":true,"services":["Location de véhicule","Lavage automatique","Lavage manuel","Vente de gaz domestique (Butane, Propane)","Automate CB 24/24","DAB (Distributeur automatique de billets)"]},{"id":46000014,"lat":44.474264768930006,"lng":1.4287303311282,"addr":"ROUTE DE MERCUES","city":"Cahors","cp":"46000","fuels":{"Gazole":{"p":2.245,"d":"2026-04-29"},"E10":{"p":1.99,"d":"2026-04-29"},"SP98":{"p":1.99,"d":"2026-04-29"}},"brand":"TotalEnergies","h24":true,"services":["Relais colis","Boutique alimentaire","Vente de fioul domestique","Station de gonflage","Lavage automatique","Services réparation / entretien","Vente de gaz domestique (Butane, Propane)","Automate CB 24/24"]},{"id":46140002,"lat":44.478,"lng":1.294,"addr":"LIEU DIT LA BERGERIE SUD - ROUTE DE CAHORS","city":"LUZECH","cp":"46140","fuels":{"SP95":{"p":2.188,"d":"2026-03-28"},"E10":{"p":2.144,"d":"2026-03-28"}},"brand":"Spar","h24":true,"services":["Relais colis","Boutique alimentaire","Boutique non alimentaire","Restauration à emporter","Vente de gaz domestique (Butane, Propane)","Automate CB 24/24","DAB (Distributeur automatique de billets)"]},{"id":46600002,"lat":44.93612,"lng":1.60076,"addr":"Avenue de Souillac","city":"Martel","cp":"46600","fuels":{"Gazole":{"p":2.159,"d":"2026-04-28"},"E10":{"p":1.989,"d":"2026-04-28"},"SP98":{"p":2.059,"d":"2026-04-28"}},"brand":"Intermache","services":["Vente de gaz domestique (Butane, Propane)","DAB (Distributeur automatique de billets)"]},{"id":46000006,"lat":44.436,"lng":1.552,"addr":"Avenue Edouard Herriot","city":"CAHORS","cp":"46000","fuels":{"Gazole":{"p":2.176,"d":"2026-04-29"},"E85":{"p":0.819,"d":"2026-04-29"},"E10":{"p":1.992,"d":"2026-04-29"},"SP98":{"p":2.075,"d":"2026-04-29"}},"brand":"Intermarché","h24":true,"services":["Toilettes publiques","Laverie","Boutique alimentaire","Restauration à emporter","Vente de pétrole lampant","Station de gonflage","Aire de camping-cars","Location de véhicule","Piste poids lourds","Lavage automatique","Lavage manuel","Vente de gaz domestique (Butane, Propane)","Bornes électriques","Automate CB 24/24","DAB (Distributeur automatique de billets)"]},{"id":46160001,"lat":44.48692,"lng":1.84248,"addr":"PLACE DU FOIRAIL","city":"Cajarc","cp":"46160","fuels":{"Gazole":{"p":2.2,"d":"2026-04-24"},"E10":{"p":1.99,"d":"2026-04-24"},"SP98":{"p":1.99,"d":"2026-04-24"}},"brand":"TotalEnergies","services":["Toilettes publiques","Boutique non alimentaire","Vente de fioul domestique","Station de gonflage","Carburant additivé"]},{"id":46330001,"lat":44.471,"lng":1.687,"addr":"32 impasse du coulabio","city":"Tour-de-Faure","cp":"46330","fuels":{"Gazole":{"p":2.498,"d":"2026-04-26"},"E10":{"p":2.101,"d":"2026-04-26"},"SP98":{"p":2.198,"d":"2026-04-26"}},"h24":true,"services":["Boutique alimentaire","Boutique non alimentaire","Restauration à emporter","Lavage manuel","Vente de gaz domestique (Butane, Propane)","Automate CB 24/24"]},{"id":46100005,"lat":44.606,"lng":2.013,"addr":"15 rue Saint Georges","city":"Figeac","cp":"46100","fuels":{"Gazole":{"p":2.195,"d":"2026-04-24"},"E10":{"p":1.993,"d":"2026-04-24"},"SP98":{"p":2.109,"d":"2026-04-24"}},"brand":"Intermarché","h24":true,"services":["Laverie","Station de gonflage","Piste poids lourds","Lavage automatique","Vente de gaz domestique (Butane, Propane)","Automate CB 24/24","DAB (Distributeur automatique de billets)"]},{"id":46600003,"lat":45.021,"lng":1.52,"addr":"Le Bourg - RN 20","city":"CRESSENSAC","cp":"46600","fuels":{"E10":{"p":1.99,"d":"2026-04-07"}},"brand":"TotalEnergies","h24":true,"services":["Station de gonflage","Carburant additivé","Automate CB 24/24"]},{"id":46090004,"lat":44.51,"lng":1.373,"addr":"37 BIS RUE PRINCIPALE RD811","city":"ESPERE","cp":"46090","fuels":{"Gazole":{"p":2.176,"d":"2026-04-28"},"E85":{"p":0.818,"d":"2026-04-18"},"E10":{"p":1.992,"d":"2026-04-28"},"SP98":{"p":2.057,"d":"2026-04-27"}},"brand":"Intermarché","h24":true,"services":["Toilettes publiques","Laverie","Relais colis","Boutique alimentaire","Boutique non alimentaire","Restauration à emporter","Station de gonflage","Piste poids lourds","Lavage automatique","Vente de gaz domestique (Butane, Propane)","Wifi","Automate CB 24/24"]},{"id":46220002,"lat":44.505,"lng":1.175,"addr":"ROUTE DE FUMEL","city":"PRAYSSAC","cp":"46220","fuels":{"Gazole":{"p":2.199,"d":"2026-04-25"},"E85":{"p":0.85,"d":"2026-04-25"},"GPLc":{"p":1.123,"d":"2026-04-23"},"E10":{"p":1.959,"d":"2026-04-25"},"SP98":{"p":2.059,"d":"2026-04-25"}},"brand":"Carrefour","h24":true,"services":["Station de gonflage","Piste poids lourds","Lavage automatique","Automate CB 24/24"]},{"id":46170001,"lat":44.282,"lng":1.358,"addr":"ZA DES PEYRETTES SUD","city":"CASTELNAU MONTRATIER","cp":"46170","fuels":{"Gazole":{"p":2.249,"d":"2026-04-21"},"E10":{"p":1.999,"d":"2026-04-14"},"SP98":{"p":2.099,"d":"2026-04-14"}},"brand":"Spar","h24":true,"services":["Boutique alimentaire","Piste poids lourds","Automate CB 24/24"]},{"id":46800002,"lat":44.342,"lng":1.204,"addr":"Lieu-dit le moulin de Pleysse","city":"Montcuq","cp":"46800","fuels":{"Gazole":{"p":2.22,"d":"2026-04-17"},"SP95":{"p":2.129,"d":"2026-04-17"},"SP98":{"p":2.209,"d":"2026-04-17"}},"brand":"Carrefour","h24":true,"services":["Vente de gaz domestique (Butane, Propane)","Automate CB 24/24"]},{"id":46220005,"lat":44.50144384934,"lng":1.1936775425425,"addr":"37 avenue marechal Bessières","city":"Prayssac","cp":"46220","fuels":{"Gazole":{"p":2.25,"d":"2026-04-26"},"E85":{"p":0.849,"d":"2026-04-26"},"E10":{"p":1.99,"d":"2026-04-26"}},"brand":"TotalEnergies","h24":true,"services":["Piste poids lourds","Automate CB 24/24"]},{"id":46300013,"lat":44.721,"lng":1.37,"addr":"ROUTE DE FUMEL","city":"Gourdon","cp":"46300","fuels":{"Gazole":{"p":2.129,"d":"2026-04-24"},"E85":{"p":0.775,"d":"2026-04-24"},"E10":{"p":1.975,"d":"2026-04-24"},"SP98":{"p":2.154,"d":"2026-04-24"}},"brand":"Carrefour","h24":true,"services":["Laverie","Carburant additivé","Lavage automatique","Bornes électriques","Automate CB 24/24"]},{"id":46240001,"lat":44.65,"lng":1.571,"addr":"Route de Gramat","city":"LABASTIDE-MURAT","cp":"46240","fuels":{"Gazole":{"p":2.199,"d":"2026-05-01"},"SP95":{"p":2.115,"d":"2026-05-01"},"SP98":{"p":2.159,"d":"2026-05-01"}},"services":["Laverie","Relais colis","Station de gonflage","Aire de camping-cars","Location de véhicule","Piste poids lourds","Lavage manuel","DAB (Distributeur automatique de billets)"]},{"id":46300005,"lat":44.739,"lng":1.389,"addr":"AVENUE GAMBETTA","city":"Gourdon","cp":"46300","fuels":{"Gazole":{"p":2.239,"d":"2026-04-16"},"E10":{"p":2.085,"d":"2026-04-26"},"SP98":{"p":2.159,"d":"2026-04-26"}},"brand":"Système U","services":["Vente de gaz domestique (Butane, Propane)"]},{"id":46000012,"lat":44.421,"lng":1.439,"addr":"114 RTE DE TOULOUSE","city":"CAHORS","cp":"46000","fuels":{"Gazole":{"p":2.09,"d":"2026-05-01"},"E85":{"p":0.845,"d":"2026-05-01"},"GPLc":{"p":1.099,"d":"2026-05-01"},"E10":{"p":1.99,"d":"2026-05-01"},"SP98":{"p":1.99,"d":"2026-05-01"}},"brand":"TotalEnergies","h24":true,"services":["Toilettes publiques","Boutique alimentaire","Boutique non alimentaire","Restauration à emporter","Station de gonflage","Carburant additivé","Piste poids lourds","Lavage automatique","Vente de gaz domestique (Butane, Propane)","Vente d'additifs carburants","Wifi","Automate CB 24/24"]},{"id":46270001,"lat":44.6701019718,"lng":2.16554057775,"addr":"ROUTE D'AURILLAC","city":"BAGNAC-SUR-CéLé","cp":"46270","fuels":{"Gazole":{"p":2.249,"d":"2026-04-29"},"E10":{"p":1.998,"d":"2026-04-18"},"SP98":{"p":2.169,"d":"2026-04-22"}},"brand":"Intermarché","services":["Station de gonflage","Lavage manuel","Vente de gaz domestique (Butane, Propane)","DAB (Distributeur automatique de billets)"]},{"id":46130001,"lat":44.909,"lng":1.821,"addr":"AVENUE DE LA REPUBLIQUE","city":"BIARS-SUR-CERE","cp":"46130","fuels":{"Gazole":{"p":2.159,"d":"2026-04-30"},"E85":{"p":0.807,"d":"2026-04-30"},"E10":{"p":2.008,"d":"2026-04-30"},"SP98":{"p":2.086,"d":"2026-04-30"}},"brand":"Leclerc","h24":true,"services":["Toilettes publiques","Laverie","Relais colis","Boutique alimentaire","Boutique non alimentaire","Restauration à emporter","Station de gonflage","Carburant additivé","Location de véhicule","Piste poids lourds","Lavage automatique","Lavage manuel","Services réparation / entretien","Vente de gaz domestique (Butane, Propane)","Bornes électriques","Vente d'additifs carburants","Wifi","Automate CB 24/24","DAB (Distributeur automatique de billets)"]},{"id":46000001,"lat":44.42,"lng":1.439,"addr":"Route de TOULOUSE","city":"Cahors","cp":"46000","fuels":{"Gazole":{"p":2.174,"d":"2026-04-30"},"E10":{"p":1.99,"d":"2026-04-30"},"SP98":{"p":2.049,"d":"2026-04-30"}},"brand":"Carrefour","h24":true,"services":["Toilettes publiques","Laverie","Relais colis","Restauration sur place","Station de gonflage","Location de véhicule","Piste poids lourds","Lavage automatique","Lavage manuel","Vente de gaz domestique (Butane, Propane)","Automate CB 24/24","DAB (Distributeur automatique de billets)"]},{"id":46200004,"lat":44.899,"lng":1.475,"addr":"51 rue de la Récège","city":"SOUILLAC","cp":"46200","fuels":{"Gazole":{"p":2.159,"d":"2026-04-21"},"E85":{"p":0.819,"d":"2026-04-17"},"E10":{"p":1.945,"d":"2026-04-17"}},"brand":"Netto","h24":true,"services":["Laverie","Relais colis","Boutique alimentaire","Boutique non alimentaire","Vente de gaz domestique (Butane, Propane)","Automate CB 24/24"]},{"id":46420001,"lat":44.724,"lng":1.917,"addr":"CD 940","city":"Lacapelle-Marival","cp":"46120","fuels":{"Gazole":{"p":2.198,"d":"2026-04-30"},"SP95":{"p":2.069,"d":"2026-04-30"},"SP98":{"p":2.176,"d":"2026-04-30"}},"brand":"Intermarché","h24":true,"services":["Laverie","Station de gonflage","Lavage manuel","Automate CB 24/24"]},{"id":46120001,"lat":44.728,"lng":1.921,"addr":"STATION SERVICE TOTAL ENERGIES - 142 route de Figeac","city":"LACAPELLE-MARIVAL","cp":"46120","fuels":{"Gazole":{"p":2.09,"d":"2026-04-30"},"E85":{"p":0.874,"d":"2026-04-22"},"E10":{"p":1.99,"d":"2026-04-22"}},"brand":"TotalEnergies","h24":true,"services":["Relais colis","Boutique alimentaire","Boutique non alimentaire","Restauration à emporter","Vente de fioul domestique","Station de gonflage","Carburant additivé","Vente de gaz domestique (Butane, Propane)","Vente d'additifs carburants","Wifi","Automate CB 24/24"]},{"id":46100006,"lat":44.61,"lng":2.028,"addr":"5 Avenue du Général de Gaulle","city":"Figeac","cp":"46100","fuels":{"Gazole":{"p":2.09,"d":"2026-05-01"},"SP95":{"p":1.99,"d":"2026-04-16"}},"brand":"TotalEnergies"},{"id":46140003,"lat":44.478,"lng":1.305,"addr":"Caunezil","city":"Parnac","cp":"46140","fuels":{"Gazole":{"p":2.199,"d":"2026-04-29"},"E10":{"p":1.994,"d":"2026-04-29"},"SP98":{"p":2.13,"d":"2026-03-25"}},"brand":"Carrefour","h24":true,"services":["Relais colis","Vente de fioul domestique","Vente de gaz domestique (Butane, Propane)","Automate CB 24/24"]},{"id":46110001,"lat":45,"lng":1.64,"addr":"Rue de Turenne","city":"LES QUATRE ROUTES DU LOT","cp":"46110","fuels":{"Gazole":{"p":2.199,"d":"2026-04-29"},"E10":{"p":2.019,"d":"2026-04-29"},"SP98":{"p":2.149,"d":"2026-04-29"}},"brand":"Carrefour","h24":true,"services":["Laverie","Relais colis","Boutique alimentaire","Station de gonflage","Piste poids lourds","Lavage automatique","Lavage manuel","Vente de gaz domestique (Butane, Propane)","Automate CB 24/24","DAB (Distributeur automatique de billets)"]},{"id":46600005,"lat":45.032461104245996,"lng":1.5248918369564999,"addr":"AIRE DE PECH MONTAT BI-TRAFIC","city":"CRESSENSAC","cp":"46600","fuels":{"Gazole":{"p":2.544,"d":"2026-04-30"},"GPLc":{"p":1.149,"d":"2026-04-30"},"E10":{"p":2.294,"d":"2026-04-30"},"SP98":{"p":2.394,"d":"2026-04-30"}},"brand":"Eni","services":["Toilettes publiques","Douches","Boutique alimentaire","Boutique non alimentaire","Restauration à emporter","Restauration sur place","Bar","Station de gonflage","Carburant additivé","Piste poids lourds","Espace bébé"]},{"id":46240003,"lat":44.659,"lng":1.569,"addr":"Autoroute A20","city":"LABASTIDE-MURAT","cp":"46240","fuels":{"Gazole":{"p":2.419,"d":"2026-04-27"},"E85":{"p":1.159,"d":"2026-04-16"},"GPLc":{"p":1.064,"d":"2026-04-07"},"E10":{"p":2.149,"d":"2026-04-27"},"SP98":{"p":2.185,"d":"2026-04-21"}},"h24":true,"services":["Toilettes publiques","Douches","Boutique alimentaire","Boutique non alimentaire","Restauration à emporter","Restauration sur place","Station de gonflage","Carburant additivé","Aire de camping-cars","Piste poids lourds","Espace bébé","Bornes électriques","Vente d'additifs carburants","Wifi","Automate CB 24/24","DAB (Distributeur automatique de billets)"]},{"id":46320001,"lat":44.655314565001994,"lng":1.8508449975826,"addr":"Zone Artisanale Coupille","city":"LIVERNON","cp":"46320","fuels":{"Gazole":{"p":2.198,"d":"2026-04-30"},"E85":{"p":0.818,"d":"2026-04-16"},"E10":{"p":2.069,"d":"2026-04-30"},"SP98":{"p":2.176,"d":"2026-04-30"}},"brand":"Intermarché","h24":true,"services":["Laverie","Station de gonflage","Carburant additivé","Aire de camping-cars","Piste poids lourds","Lavage automatique","Lavage manuel","Vente d'additifs carburants","Automate CB 24/24"]},{"id":46230004,"lat":44.341103768778,"lng":1.5422035789824,"addr":"99 route de castelnau","city":"lalbenque","cp":"46230","fuels":{"Gazole":{"p":2.25,"d":"2026-04-30"},"SP95":{"p":1.99,"d":"2026-04-30"}},"brand":"TotalEnergies","h24":true,"services":["Boutique non alimentaire","Carburant additivé","Lavage automatique","Services réparation / entretien","Vente d'additifs carburants","Wifi","Automate CB 24/24"]},{"id":46000008,"lat":44.469,"lng":1.43,"addr":"Combe du Paysan","city":"Cahors","cp":"46000","fuels":{"Gazole":{"p":2.176,"d":"2026-04-29"},"E85":{"p":0.819,"d":"2026-04-16"},"E10":{"p":1.999,"d":"2026-04-30"},"SP98":{"p":2.067,"d":"2026-04-29"}},"brand":"Netto","h24":true,"services":["Laverie","Boutique alimentaire","Station de gonflage","Piste poids lourds","Vente de gaz domestique (Butane, Propane)","Automate CB 24/24"]},{"id":46500001,"lat":44.78723,"lng":1.74089,"addr":"ROUTE DE ST CERE","city":"Gramat","cp":"46500","fuels":{"Gazole":{"p":2.09,"d":"2026-05-01"},"SP95":{"p":1.99,"d":"2026-03-06"}},"brand":"TotalEnergies","services":["Boutique alimentaire","Boutique non alimentaire","Vente de fioul domestique","Station de gonflage","Carburant additivé","Piste poids lourds","Lavage automatique","Lavage manuel","Services réparation / entretien","DAB (Distributeur automatique de billets)"]},{"id":46000013,"lat":44.449286900000004,"lng":1.4372362050987,"addr":"47, Avenue du 7 ème R.I.","city":"CAHORS","cp":"46000","fuels":{"Gazole":{"p":2.289,"d":"2026-04-30"},"E85":{"p":0.865,"d":"2026-04-30"},"GPLc":{"p":1.059,"d":"2026-04-20"},"E10":{"p":2.099,"d":"2026-04-30"},"SP98":{"p":2.199,"d":"2026-04-01"}},"brand":"Avia","services":["Boutique alimentaire","Boutique non alimentaire","Station de gonflage","Carburant additivé","Location de véhicule","Lavage automatique","Vente de gaz domestique (Butane, Propane)"]},{"id":46300007,"lat":44.74,"lng":1.391,"addr":"5 Boulevard de la Madeleine","city":"GOURDON","cp":"46300","fuels":{"Gazole":{"p":2.25,"d":"2026-04-22"},"E10":{"p":2.03,"d":"2026-04-22"},"SP98":{"p":2.08,"d":"2026-04-22"}},"brand":"Avia","h24":true,"services":["Vente de fioul domestique","Carburant additivé","Piste poids lourds","Vente de gaz domestique (Butane, Propane)","Automate CB 24/24"]},{"id":46340001,"lat":44.679844320529,"lng":1.2609330195636,"addr":"Les Peyroutilles","city":"Salviac","cp":"46340","fuels":{"Gazole":{"p":2.199,"d":"2026-04-29"},"E85":{"p":0.819,"d":"2026-04-29"},"E10":{"p":2.019,"d":"2026-04-29"},"SP98":{"p":2.095,"d":"2026-04-29"}},"brand":"Système U","h24":true,"services":["Automate CB 24/24"]},{"id":46150001,"lat":44.554,"lng":1.338,"addr":"LE CRABOL","city":"Catus","cp":"46150","fuels":{"Gazole":{"p":2.404,"d":"2026-03-31"},"E10":{"p":2.053,"d":"2026-03-31"},"SP98":{"p":2.136,"d":"2026-03-31"}},"services":["Relais colis","Boutique alimentaire","Restauration à emporter","Restauration sur place","Vente de pétrole lampant","Vente de gaz domestique (Butane, Propane)"]},{"id":46230005,"lat":44.343512136314,"lng":1.5414736828542,"addr":"231 ROUTE DE CAHORS","city":"LALBENQUE","cp":"46230","fuels":{"Gazole":{"p":2.199,"d":"2026-04-29"},"E10":{"p":2.009,"d":"2026-04-29"},"SP98":{"p":2.109,"d":"2026-04-29"}},"brand":"Carrefour","h24":true,"services":["Laverie","Boutique alimentaire","Station de gonflage","Location de véhicule","Lavage manuel","Automate CB 24/24"]},{"id":46400004,"lat":44.86,"lng":1.882,"addr":"401 Avenue de Monzie","city":"Saint-Céré","cp":"46400","fuels":{"Gazole":{"p":2.25,"d":"2026-04-17"},"E85":{"p":0.905,"d":"2026-04-17"},"E10":{"p":1.99,"d":"2026-04-17"},"SP98":{"p":1.99,"d":"2026-04-17"}},"brand":"TotalEnergies","h24":true,"services":["Toilettes publiques","Boutique alimentaire","Boutique non alimentaire","Station de gonflage","Carburant additivé","Services réparation / entretien","Automate CB 24/24"]},{"id":46700001,"lat":44.501,"lng":1.143,"addr":"14 rue des platanes","city":"Puy-l'Évêque","cp":"46700","fuels":{"Gazole":{"p":2.154,"d":"2026-04-29"},"E10":{"p":1.955,"d":"2026-04-29"},"SP98":{"p":2.045,"d":"2026-04-24"}},"brand":"Intermarché","h24":true,"services":["Laverie","Relais colis","Station de gonflage","Carburant additivé","Vente de gaz domestique (Butane, Propane)","Wifi","Automate CB 24/24","DAB (Distributeur automatique de billets)"]},{"id":46300009,"lat":44.7422129,"lng":1.4355697,"addr":"ZA LES MILLEPOISES","city":"LE VIGAN","cp":"46300","fuels":{"Gazole":{"p":2.25,"d":"2026-04-22"},"E10":{"p":2.03,"d":"2026-04-22"}},"brand":"Avia","services":["Carburant additivé","Piste poids lourds","DAB (Distributeur automatique de billets)"]},{"id":46300006,"lat":44.72,"lng":1.368,"addr":"Route de Salviac","city":"GOURDON","cp":"46300","fuels":{"Gazole":{"p":2.25,"d":"2026-04-08"},"E85":{"p":0.971,"d":"2026-04-24"},"GPLc":{"p":1.13,"d":"2026-04-24"},"E10":{"p":1.99,"d":"2026-03-24"},"SP98":{"p":1.99,"d":"2026-03-24"}},"brand":"TotalEnergies","h24":true,"services":["Laverie","Boutique non alimentaire","Vente de fioul domestique","Station de gonflage","Carburant additivé","Automate CB 24/24"]},{"id":46350002,"lat":44.798,"lng":1.473,"addr":"523 avenue de toulouse","city":"PAYRAC","cp":"46350","fuels":{"Gazole":{"p":2.25,"d":"2026-04-16"},"E10":{"p":1.99,"d":"2026-04-08"},"SP98":{"p":1.99,"d":"2026-04-08"}},"brand":"TotalEnergies","h24":true,"services":["Boutique alimentaire","Boutique non alimentaire","Vente de fioul domestique","Station de gonflage","Carburant additivé","Piste poids lourds","Lavage manuel","Services réparation / entretien","Vente d'additifs carburants","Wifi","Automate CB 24/24"]},{"id":46100002,"lat":44.595,"lng":2.062,"addr":"Le Couquet CAPDENAC LE HAUT","city":"FIGEAC","cp":"46100","fuels":{"Gazole":{"p":2.169,"d":"2026-04-30"},"E85":{"p":0.798,"d":"2026-04-30"},"E10":{"p":2.028,"d":"2026-04-30"},"SP98":{"p":2.108,"d":"2026-04-30"}},"brand":"Leclerc","h24":true,"services":["Toilettes publiques","Laverie","Relais colis","Boutique alimentaire","Boutique non alimentaire","Restauration à emporter","Restauration sur place","Vente de fioul domestique","Station de gonflage","Carburant additivé","Location de véhicule","Piste poids lourds","Lavage automatique","Lavage manuel","Services réparation / entretien","Vente de gaz domestique (Butane, Propane)","Vente d'additifs carburants","Automate CB 24/24","DAB (Distributeur automatique de billets)"]},{"id":46500003,"lat":44.787,"lng":1.72,"addr":"route de Brive","city":"Gramat","cp":"46500","fuels":{"Gazole":{"p":2.159,"d":"2026-04-30"},"SP95":{"p":2.093,"d":"2026-04-30"},"E85":{"p":0.817,"d":"2026-04-30"},"E10":{"p":1.999,"d":"2026-04-30"},"SP98":{"p":2.076,"d":"2026-04-30"}},"brand":"Leclerc","h24":true,"services":["Toilettes publiques","Boutique alimentaire","Boutique non alimentaire","Restauration sur place","Vente de pétrole lampant","Location de véhicule","Piste poids lourds","Vente de gaz domestique (Butane, Propane)","Automate CB 24/24","DAB (Distributeur automatique de billets)"]},{"id":46400002,"lat":44.867,"lng":1.887,"addr":"1125 avenue Charles de Gaulle","city":"SAINT-LAURENT-LES-TOURS","cp":"46400","fuels":{"Gazole":{"p":2.159,"d":"2026-04-30"},"SP95":{"p":2.093,"d":"2026-04-30"},"E10":{"p":2.008,"d":"2026-04-30"},"SP98":{"p":2.086,"d":"2026-04-30"}},"brand":"Leclerc","h24":true,"services":["Toilettes publiques","Laverie","Relais colis","Boutique alimentaire","Boutique non alimentaire","Restauration à emporter","Station de gonflage","Carburant additivé","Aire de camping-cars","Location de véhicule","Piste poids lourds","Lavage automatique","Services réparation / entretien","Vente de gaz domestique (Butane, Propane)","Bornes électriques","Vente d'additifs carburants","Wifi","Automate CB 24/24","DAB (Distributeur automatique de billets)"]},{"id":46100007,"lat":44.607,"lng":2.024,"addr":"15 Avenue Président Georges Pompidou","city":"FIGEAC","cp":"46100","fuels":{"Gazole":{"p":2.195,"d":"2026-04-23"},"SP95":{"p":2.049,"d":"2026-04-23"},"SP98":{"p":2.109,"d":"2026-04-23"}},"brand":"Carrefour","h24":true,"services":["Laverie","Boutique alimentaire","Boutique non alimentaire","Vente de pétrole lampant","Vente de gaz domestique (Butane, Propane)","Bornes électriques","Wifi","Automate CB 24/24"]},{"id":46000007,"lat":44.461,"lng":1.423,"addr":"Avenue Maryse Bastié","city":"Cahors","cp":"46000","fuels":{"Gazole":{"p":2.176,"d":"2026-04-29"},"E85":{"p":0.819,"d":"2026-04-29"},"E10":{"p":1.996,"d":"2026-04-29"},"SP98":{"p":2.067,"d":"2026-04-29"}},"brand":"Intermarché","h24":true,"services":["Boutique alimentaire","Station de gonflage","Vente de gaz domestique (Butane, Propane)","Bornes électriques","Automate CB 24/24"]},{"id":46090003,"lat":44.469,"lng":1.483,"addr":"318 ROUTE DE CAHORS","city":"LAMAGDELAINE","cp":"46090","fuels":{"Gazole":{"p":2.09,"d":"2026-05-01"},"E10":{"p":1.99,"d":"2026-04-28"},"SP98":{"p":1.99,"d":"2026-04-28"}},"brand":"TotalEnergies","h24":true,"services":["Toilettes publiques","Relais colis","Boutique alimentaire","Station de gonflage","Carburant additivé","Location de véhicule","Piste poids lourds","Lavage automatique","Lavage manuel","Services réparation / entretien","Vente de gaz domestique (Butane, Propane)","Vente d'additifs carburants","Automate CB 24/24"]},{"id":46140004,"lat":44.407817,"lng":1.257638,"addr":"LA SEOUNE EST","city":"Sauzet","cp":"46140","fuels":{"Gazole":{"p":2.3,"d":"2026-04-28"},"E10":{"p":2.08,"d":"2026-04-28"},"SP98":{"p":2.21,"d":"2026-04-28"}},"brand":"Aire C","h24":true,"services":["Lavage automatique","Automate CB 24/24"]},{"id":46300011,"lat":44.74,"lng":1.391,"addr":"9 BOULEVARD DE LA MADELEINE","city":"GOURDON","cp":"46300","fuels":{"Gazole":{"p":2.09,"d":"2026-05-01"},"E10":{"p":1.99,"d":"2026-05-01"}},"brand":"Total Contact","services":["Relais colis","Boutique alimentaire","Boutique non alimentaire","Vente d'additifs carburants"]},{"id":46320002,"lat":44.670720514542005,"lng":1.7887545871555,"addr":"l'aérodrome","city":"Durbans","cp":"46320","fuels":{"Gazole":{"p":2.09,"d":"2026-05-01"},"E10":{"p":1.99,"d":"2026-05-01"},"SP98":{"p":1.99,"d":"2026-05-01"}},"brand":"TotalEnergies","h24":true,"services":["Piste poids lourds","Automate CB 24/24"]},{"id":46800003,"lat":44.339,"lng":1.201,"addr":"2264 Avenue saint jean","city":"Montcuq","cp":"46800","fuels":{"Gazole":{"p":2.25,"d":"2026-04-16"},"E10":{"p":1.99,"d":"2026-04-16"},"SP98":{"p":1.99,"d":"2026-04-16"}},"brand":"TotalEnergies","h24":true,"services":["Toilettes publiques","Boutique alimentaire","Piste poids lourds","Automate CB 24/24"]},{"id":46160002,"lat":44.489,"lng":1.846,"addr":"230 avenue Germain Canet","city":"CAJARC","cp":"46160","fuels":{"Gazole":{"p":2.249,"d":"2026-04-24"},"E10":{"p":2.009,"d":"2026-04-24"},"SP98":{"p":2.139,"d":"2026-04-24"}},"brand":"Groupement des Mousquetaires","h24":true,"services":["Toilettes publiques","Boutique alimentaire","Boutique non alimentaire","Station de gonflage","Location de véhicule","Lavage automatique","Lavage manuel","Vente de gaz domestique (Butane, Propane)","Automate CB 24/24"]},{"id":46220003,"lat":44.502,"lng":1.186,"addr":"Chemin des Gaulies","city":"PRAYSSAC","cp":"46220","fuels":{"Gazole":{"p":2.154,"d":"2026-04-28"},"E85":{"p":0.818,"d":"2026-04-22"},"E10":{"p":1.955,"d":"2026-04-28"},"SP98":{"p":2.062,"d":"2026-04-28"}},"brand":"Intermarché","services":["Laverie","Station de gonflage","Location de véhicule","Piste poids lourds","Lavage automatique","Vente de gaz domestique (Butane, Propane)","Bornes électriques","DAB (Distributeur automatique de billets)"]},{"id":46500006,"lat":44.781,"lng":1.727,"addr":"1 RUE LOUIS FAJOLLES","city":"Gramat","cp":"46500","fuels":{"Gazole":{"p":2.155,"d":"2026-04-30"},"E10":{"p":1.995,"d":"2026-04-30"},"SP98":{"p":2.075,"d":"2026-04-30"}},"brand":"Carrefour","h24":true,"services":["Laverie","Vente de pétrole lampant","Automate CB 24/24"]},{"id":46200001,"lat":44.899,"lng":1.477,"addr":"Avenue du Général de Gaulle","city":"Souillac","cp":"46200","fuels":{"Gazole":{"p":2.25,"d":"2026-04-30"},"E85":{"p":0.929,"d":"2026-04-15"},"E10":{"p":1.99,"d":"2026-04-15"},"SP98":{"p":1.99,"d":"2026-04-15"}},"brand":"TotalEnergies","h24":true,"services":["Boutique alimentaire","Boutique non alimentaire","Station de gonflage","Carburant additivé","Location de véhicule","Piste poids lourds","Lavage automatique","Lavage manuel","Vente de gaz domestique (Butane, Propane)","Vente d'additifs carburants","Automate CB 24/24"]},{"id":46260002,"lat":44.396,"lng":1.768,"addr":"309 AVENUE DE CAHORS","city":"LIMOGNE EN QUERCY","cp":"46260","fuels":{"Gazole":{"p":2.09,"d":"2026-04-30"},"E10":{"p":1.99,"d":"2026-04-17"},"SP98":{"p":1.99,"d":"2026-04-17"}},"brand":"TotalEnergies","h24":true,"services":["Vente de fioul domestique","Services réparation / entretien","Vente de gaz domestique (Butane, Propane)","Automate CB 24/24"]},{"id":46090002,"lat":44.464,"lng":1.421,"addr":"Route de Luzech","city":"CAHORS","cp":"46000","fuels":{"Gazole":{"p":2.176,"d":"2026-04-28"},"E85":{"p":0.739,"d":"2026-04-20"},"GPLc":{"p":1.11,"d":"2026-04-20"},"E10":{"p":1.999,"d":"2026-04-30"},"SP98":{"p":2.045,"d":"2026-04-20"}},"brand":"Leclerc","services":["Toilettes publiques","Laverie","Relais colis","Boutique alimentaire","Boutique non alimentaire","Restauration à emporter","Vente de pétrole lampant","Station de gonflage","Carburant additivé","Aire de camping-cars","Location de véhicule","Piste poids lourds","Lavage automatique","Lavage manuel","Espace bébé","Services réparation / entretien","Vente de gaz domestique (Butane, Propane)","Bornes électriques","Vente d'additifs carburants","DAB (Distributeur automatique de billets)"]},{"id":46500007,"lat":44.774421178160004,"lng":1.7214745853624,"addr":"37 Av. Louis Mazet","city":"GRAMAT","cp":"46500","fuels":{"Gazole":{"p":2.25,"d":"2026-04-09"},"SP95":{"p":1.99,"d":"2026-03-26"}},"brand":"TotalEnergies","h24":true,"services":["Location de véhicule","Lavage automatique","Automate CB 24/24"]},{"id":46110003,"lat":44.953,"lng":1.703,"addr":"189, avenue de Saint Céré","city":"VAYRAC","cp":"46110","fuels":{"Gazole":{"p":2.25,"d":"2026-04-21"},"E10":{"p":2.03,"d":"2026-04-21"},"SP98":{"p":2.089,"d":"2026-04-21"}},"brand":"Avia","h24":true,"services":["Toilettes publiques","Boutique non alimentaire","Vente de fioul domestique","Station de gonflage","Carburant additivé","Piste poids lourds","Vente d'additifs carburants","Automate CB 24/24"]},{"id":46130003,"lat":44.912,"lng":1.842,"addr":"513 Avenue de la Libération","city":"Bretenoux","cp":"46130","fuels":{"Gazole":{"p":2.25,"d":"2026-04-30"},"SP95":{"p":1.99,"d":"2026-04-30"},"SP98":{"p":1.99,"d":"2026-04-30"}},"brand":"TotalEnergies","h24":true,"services":["Boutique non alimentaire","Station de gonflage","Carburant additivé","Piste poids lourds","Services réparation / entretien","Automate CB 24/24"]}]