[{"id":56580001,"lat":48.061,"lng":-2.69,"addr":"16 rue chateaubriand","city":"Bréhan","cp":"56580","fuels":{"Gazole":{"p":2.239,"d":"2026-04-29"},"SP95":{"p":2.029,"d":"2026-04-29"},"SP98":{"p":2.049,"d":"2026-04-29"}},"brand":"U","h24":true,"services":["Relais colis","Station de gonflage","Aire de camping-cars","Piste poids lourds","Lavage automatique","Lavage manuel","Vente de gaz domestique (Butane, Propane)","Automate CB 24/24","DAB (Distributeur automatique de billets)"]},{"id":56530001,"lat":47.79,"lng":-3.421,"addr":"Place Pierre Quinio","city":"Quéven","cp":"56530","fuels":{"Gazole":{"p":2.165,"d":"2026-04-29"},"E10":{"p":1.989,"d":"2026-04-29"},"SP98":{"p":2.029,"d":"2026-04-29"}},"brand":"Leclerc","h24":true,"services":["Toilettes publiques","Laverie","Relais colis","Boutique alimentaire","Boutique non alimentaire","Restauration sur place","Location de véhicule","Vente de gaz domestique (Butane, Propane)","Bornes électriques","Wifi","Automate CB 24/24","DAB (Distributeur automatique de billets)"]},{"id":56550002,"lat":47.676,"lng":-3.197,"addr":"97 route de PONT LOROIS","city":"Belz","cp":"56550","fuels":{"Gazole":{"p":2.25,"d":"2026-04-30"},"E10":{"p":1.99,"d":"2026-04-30"},"SP98":{"p":1.99,"d":"2026-04-30"}},"brand":"TotalEnergies","h24":true,"services":["Boutique alimentaire","Boutique non alimentaire","Station de gonflage","Carburant additivé","Vente de gaz domestique (Butane, Propane)","Vente d'additifs carburants","Automate CB 24/24"]},{"id":56200004,"lat":47.778788439912006,"lng":-2.1260273830208,"addr":"ZAC du RAHUN","city":"LA GACILLY","cp":"56200","fuels":{"Gazole":{"p":2.176,"d":"2026-04-29"},"E10":{"p":1.955,"d":"2026-04-29"},"SP98":{"p":2.074,"d":"2026-04-21"}},"brand":"Casino","h24":true,"services":["Toilettes publiques","Laverie","Boutique alimentaire","Vente de pétrole lampant","Station de gonflage","Piste poids lourds","Lavage automatique","Vente de gaz domestique (Butane, Propane)","Automate CB 24/24"]},{"id":56500005,"lat":47.90027,"lng":-2.83932,"addr":"Giratoire de Kérabuse","city":"Moréac","cp":"56500","fuels":{"Gazole":{"p":2.182,"d":"2026-04-30"},"SP95":{"p":2.04,"d":"2026-04-28"},"E10":{"p":1.99,"d":"2026-04-30"}},"brand":"Leclerc"},{"id":56150001,"lat":47.877,"lng":-3.02,"addr":"ZA de Kermestre","city":"BAUD","cp":"56150","fuels":{"Gazole":{"p":2.189,"d":"2026-04-30"},"E10":{"p":1.989,"d":"2026-04-30"},"SP98":{"p":2.059,"d":"2026-04-30"}},"brand":"Carrefour","h24":true,"services":["Toilettes publiques","Laverie","Relais colis","Station de gonflage","Aire de camping-cars","Location de véhicule","Lavage automatique","Vente de gaz domestique (Butane, Propane)","Wifi","Automate CB 24/24","DAB (Distributeur automatique de billets)"]},{"id":56450004,"lat":47.576,"lng":-2.628,"addr":"Le Lobréont","city":"SURZUR","cp":"56450","fuels":{"Gazole":{"p":2.179,"d":"2026-04-29"},"SP95":{"p":2.019,"d":"2026-04-29"},"E10":{"p":1.969,"d":"2026-04-29"}},"brand":"Intermarché","h24":true,"services":["Station de gonflage","Vente de gaz domestique (Butane, Propane)","Automate CB 24/24","DAB (Distributeur automatique de billets)"]},{"id":56430002,"lat":48.07774,"lng":-2.27185,"addr":"ROUTE DE DINAN","city":"MAURON","cp":"56430","fuels":{"Gazole":{"p":2.09,"d":"2026-05-01"},"E10":{"p":1.99,"d":"2026-05-01"}},"brand":"TotalEnergies","services":["Boutique alimentaire","Boutique non alimentaire","Station de gonflage","Carburant additivé","Piste poids lourds","Services réparation / entretien"]},{"id":56300009,"lat":48.081,"lng":-2.967,"addr":"route de mur de bretagne","city":"Pontivy","cp":"56300","fuels":{"Gazole":{"p":2.188,"d":"2026-04-29"},"SP95":{"p":1.999,"d":"2026-04-28"},"E10":{"p":1.989,"d":"2026-04-27"}},"brand":"Netto","h24":true,"services":["Piste poids lourds","Automate CB 24/24"]},{"id":56760003,"lat":47.482,"lng":-2.471,"addr":"Rue Pont Cano","city":"Pénestin","cp":"56760","fuels":{"Gazole":{"p":2.159,"d":"2026-04-28"},"SP95":{"p":2.079,"d":"2026-04-28"},"SP98":{"p":2.119,"d":"2026-04-28"}},"brand":"Carrefour","h24":true,"services":["Laverie","Relais colis","Lavage manuel","Vente de gaz domestique (Butane, Propane)","Vente d'additifs carburants","Automate CB 24/24"]},{"id":56910001,"lat":47.814,"lng":-2.131,"addr":"LE CHENE HELEUC","city":"Carentoir","cp":"56910","fuels":{"Gazole":{"p":2.138,"d":"2026-04-30"},"E85":{"p":0.761,"d":"2026-04-30"},"E10":{"p":1.999,"d":"2026-04-30"},"SP98":{"p":2.073,"d":"2026-04-30"}},"brand":"Elan","h24":true,"services":["Automate CB 24/24","DAB (Distributeur automatique de billets)"]},{"id":56140002,"lat":47.805351384800005,"lng":-2.4022643160099997,"addr":"ZA DE LA PAVIOTAIE","city":"SAINT-MARCEL","cp":"56140","fuels":{"Gazole":{"p":2.169,"d":"2026-04-30"},"SP95":{"p":2.059,"d":"2026-04-30"},"SP98":{"p":2.079,"d":"2026-04-30"}},"services":["Toilettes publiques","Boutique alimentaire","Station de gonflage","Location de véhicule","Piste poids lourds","Lavage automatique","Lavage manuel","Vente de gaz domestique (Butane, Propane)","DAB (Distributeur automatique de billets)"]},{"id":56250003,"lat":47.675,"lng":-2.569,"addr":"Rue René Cassin","city":"SULNIAC","cp":"56250","fuels":{"Gazole":{"p":2.179,"d":"2026-04-30"},"E10":{"p":1.979,"d":"2026-04-27"},"SP98":{"p":2.099,"d":"2026-04-27"}},"brand":"Intermarché","h24":true,"services":["Laverie","Lavage automatique","Vente de gaz domestique (Butane, Propane)","Automate CB 24/24","DAB (Distributeur automatique de billets)"]},{"id":56607001,"lat":47.775,"lng":-3.346,"addr":"78 Rue Ambroise Croizat","city":"LANESTER","cp":"56600","fuels":{"Gazole":{"p":2.192,"d":"2026-04-29"},"GPLc":{"p":1.058,"d":"2026-04-25"},"E10":{"p":1.972,"d":"2026-04-29"},"SP98":{"p":2.09,"d":"2026-04-29"}},"brand":"Casino","services":["Toilettes publiques","Boutique non alimentaire","Restauration à emporter","Restauration sur place","Bar","Station de gonflage","Carburant additivé","Lavage automatique","Lavage manuel","Espace bébé","Vente de gaz domestique (Butane, Propane)","DAB (Distributeur automatique de billets)"]},{"id":56340004,"lat":47.580883557816,"lng":-3.0815108387551997,"addr":"AVENUE DES SALINES","city":"Carnac","cp":"56340","fuels":{"Gazole":{"p":2.16,"d":"2026-04-30"},"E10":{"p":1.992,"d":"2026-04-30"},"SP98":{"p":2.134,"d":"2026-04-30"}},"brand":"Intermarché","h24":true,"services":["Laverie","Boutique alimentaire","Boutique non alimentaire","Restauration à emporter","Station de gonflage","Piste poids lourds","Vente de gaz domestique (Butane, Propane)","Wifi","Automate CB 24/24"]},{"id":56890004,"lat":47.681471359867,"lng":-2.7373650772103,"addr":"4 Rue Marcel Dassault","city":"SAINT-AVé","cp":"56890","fuels":{"Gazole":{"p":2.179,"d":"2026-04-30"},"E10":{"p":2.019,"d":"2026-04-30"},"SP98":{"p":2.095,"d":"2026-04-30"}},"brand":"Intermarché","services":["Toilettes publiques","Laverie","Restauration à emporter","Station de gonflage","Location de véhicule","Piste poids lourds","Lavage manuel","Vente de gaz domestique (Butane, Propane)","DAB (Distributeur automatique de billets)"]},{"id":56400007,"lat":47.663,"lng":-3.006,"addr":"ZA de Kerbois","city":"AURAY","cp":"56400","fuels":{"Gazole":{"p":2.152,"d":"2026-04-29"},"SP95":{"p":2.014,"d":"2026-04-29"},"SP98":{"p":2.086,"d":"2026-04-28"}},"brand":"Leclerc","h24":true,"services":["Boutique alimentaire","Boutique non alimentaire","Restauration sur place","Bar","Station de gonflage","Vente de gaz domestique (Butane, Propane)","Automate CB 24/24","DAB (Distributeur automatique de billets)"]},{"id":56120006,"lat":47.961927701655,"lng":-2.5451919803739,"addr":"Rue de l'écusson","city":"Josselin","cp":"56120","fuels":{"Gazole":{"p":2.179,"d":"2026-04-30"},"SP95":{"p":2.019,"d":"2026-04-29"},"E85":{"p":0.749,"d":"2026-04-27"},"E10":{"p":1.999,"d":"2026-04-30"}},"brand":"Système U","h24":true,"services":["Automate CB 24/24"]},{"id":56260001,"lat":47.728,"lng":-3.382,"addr":"C. Commercial de Quelisoy","city":"Larmor-Plage","cp":"56260","fuels":{"Gazole":{"p":2.159,"d":"2026-04-28"},"SP95":{"p":2.029,"d":"2026-04-29"},"SP98":{"p":2.069,"d":"2026-04-29"}},"brand":"Leclerc","h24":true,"services":["Boutique alimentaire","Boutique non alimentaire","Vente de gaz domestique (Butane, Propane)","Automate CB 24/24"]},{"id":56650001,"lat":47.826,"lng":-3.252,"addr":"RUE EMILE ZOLA","city":"INZINZAC-LOCHRIST","cp":"56650","fuels":{"Gazole":{"p":2.189,"d":"2026-04-30"},"E10":{"p":1.999,"d":"2026-04-30"},"SP98":{"p":2.129,"d":"2026-04-30"}},"brand":"Independent","services":["Vente de gaz domestique (Butane, Propane)","DAB (Distributeur automatique de billets)"]},{"id":56380003,"lat":47.90371150000001,"lng":-2.1218034644582002,"addr":"AVENUE DU GENERAL LECLERC","city":"GUER","cp":"56380","fuels":{"Gazole":{"p":2.155,"d":"2026-04-27"},"E85":{"p":0.836,"d":"2026-04-30"},"E10":{"p":1.995,"d":"2026-04-30"},"SP98":{"p":2.131,"d":"2026-04-30"}},"brand":"Carrefour","h24":true,"services":["Laverie","Station de gonflage","Location de véhicule","Automate CB 24/24","DAB (Distributeur automatique de billets)"]},{"id":56380002,"lat":47.905,"lng":-2.113,"addr":"Rue de la Croix Logé","city":"GUER","cp":"56380","fuels":{"Gazole":{"p":2.155,"d":"2026-04-27"},"SP95":{"p":2.019,"d":"2026-04-30"},"E10":{"p":1.979,"d":"2026-04-30"},"SP98":{"p":2.112,"d":"2026-04-30"}},"brand":"Intermarché","h24":true,"services":["Station de gonflage","Piste poids lourds","Lavage automatique","Lavage manuel","Vente de gaz domestique (Butane, Propane)","Automate CB 24/24","DAB (Distributeur automatique de billets)"]},{"id":56310001,"lat":47.961,"lng":-3.179,"addr":"Route de Plouay","city":"BUBRY","cp":"56310","fuels":{"Gazole":{"p":2.149,"d":"2026-04-30"},"SP95":{"p":2.029,"d":"2026-04-30"},"E10":{"p":1.969,"d":"2026-04-30"}},"brand":"Intermarché","services":["Laverie","Station de gonflage","Location de véhicule","Lavage manuel","Vente de gaz domestique (Butane, Propane)","DAB (Distributeur automatique de billets)"]},{"id":56000009,"lat":47.66113,"lng":-2.75507,"addr":"BOULEVARD DE LA PAIX","city":"VANNES","cp":"56000","fuels":{"Gazole":{"p":2.09,"d":"2026-05-01"},"SP95":{"p":1.636,"d":"2025-09-01"},"E85":{"p":0.809,"d":"2026-05-01"},"E10":{"p":1.99,"d":"2026-05-01"},"SP98":{"p":1.99,"d":"2026-05-01"}},"brand":"TotalEnergies"},{"id":56110001,"lat":48.14145,"lng":-3.61998,"addr":"Route de Quimper","city":"Gourin","cp":"56110","fuels":{"Gazole":{"p":2.154,"d":"2026-04-28"},"SP95":{"p":1.995,"d":"2026-04-28"},"SP98":{"p":2.027,"d":"2026-04-28"}},"brand":"Leclerc","services":["Boutique alimentaire","Boutique non alimentaire","Vente de gaz domestique (Butane, Propane)"]},{"id":56880001,"lat":47.65958,"lng":-2.8692,"addr":"1, AVENUE ERIC TABARLY","city":"Ploeren","cp":"56880","fuels":{"Gazole":{"p":2.169,"d":"2026-04-30"},"E10":{"p":1.989,"d":"2026-04-28"},"SP98":{"p":2.089,"d":"2026-04-30"}},"brand":"Intermarché","services":["Boutique alimentaire","Boutique non alimentaire","Restauration à emporter","Station de gonflage","Lavage manuel","Vente de gaz domestique (Butane, Propane)","DAB (Distributeur automatique de billets)"]},{"id":56120004,"lat":47.964,"lng":-2.545,"addr":"Espace Commercial Oxygène","city":"JOSSELIN","cp":"56120","fuels":{"Gazole":{"p":2.179,"d":"2026-04-30"},"SP95":{"p":2.019,"d":"2026-04-29"},"GPLc":{"p":1.069,"d":"2026-04-14"},"E10":{"p":1.999,"d":"2026-04-30"},"SP98":{"p":2.059,"d":"2026-04-22"}},"brand":"Système U","h24":true,"services":["Toilettes publiques","Laverie","Relais colis","Boutique alimentaire","Boutique non alimentaire","Restauration à emporter","Restauration sur place","Station de gonflage","Carburant additivé","Location de véhicule","Piste poids lourds","Lavage automatique","Lavage manuel","Espace bébé","Vente de gaz domestique (Butane, Propane)","Vente d'additifs carburants","Wifi","Automate CB 24/24","DAB (Distributeur automatique de billets)"]},{"id":56006001,"lat":47.66,"lng":-2.792,"addr":"101 AVENUE DE LA MARNE","city":"VANNES","cp":"56000","fuels":{"Gazole":{"p":2.146,"d":"2026-04-30"},"SP95":{"p":2.079,"d":"2026-04-30"},"E85":{"p":0.705,"d":"2026-04-30"},"GPLc":{"p":1.069,"d":"2026-04-30"},"E10":{"p":1.988,"d":"2026-04-30"},"SP98":{"p":2.14,"d":"2026-04-30"}},"brand":"Carrefour","h24":true,"services":["Station de gonflage","Carburant additivé","Piste poids lourds","Vente de gaz domestique (Butane, Propane)","Automate CB 24/24","DAB (Distributeur automatique de billets)"]},{"id":56300004,"lat":48.057,"lng":-2.963,"addr":"22 rue Albert de Mun","city":"Pontivy","cp":"56300","fuels":{"Gazole":{"p":2.09,"d":"2026-05-01"},"SP95":{"p":1.99,"d":"2026-05-01"},"GPLc":{"p":1.1,"d":"2026-05-01"}},"brand":"TotalEnergies","services":["Relais colis","Boutique alimentaire","Boutique non alimentaire","Restauration à emporter","Restauration sur place","Bar","Carburant additivé","Piste poids lourds","Lavage manuel","Vente de gaz domestique (Butane, Propane)","Vente d'additifs carburants","Wifi","DAB (Distributeur automatique de billets)"]},{"id":56100007,"lat":47.764,"lng":-3.396,"addr":"2 Rue du Colonel Jean Muller","city":"LORIENT","cp":"56100","fuels":{"Gazole":{"p":2.179,"d":"2026-04-30"},"SP95":{"p":2,"d":"2026-04-30"},"E85":{"p":0.812,"d":"2026-04-30"},"GPLc":{"p":1.067,"d":"2026-04-30"},"E10":{"p":1.963,"d":"2026-04-30"},"SP98":{"p":2.053,"d":"2026-04-30"}},"brand":"Carrefour","h24":true,"services":["Station de gonflage","Location de véhicule","Lavage automatique","Lavage manuel","Vente de gaz domestique (Butane, Propane)","Automate CB 24/24","DAB (Distributeur automatique de billets)"]},{"id":56400002,"lat":47.664,"lng":-3.003,"addr":"36 Avenue de l'Océan","city":"AURAY","cp":"56400","fuels":{"Gazole":{"p":2.159,"d":"2026-04-29"},"E85":{"p":0.799,"d":"2026-04-14"},"GPLc":{"p":0.989,"d":"2026-04-09"},"E10":{"p":1.995,"d":"2026-04-29"},"SP98":{"p":2.086,"d":"2026-04-28"}},"brand":"Station U","services":["Restauration sur place","Bar","Vente de pétrole lampant","Station de gonflage","Location de véhicule","Vente de gaz domestique (Butane, Propane)","DAB (Distributeur automatique de billets)"]},{"id":56700003,"lat":47.765,"lng":-3.302,"addr":"KERNOUS","city":"Kervignac","cp":"56700","fuels":{"Gazole":{"p":2.222,"d":"2026-04-27"},"E10":{"p":1.99,"d":"2026-04-27"},"SP98":{"p":1.99,"d":"2026-04-27"}},"brand":"TotalEnergies","services":["Boutique alimentaire","Boutique non alimentaire","Vente de fioul domestique","Station de gonflage","Carburant additivé","Piste poids lourds","Lavage automatique","Lavage manuel","Services réparation / entretien","DAB (Distributeur automatique de billets)"]},{"id":56480001,"lat":48.127,"lng":-3.056,"addr":"Bann er Lann","city":"CLEGUEREC","cp":"56480","fuels":{"Gazole":{"p":2.3,"d":"2026-04-30"},"SP95":{"p":2.53,"d":"2026-04-01"}},"services":["Vente de fioul domestique","DAB (Distributeur automatique de billets)"]},{"id":56230003,"lat":47.6821,"lng":-2.44896,"addr":"Route de la Gare","city":"QUESTEMBERT","cp":"56230","fuels":{"Gazole":{"p":2.179,"d":"2026-04-28"},"E85":{"p":0.819,"d":"2026-04-28"},"E10":{"p":1.989,"d":"2026-04-30"},"SP98":{"p":2.099,"d":"2026-04-28"}},"brand":"Intermarché","services":["Vente de gaz domestique (Butane, Propane)","DAB (Distributeur automatique de billets)"]},{"id":56700006,"lat":47.736,"lng":-3.232,"addr":"5 Rue de la Madeleine","city":"Merlevenez","cp":"56700","fuels":{"Gazole":{"p":2.166,"d":"2026-04-29"},"E85":{"p":0.819,"d":"2026-04-29"},"E10":{"p":1.948,"d":"2026-04-29"},"SP98":{"p":2.049,"d":"2026-04-29"}},"brand":"Intermarché","services":["Laverie","Relais colis","Restauration à emporter","Lavage automatique","Lavage manuel","Vente de gaz domestique (Butane, Propane)","Bornes électriques","DAB (Distributeur automatique de billets)"]},{"id":56520005,"lat":47.821976600372,"lng":-3.46871357349,"addr":"VOIE EXPRESS 165 - KERFLEURY","city":"GUIDEL","cp":"56520","fuels":{"Gazole":{"p":2.09,"d":"2026-05-01"},"E85":{"p":0.824,"d":"2026-05-01"},"E10":{"p":1.99,"d":"2026-05-01"},"SP98":{"p":1.99,"d":"2026-05-01"}},"brand":"TotalEnergies","services":["Boutique alimentaire","Station de gonflage","Carburant additivé"]},{"id":56450007,"lat":47.629,"lng":-2.655,"addr":"Rue de Rosmadec","city":"THEIX-NOYALO","cp":"56450","fuels":{"Gazole":{"p":2.149,"d":"2026-04-29"},"SP95":{"p":2.019,"d":"2026-04-29"},"SP98":{"p":2.049,"d":"2026-04-29"}},"brand":"Carrefour","h24":true,"services":["Toilettes publiques","Relais colis","Station de gonflage","Location de véhicule","Automate CB 24/24","DAB (Distributeur automatique de billets)"]},{"id":56680001,"lat":47.696,"lng":-3.245,"addr":"Rue du 19 Mars 1962","city":"PLOUHINEC","cp":"56680","fuels":{"Gazole":{"p":2.159,"d":"2026-04-30"},"E85":{"p":0.818,"d":"2026-04-22"},"E10":{"p":1.959,"d":"2026-04-29"}},"brand":"Intermarché","h24":true,"services":["Toilettes publiques","Laverie","Station de gonflage","Piste poids lourds","Lavage automatique","Lavage manuel","Vente de gaz domestique (Butane, Propane)","Automate CB 24/24"]},{"id":56640001,"lat":47.542,"lng":-2.879,"addr":"ZA DU REDO","city":"Arzon","cp":"56640","fuels":{"Gazole":{"p":2.159,"d":"2026-04-28"},"SP95":{"p":1.999,"d":"2026-04-13"},"E10":{"p":1.969,"d":"2026-04-28"},"SP98":{"p":2.049,"d":"2026-04-28"}},"brand":"Système U","services":["Vente de gaz domestique (Butane, Propane)","DAB (Distributeur automatique de billets)"]},{"id":56230005,"lat":47.662,"lng":-2.459,"addr":"14 RUE JEAN GRIMAUD","city":"QUESTEMBERT","cp":"56230","fuels":{"Gazole":{"p":2.199,"d":"2026-04-20"},"SP95":{"p":1.999,"d":"2026-04-09"},"SP98":{"p":2.099,"d":"2026-04-09"}},"brand":"Carrefour","services":["Toilettes publiques","Location de véhicule","Vente de gaz domestique (Butane, Propane)","DAB (Distributeur automatique de billets)"]},{"id":56220003,"lat":47.678,"lng":-2.295,"addr":"PA de la Chaussée","city":"Malansac","cp":"56220","fuels":{"Gazole":{"p":2.168,"d":"2026-04-29"},"E85":{"p":0.754,"d":"2026-04-29"},"E10":{"p":1.98,"d":"2026-04-30"},"SP98":{"p":2.049,"d":"2026-04-30"}},"brand":"Système U","services":["Laverie","Boutique alimentaire","Station de gonflage","Location de véhicule","Lavage automatique","Lavage manuel","Vente de gaz domestique (Butane, Propane)","Wifi","DAB (Distributeur automatique de billets)"]},{"id":56500004,"lat":47.99,"lng":-2.708,"addr":"Rue du Chanoine Martin","city":"RéGUINY","cp":"56500","fuels":{"Gazole":{"p":2.179,"d":"2026-04-29"},"E10":{"p":1.959,"d":"2026-04-29"},"SP98":{"p":2.059,"d":"2026-04-29"}},"brand":"Intermarché","h24":true,"services":["Laverie","Station de gonflage","Lavage automatique","Vente de gaz domestique (Butane, Propane)","Automate CB 24/24","DAB (Distributeur automatique de billets)"]},{"id":56360004,"lat":47.33923,"lng":-3.17575,"addr":"Kersablen","city":"Le Palais","cp":"56360","fuels":{"Gazole":{"p":2.542,"d":"2026-04-22"},"SP95":{"p":2.272,"d":"2026-04-21"}},"brand":"Système U","services":["Vente de fioul domestique","Station de gonflage","Lavage automatique","DAB (Distributeur automatique de billets)"]},{"id":56800001,"lat":47.931,"lng":-2.381,"addr":"Z.A. ST DENIS","city":"Ploërmel","cp":"56800","fuels":{"Gazole":{"p":2.179,"d":"2026-04-29"},"E85":{"p":0.739,"d":"2026-04-20"},"GPLc":{"p":1.069,"d":"2026-04-10"},"E10":{"p":1.989,"d":"2026-04-28"},"SP98":{"p":2.059,"d":"2026-04-07"}},"brand":"Station U","h24":true,"services":["Relais colis","Station de gonflage","Location de véhicule","Piste poids lourds","Lavage automatique","Lavage manuel","Vente de gaz domestique (Butane, Propane)","Bornes électriques","Vente d'additifs carburants","Automate CB 24/24","DAB (Distributeur automatique de billets)"]},{"id":56600001,"lat":47.765,"lng":-3.348,"addr":"1 Rue François Mauriac","city":"LANESTER","cp":"56600","fuels":{"Gazole":{"p":2.155,"d":"2026-04-30"},"E10":{"p":1.955,"d":"2026-04-30"},"SP98":{"p":2.025,"d":"2026-04-30"}},"brand":"Leclerc","services":["Boutique alimentaire","Boutique non alimentaire","Vente de gaz domestique (Butane, Propane)"]},{"id":56720001,"lat":47.59785,"lng":-3.11074,"addr":"ROUTE DE CARNAC","city":"PLOUHARNEL","cp":"56340","fuels":{"Gazole":{"p":2.09,"d":"2026-04-30"},"E10":{"p":1.99,"d":"2026-04-30"},"SP98":{"p":1.99,"d":"2026-04-30"}},"brand":"TotalEnergies","services":["Toilettes publiques","Boutique alimentaire","Station de gonflage","Carburant additivé"]},{"id":56000006,"lat":47.664,"lng":-2.767,"addr":"6 Avenue Georges Pompidou","city":"VANNES","cp":"56000","fuels":{"Gazole":{"p":2.159,"d":"2026-04-30"},"E10":{"p":1.999,"d":"2026-04-30"},"SP98":{"p":2.059,"d":"2026-04-27"}},"brand":"Intermarché","h24":true,"services":["Station de gonflage","Automate CB 24/24","DAB (Distributeur automatique de billets)"]},{"id":56320002,"lat":48.03187,"lng":-3.49344,"addr":"Rue de Quimper","city":"LE FAOUëT","cp":"56320","fuels":{"Gazole":{"p":2.159,"d":"2026-04-29"},"SP95":{"p":2.007,"d":"2026-04-29"},"SP98":{"p":2.045,"d":"2026-04-15"}},"brand":"Carrefour","services":["Vente de gaz domestique (Butane, Propane)","DAB (Distributeur automatique de billets)"]},{"id":56440002,"lat":47.831,"lng":-3.158,"addr":"Rue Jean Moulin","city":"Languidic","cp":"56440","fuels":{"Gazole":{"p":2.159,"d":"2026-04-29"},"E10":{"p":1.945,"d":"2026-04-29"},"SP98":{"p":2.044,"d":"2026-04-29"}},"brand":"Intermarché","services":["Station de gonflage","Vente de gaz domestique (Butane, Propane)","DAB (Distributeur automatique de billets)"]},{"id":56520006,"lat":47.8200779701,"lng":-3.46580898742,"addr":"KER FLEURY - RN 165","city":"GUIDEL","cp":"56520","fuels":{"Gazole":{"p":2.09,"d":"2026-05-01"},"E85":{"p":0.828,"d":"2026-05-01"},"E10":{"p":1.99,"d":"2026-05-01"},"SP98":{"p":1.99,"d":"2026-05-01"}},"brand":"TotalEnergies"},{"id":56330001,"lat":47.7731,"lng":-3.00444,"addr":"RUE ABBE LE MARECHAL","city":"Pluvigner","cp":"56330","fuels":{"Gazole":{"p":2.183,"d":"2026-04-30"},"E10":{"p":2.021,"d":"2026-04-30"},"SP98":{"p":2.094,"d":"2026-04-30"}},"brand":"Système U"},{"id":56410001,"lat":47.6482150952,"lng":-3.1591401509,"addr":"Route de Lorient","city":"ERDEVEN","cp":"56410","fuels":{"Gazole":{"p":2.169,"d":"2026-04-29"},"E10":{"p":1.978,"d":"2026-04-28"},"SP98":{"p":2.058,"d":"2026-04-28"}},"brand":"Intermarché","services":["Laverie","Station de gonflage","Location de véhicule","Lavage automatique","Lavage manuel","Vente de gaz domestique (Butane, Propane)","DAB (Distributeur automatique de billets)"]},{"id":56460002,"lat":47.824,"lng":-2.506,"addr":"Zone commerciale du Pont Saint-Pierre","city":"Sérent","cp":"56460","fuels":{"Gazole":{"p":2.179,"d":"2026-04-29"},"E10":{"p":1.989,"d":"2026-04-30"},"SP98":{"p":2.079,"d":"2026-04-30"}},"brand":"Intermarché","h24":true,"services":["Boutique alimentaire","Boutique non alimentaire","Station de gonflage","Lavage automatique","Lavage manuel","Vente de gaz domestique (Butane, Propane)","Automate CB 24/24","DAB (Distributeur automatique de billets)"]},{"id":56600002,"lat":47.766,"lng":-3.332,"addr":"AVENUE FRANCOIS MITTERAND BP 254","city":"LANESTER","cp":"56600","fuels":{"Gazole":{"p":2.386,"d":"2026-04-29"},"SP95":{"p":2.192,"d":"2026-04-29"},"E85":{"p":1.025,"d":"2026-04-29"},"GPLc":{"p":1.084,"d":"2026-04-29"},"SP98":{"p":2.201,"d":"2026-04-29"}},"brand":"Avia","h24":true,"services":["Boutique non alimentaire","Station de gonflage","Carburant additivé","Piste poids lourds","Lavage manuel","Services réparation / entretien","Vente de gaz domestique (Butane, Propane)","Automate CB 24/24"]},{"id":56800005,"lat":47.923,"lng":-2.404,"addr":"2 Avenue de Chateaubriand","city":"Ploërmel","cp":"56800","fuels":{"Gazole":{"p":2.179,"d":"2026-04-29"},"SP95":{"p":1.999,"d":"2026-04-28"},"E85":{"p":0.818,"d":"2026-04-24"}},"brand":"Intermarché","h24":true,"services":["Toilettes publiques","Laverie","Relais colis","Boutique alimentaire","Station de gonflage","Piste poids lourds","Lavage automatique","Lavage manuel","Vente de gaz domestique (Butane, Propane)","Bornes électriques","Automate CB 24/24","DAB (Distributeur automatique de billets)"]},{"id":56450002,"lat":47.64,"lng":-2.68,"addr":"LA CROIX DE BONNERVAUD - RN 165","city":"THEIX","cp":"56450","fuels":{"Gazole":{"p":2.319,"d":"2026-04-29"},"E85":{"p":0.955,"d":"2026-04-29"},"GPLc":{"p":1.059,"d":"2026-04-29"},"E10":{"p":2.119,"d":"2026-04-29"},"SP98":{"p":2.199,"d":"2026-04-29"}},"brand":"Avia","services":["Boutique alimentaire","Boutique non alimentaire","Restauration à emporter","Station de gonflage","Carburant additivé","Piste poids lourds","Bornes électriques"]},{"id":56770001,"lat":48.144300099999995,"lng":-3.3905771999999996,"addr":"Rue de l'Ellé","city":"PLOURAY","cp":"56770","fuels":{"Gazole":{"p":2.228,"d":"2026-04-24"},"SP95":{"p":2.034,"d":"2026-04-24"}},"services":["Station de gonflage","Aire de camping-cars","Lavage automatique","Lavage manuel","DAB (Distributeur automatique de billets)"]},{"id":56860003,"lat":47.651,"lng":-2.723,"addr":"ROUTE DE NANTES","city":"Séné","cp":"56860","fuels":{"Gazole":{"p":2.149,"d":"2026-04-28"},"E85":{"p":0.819,"d":"2026-04-23"},"E10":{"p":1.989,"d":"2026-04-30"},"SP98":{"p":2.029,"d":"2026-04-27"}},"brand":"Intermarché","h24":true,"services":["Toilettes publiques","Laverie","Relais colis","Boutique alimentaire","Boutique non alimentaire","Restauration à emporter","Restauration sur place","Bar","Carburant additivé","Location de véhicule","Piste poids lourds","Lavage automatique","Services réparation / entretien","Wifi","Automate CB 24/24","DAB (Distributeur automatique de billets)"]},{"id":56700007,"lat":47.758147046349,"lng":-3.2375896664638004,"addr":"Le Champ de la Patience","city":"Kervignac","cp":"56700","fuels":{"Gazole":{"p":2.157,"d":"2026-04-30"},"SP95":{"p":1.969,"d":"2026-04-30"},"SP98":{"p":2.01,"d":"2026-04-30"}},"brand":"Station-Service","services":["Boutique alimentaire","Boutique non alimentaire"]},{"id":56100012,"lat":47.736,"lng":-3.37,"addr":"2, RUE BENOIT FRACHON","city":"LORIENT","cp":"56100","fuels":{"Gazole":{"p":2.09,"d":"2026-05-01"},"E85":{"p":0.835,"d":"2026-05-01"},"GPLc":{"p":1.059,"d":"2026-05-01"},"E10":{"p":1.99,"d":"2026-05-01"}},"brand":"TotalEnergies","h24":true,"services":["Toilettes publiques","Boutique alimentaire","Boutique non alimentaire","Restauration à emporter","Station de gonflage","Carburant additivé","Piste poids lourds","Lavage automatique","Lavage manuel","Vente de gaz domestique (Butane, Propane)","Vente d'additifs carburants","Wifi","Automate CB 24/24"]},{"id":56240003,"lat":47.913841,"lng":-3.3333813,"addr":"Creis Er Prat","city":"PLOUAY","cp":"56240","fuels":{"Gazole":{"p":2.189,"d":"2026-04-29"},"E85":{"p":0.839,"d":"2026-04-29"},"E10":{"p":1.989,"d":"2026-04-29"},"SP98":{"p":2.079,"d":"2026-04-29"}},"brand":"Carrefour","services":["Vente de gaz domestique (Butane, Propane)"]},{"id":56120001,"lat":47.962,"lng":-2.546,"addr":"11 rue du Porhoët","city":"JOSSELIN","cp":"56120","fuels":{"Gazole":{"p":2.149,"d":"2026-04-30"},"SP95":{"p":2.009,"d":"2026-04-30"},"E10":{"p":1.989,"d":"2026-04-30"}},"brand":"Leclerc","h24":true,"services":["Toilettes publiques","Laverie","Relais colis","Boutique alimentaire","Boutique non alimentaire","Station de gonflage","Piste poids lourds","Lavage automatique","Lavage manuel","Vente de gaz domestique (Butane, Propane)","Automate CB 24/24","DAB (Distributeur automatique de billets)"]},{"id":56430001,"lat":48.07732,"lng":-2.29026,"addr":"RUE MADAME DE SEVIGNE","city":"Mauron","cp":"56430","fuels":{"Gazole":{"p":2.159,"d":"2026-04-30"},"SP95":{"p":2.049,"d":"2026-04-30"},"SP98":{"p":2.093,"d":"2026-04-30"}},"brand":"Station U","services":["Toilettes publiques","Laverie","Boutique alimentaire","Boutique non alimentaire","Restauration à emporter","Station de gonflage","Location de véhicule","Piste poids lourds","Lavage automatique","Lavage manuel","Espace bébé","Vente de gaz domestique (Butane, Propane)","DAB (Distributeur automatique de billets)"]},{"id":56620001,"lat":47.832,"lng":-3.401,"addr":"route de Lorient","city":"PONT-SCORFF","cp":"56620","fuels":{"Gazole":{"p":2.169,"d":"2026-04-29"},"E10":{"p":1.989,"d":"2026-04-27"},"SP98":{"p":2.04,"d":"2026-04-21"}},"brand":"Système U","services":["Toilettes publiques","Laverie","Relais colis","Boutique alimentaire","Boutique non alimentaire","Restauration à emporter","Station de gonflage","Location de véhicule","Vente de gaz domestique (Butane, Propane)","DAB (Distributeur automatique de billets)"]},{"id":56160001,"lat":48.064,"lng":-3.208,"addr":"Rue Jean le Guennec","city":"Guémené-sur-Scorff","cp":"56160","fuels":{"Gazole":{"p":2.129,"d":"2026-04-28"},"E85":{"p":0.818,"d":"2026-04-28"},"E10":{"p":1.945,"d":"2026-04-28"},"SP98":{"p":2.039,"d":"2026-04-28"}},"brand":"Intermarché","services":["Vente de gaz domestique (Butane, Propane)","DAB (Distributeur automatique de billets)"]},{"id":56670003,"lat":47.726,"lng":-3.322,"addr":"Lann Er Velin","city":"RIANTEC","cp":"56670","fuels":{"Gazole":{"p":2.151,"d":"2026-04-30"},"E85":{"p":0.82,"d":"2026-04-30"},"E10":{"p":1.955,"d":"2026-04-28"},"SP98":{"p":2.019,"d":"2026-04-29"}},"brand":"Leclerc","services":["Restauration à emporter","Carburant additivé","Toilettes publiques","Bar","Boutique alimentaire","Station de gonflage","Espace bébé","Boutique non alimentaire","Laverie","Vente de gaz domestique (Butane, Propane)","Location de véhicule","Relais colis","Aire de camping-cars","Piste poids lourds","DAB (Distributeur automatique de billets)","Lavage automatique","Lavage manuel","Bornes électriques","Vente d'additifs carburants","Wifi"]},{"id":56930001,"lat":47.962,"lng":-2.983,"addr":"ROUTE DE LA LIBERATION","city":"Pluméliau","cp":"56930","fuels":{"Gazole":{"p":2.167,"d":"2026-04-30"},"E10":{"p":1.978,"d":"2026-04-30"},"SP98":{"p":2.076,"d":"2026-04-30"}},"brand":"Intermarché","h24":true,"services":["Toilettes publiques","Laverie","Boutique alimentaire","Piste poids lourds","Lavage manuel","Vente de gaz domestique (Butane, Propane)","Vente d'additifs carburants","Automate CB 24/24","DAB (Distributeur automatique de billets)"]},{"id":56450005,"lat":47.636,"lng":-2.665,"addr":"RN 165","city":"THEIX","cp":"56450","fuels":{"Gazole":{"p":2.09,"d":"2026-05-01"},"E85":{"p":0.809,"d":"2026-05-01"},"E10":{"p":1.99,"d":"2026-05-01"},"SP98":{"p":1.99,"d":"2026-05-01"}},"brand":"TotalEnergies","services":["Toilettes publiques","Boutique alimentaire","Boutique non alimentaire","Restauration à emporter","Station de gonflage","Carburant additivé","Piste poids lourds","Espace bébé","DAB (Distributeur automatique de billets)"]},{"id":56270003,"lat":47.734,"lng":-3.43,"addr":"Rue de Saint-Bieuzy","city":"Ploemeur","cp":"56270","fuels":{"Gazole":{"p":2.177,"d":"2026-04-30"},"SP95":{"p":2.032,"d":"2026-04-30"},"SP98":{"p":2.113,"d":"2026-04-30"}},"brand":"Carrefour","h24":true,"services":["Vente de gaz domestique (Butane, Propane)","Automate CB 24/24","DAB (Distributeur automatique de billets)"]},{"id":56450006,"lat":47.648,"lng":-2.7,"addr":"2 rue LOUIS BRAILLE","city":"THEIX-NOYALO","cp":"56450","fuels":{"Gazole":{"p":2.135,"d":"2026-04-28"},"E85":{"p":0.705,"d":"2026-04-26"},"GPLc":{"p":1.069,"d":"2026-04-13"},"E10":{"p":1.949,"d":"2026-04-30"},"SP98":{"p":2.019,"d":"2026-04-28"}},"brand":"Leclerc","h24":true,"services":["Station de gonflage","Carburant additivé","Piste poids lourds","Lavage automatique","Lavage manuel","Vente de gaz domestique (Butane, Propane)","Automate CB 24/24","DAB (Distributeur automatique de billets)"]},{"id":56670001,"lat":47.719,"lng":-3.335,"addr":"route de la croizetière","city":"RIANTEC","cp":"56670","fuels":{"Gazole":{"p":2.164,"d":"2026-04-30"},"E10":{"p":1.961,"d":"2026-04-30"},"SP98":{"p":2.063,"d":"2026-04-30"}},"brand":"Intermarché","services":["Relais colis","Vente de gaz domestique (Butane, Propane)","DAB (Distributeur automatique de billets)"]},{"id":56100013,"lat":47.761535465599,"lng":-3.3773344110615,"addr":"3 Av. Simone Veil","city":"LORIENT","cp":"56100","fuels":{"Gazole":{"p":2.25,"d":"2026-04-29"},"E10":{"p":1.99,"d":"2026-04-29"}},"brand":"Total Contact","h24":true,"services":["Toilettes publiques","Boutique alimentaire","Boutique non alimentaire","Station de gonflage","Carburant additivé","Piste poids lourds","Services réparation / entretien","Vente de gaz domestique (Butane, Propane)","Automate CB 24/24"]},{"id":56550001,"lat":47.674,"lng":-3.172,"addr":"RUE DES SPORTS","city":"Belz","cp":"56550","fuels":{"Gazole":{"p":2.144,"d":"2026-04-27"},"E10":{"p":1.959,"d":"2026-04-29"}},"brand":"Système U","services":["Relais colis","Restauration à emporter","Restauration sur place","Station de gonflage","Location de véhicule","Piste poids lourds","Lavage automatique","Vente de gaz domestique (Butane, Propane)","Wifi","DAB (Distributeur automatique de billets)"]},{"id":56000003,"lat":47.644,"lng":-2.743,"addr":"rue Jean Perrin","city":"VANNES","cp":"56000","fuels":{"Gazole":{"p":2.185,"d":"2026-04-29"},"SP95":{"p":2.027,"d":"2026-04-29"},"SP98":{"p":2.099,"d":"2026-04-29"}},"brand":"Carrefour","h24":true,"services":["Laverie","Relais colis","Boutique alimentaire","Station de gonflage","Location de véhicule","Lavage automatique","Lavage manuel","Vente de gaz domestique (Butane, Propane)","Wifi","Automate CB 24/24","DAB (Distributeur automatique de billets)"]},{"id":56270007,"lat":47.737,"lng":-3.433,"addr":"15, ROUTE DU FORT BLOQUE","city":"PLOEMEUR","cp":"56270","fuels":{"Gazole":{"p":2.09,"d":"2026-05-01"},"E10":{"p":1.99,"d":"2026-05-01"},"SP98":{"p":1.99,"d":"2026-05-01"}},"brand":"TotalEnergies","h24":true,"services":["Toilettes publiques","Boutique alimentaire","Boutique non alimentaire","Station de gonflage","Carburant additivé","Lavage automatique","Services réparation / entretien","Vente de gaz domestique (Butane, Propane)","Wifi","Automate CB 24/24"]},{"id":56550003,"lat":47.71,"lng":-3.106,"addr":"ROUTE DE L'OCEAN","city":"Locoal-Mendon","cp":"56550","fuels":{"Gazole":{"p":2.274,"d":"2026-04-25"},"SP95":{"p":2.012,"d":"2026-04-03"},"SP98":{"p":2.092,"d":"2026-04-03"}},"brand":"Carrefour","h24":true,"services":["Relais colis","Boutique alimentaire","Vente de gaz domestique (Butane, Propane)","Automate CB 24/24"]},{"id":56000008,"lat":47.6691722685,"lng":-2.80336454446,"addr":"16 AVENUE DE LA MARNE","city":"VANNES","cp":"56000","fuels":{"Gazole":{"p":2.09,"d":"2026-05-01"},"E10":{"p":1.99,"d":"2026-05-01"},"SP98":{"p":1.99,"d":"2026-05-01"}},"brand":"Total Contact"},{"id":56400001,"lat":47.672,"lng":-2.964,"addr":"C.C. DE KERFONTAINE","city":"Pluneret","cp":"56400","fuels":{"Gazole":{"p":2.16,"d":"2026-04-30"},"SP95":{"p":2.042,"d":"2026-04-30"},"SP98":{"p":2.129,"d":"2026-04-30"}},"brand":"Carrefour","h24":true,"services":["Toilettes publiques","Relais colis","Station de gonflage","Location de véhicule","Lavage automatique","Lavage manuel","Vente de gaz domestique (Butane, Propane)","Bornes électriques","Wifi","Automate CB 24/24","DAB (Distributeur automatique de billets)"]},{"id":56640002,"lat":47.54488,"lng":-2.89724,"addr":"Chemin du Croisty","city":"ARZON","cp":"56640","fuels":{"Gazole":{"p":2.159,"d":"2026-04-28"},"E10":{"p":1.969,"d":"2026-04-28"},"SP98":{"p":2.049,"d":"2026-04-28"}},"brand":"Intermarché","services":["Piste poids lourds","Vente de gaz domestique (Butane, Propane)","DAB (Distributeur automatique de billets)"]},{"id":56370005,"lat":47.526,"lng":-2.646,"addr":"8 rue de la Mairie - le Bourg","city":"Le Tour-du-Parc","cp":"56370","fuels":{"Gazole":{"p":2.21,"d":"2026-04-28"},"SP95":{"p":2.045,"d":"2026-04-28"}},"brand":"Carrefour","h24":true,"services":["Relais colis","Boutique alimentaire","Boutique non alimentaire","Restauration à emporter","Vente de gaz domestique (Butane, Propane)","Automate CB 24/24"]},{"id":56270006,"lat":47.70303,"lng":-3.43418,"addr":"Chemin du Bois d'Amour","city":"Ploemeur","cp":"56270","fuels":{"Gazole":{"p":2.149,"d":"2026-04-23"},"E10":{"p":1.929,"d":"2026-04-29"},"SP98":{"p":2.029,"d":"2026-04-29"}},"brand":"Intermarché","services":["Boutique alimentaire","Vente de gaz domestique (Butane, Propane)","DAB (Distributeur automatique de billets)"]},{"id":56350003,"lat":47.636,"lng":-2.168,"addr":"Rue de Vannes","city":"ALLAIRE","cp":"56350","fuels":{"Gazole":{"p":2.29,"d":"2026-04-27"},"SP95":{"p":2.13,"d":"2026-04-22"}},"brand":"Avia","h24":true,"services":["Carburant additivé","Automate CB 24/24"]},{"id":56400010,"lat":47.665,"lng":-2.903,"addr":"RN 165 - AIRE DE PLOUGOUMELEN","city":"PLOUGOUMELEN","cp":"56400","fuels":{"Gazole":{"p":2.09,"d":"2026-05-01"},"E85":{"p":0.819,"d":"2026-05-01"},"GPLc":{"p":1.049,"d":"2026-05-01"},"E10":{"p":1.99,"d":"2026-05-01"},"SP98":{"p":1.99,"d":"2026-05-01"}},"brand":"TotalEnergies","h24":true,"services":["Toilettes publiques","Boutique alimentaire","Boutique non alimentaire","Restauration à emporter","Restauration sur place","Station de gonflage","Carburant additivé","Piste poids lourds","Espace bébé","Wifi","Automate CB 24/24"]},{"id":56350002,"lat":47.631,"lng":-2.101,"addr":"2 Rue de la Briqueterie","city":"RIEUX","cp":"56350","fuels":{"Gazole":{"p":2.159,"d":"2026-04-30"},"E10":{"p":1.989,"d":"2026-04-30"},"SP98":{"p":2.089,"d":"2026-04-30"}},"brand":"Intermarché","h24":true,"services":["Station de gonflage","Piste poids lourds","Vente de gaz domestique (Butane, Propane)","Automate CB 24/24","DAB (Distributeur automatique de billets)"]},{"id":56500003,"lat":47.89078,"lng":-2.83467,"addr":"ZA LE BRONUT","city":"MOREAC","cp":"56500","fuels":{"Gazole":{"p":2.189,"d":"2026-04-30"},"E85":{"p":0.818,"d":"2026-04-20"},"E10":{"p":1.968,"d":"2026-04-30"},"SP98":{"p":2.079,"d":"2026-04-30"}},"brand":"Intermarché","services":["Toilettes publiques","Laverie","Station de gonflage","Location de véhicule","Piste poids lourds","Lavage manuel","Vente de gaz domestique (Butane, Propane)","DAB (Distributeur automatique de billets)"]},{"id":56800006,"lat":47.918994310637,"lng":-2.3637616080019,"addr":"ROUTE NATIONALE 24 - AIRE SUD DE BROCÉLIANDE","city":"PLOERMEL","cp":"56800","fuels":{"Gazole":{"p":2.09,"d":"2026-05-01"},"E85":{"p":0.999,"d":"2026-05-01"},"GPLc":{"p":1.109,"d":"2026-05-01"},"E10":{"p":1.99,"d":"2026-05-01"},"SP98":{"p":1.99,"d":"2026-05-01"}},"brand":"TotalEnergies","services":["Toilettes publiques","Douches","Boutique alimentaire","Boutique non alimentaire","Restauration à emporter","Restauration sur place","Bar","Station de gonflage","Carburant additivé","Piste poids lourds","Espace bébé"]},{"id":56230002,"lat":47.664,"lng":-2.452,"addr":"ZA de Lenruit","city":"QUESTEMBERT","cp":"56230","fuels":{"Gazole":{"p":2.09,"d":"2026-04-30"},"SP95":{"p":1.99,"d":"2026-03-10"}},"brand":"TotalEnergies","services":["Relais colis","Boutique non alimentaire","Station de gonflage","Carburant additivé","Piste poids lourds","Lavage automatique"]},{"id":56700009,"lat":47.804,"lng":-3.27,"addr":"32 AVENUE DE LA LIBERATION","city":"HENNEBONT","cp":"56700","fuels":{"Gazole":{"p":2.392,"d":"2026-04-02"},"E10":{"p":2.102,"d":"2026-04-02"},"SP98":{"p":2.212,"d":"2026-04-02"}},"brand":"Esso","services":["Boutique alimentaire"]},{"id":56120005,"lat":47.946998099999995,"lng":-2.58197,"addr":"LES QUATRES VENTS","city":"Guégon","cp":"56120","fuels":{"Gazole":{"p":2.419,"d":"2026-04-23"},"SP95":{"p":2.139,"d":"2026-04-23"}},"brand":"Avia","h24":true,"services":["Carburant additivé","Automate CB 24/24"]},{"id":56950002,"lat":47.608,"lng":-2.997,"addr":"Z.C. LES ALIZES","city":"CRACH","cp":"56950","fuels":{"Gazole":{"p":2.166,"d":"2026-04-30"},"E85":{"p":0.884,"d":"2026-04-27"},"E10":{"p":1.998,"d":"2026-04-30"},"SP98":{"p":2.1,"d":"2026-04-30"}},"brand":"Intermarché","h24":true,"services":["Toilettes publiques","Laverie","Restauration sur place","Station de gonflage","Aire de camping-cars","Piste poids lourds","Lavage manuel","Vente de gaz domestique (Butane, Propane)","Bornes électriques","Automate CB 24/24","DAB (Distributeur automatique de billets)"]},{"id":56860004,"lat":47.65,"lng":-2.722,"addr":"165 ROUTE DE NANTES","city":"SENE","cp":"56860","fuels":{"Gazole":{"p":2.09,"d":"2026-05-01"},"E85":{"p":0.829,"d":"2026-05-01"},"E10":{"p":1.99,"d":"2026-05-01"}},"brand":"TotalEnergies","services":["Relais colis","Boutique alimentaire","Boutique non alimentaire","Station de gonflage","Carburant additivé","Piste poids lourds","Lavage automatique","Lavage manuel","Vente de gaz domestique (Butane, Propane)","Vente d'additifs carburants"]},{"id":56500002,"lat":47.87553,"lng":-2.82825,"addr":"ZA DE KERJEAN","city":"Locminé","cp":"56500","fuels":{"Gazole":{"p":2.195,"d":"2026-04-29"},"SP95":{"p":2.04,"d":"2026-04-29"},"E85":{"p":0.818,"d":"2026-04-29"},"E10":{"p":1.995,"d":"2026-04-29"}},"brand":"Carrefour","services":["Station de gonflage","Vente de gaz domestique (Butane, Propane)","DAB (Distributeur automatique de billets)"]},{"id":56400006,"lat":47.674,"lng":-3.001,"addr":"108 Rue Abbé Philippe le Gall","city":"Auray","cp":"56400","fuels":{"Gazole":{"p":2.2,"d":"2026-04-30"},"SP95":{"p":1.99,"d":"2026-04-30"}},"brand":"Elan","services":["Lavage automatique","Vente de gaz domestique (Butane, Propane)"]},{"id":56700004,"lat":47.799,"lng":-3.258,"addr":"LA GARDELOUPE","city":"Hennebont","cp":"56700","fuels":{"Gazole":{"p":2.169,"d":"2026-04-30"},"SP95":{"p":2.045,"d":"2026-04-30"},"E85":{"p":0.706,"d":"2026-04-30"},"E10":{"p":1.992,"d":"2026-04-30"},"SP98":{"p":2.051,"d":"2026-04-30"}},"brand":"Leclerc","services":["Boutique alimentaire","Boutique non alimentaire","Piste poids lourds","Vente de gaz domestique (Butane, Propane)","Vente d'additifs carburants"]},{"id":56000005,"lat":47.639,"lng":-2.776,"addr":"8 AVENUE DE SUFFREN","city":"VANNES","cp":"56000","fuels":{"Gazole":{"p":2.149,"d":"2026-04-28"},"E85":{"p":0.799,"d":"2026-04-18"},"E10":{"p":1.999,"d":"2026-04-28"},"SP98":{"p":2.079,"d":"2026-04-28"}},"brand":"U","h24":true,"services":["Restauration à emporter","Station de gonflage","Lavage automatique","Lavage manuel","Vente d'additifs carburants","Automate CB 24/24"]},{"id":56370002,"lat":47.5212,"lng":-2.76697,"addr":"ROND POINT DU ROALIGUEN","city":"Sarzeau","cp":"56370","fuels":{"Gazole":{"p":2.189,"d":"2026-04-21"},"SP95":{"p":1.999,"d":"2026-04-29"},"SP98":{"p":2.079,"d":"2026-04-29"}},"brand":"Système U","services":["Lavage automatique","Lavage manuel","Vente de gaz domestique (Butane, Propane)","DAB (Distributeur automatique de billets)"]},{"id":56150004,"lat":47.882,"lng":-3.018,"addr":"Route de Pontivy","city":"Baud","cp":"56150","fuels":{"Gazole":{"p":2.167,"d":"2026-04-30"},"SP95":{"p":2.057,"d":"2026-04-30"},"E10":{"p":1.989,"d":"2026-04-30"}},"brand":"Intermarché","services":["Station de gonflage","Piste poids lourds","Vente de gaz domestique (Butane, Propane)","DAB (Distributeur automatique de billets)"]},{"id":56100003,"lat":47.73528,"lng":-3.38937,"addr":"48 Avenue Chenailler Dit Col. Morice","city":"Lorient","cp":"56100","fuels":{"Gazole":{"p":2.25,"d":"2026-04-30"},"E10":{"p":1.99,"d":"2026-04-30"},"SP98":{"p":1.99,"d":"2026-04-30"}},"brand":"TotalEnergies","services":["Boutique non alimentaire","Station de gonflage","Carburant additivé","Piste poids lourds","Services réparation / entretien"]},{"id":56300001,"lat":48.069,"lng":-2.971,"addr":"35 Rue Général Quinivet","city":"PONTIVY","cp":"56300","fuels":{"Gazole":{"p":2.188,"d":"2026-04-28"},"E85":{"p":0.818,"d":"2026-04-27"},"E10":{"p":1.989,"d":"2026-04-27"},"SP98":{"p":2.079,"d":"2026-04-02"}},"brand":"Station U","services":["Station de gonflage","Location de véhicule","Lavage automatique","Vente de gaz domestique (Butane, Propane)","DAB (Distributeur automatique de billets)"]},{"id":56800003,"lat":47.92,"lng":-2.361,"addr":"RN 24 BROCELIANDE","city":"Ploërmel","cp":"56800","fuels":{"Gazole":{"p":2.502,"d":"2026-05-01"},"E10":{"p":2.387,"d":"2026-05-01"},"SP98":{"p":2.537,"d":"2026-05-01"}},"brand":"Shell","h24":true,"services":["Toilettes publiques","Douches","Boutique alimentaire","Boutique non alimentaire","Restauration à emporter","Restauration sur place","Station de gonflage","Carburant additivé","Piste poids lourds","Espace bébé","Wifi","Automate CB 24/24","DAB (Distributeur automatique de billets)"]},{"id":56350004,"lat":47.632,"lng":-2.174,"addr":"PA CAP OUEST","city":"Allaire","cp":"56350","fuels":{"Gazole":{"p":2.169,"d":"2026-04-28"},"E10":{"p":1.999,"d":"2026-04-30"},"SP98":{"p":2.099,"d":"2026-04-30"}},"brand":"Intermarché","h24":true,"services":["Laverie","Station de gonflage","Location de véhicule","Piste poids lourds","Lavage automatique","Vente de gaz domestique (Butane, Propane)","Automate CB 24/24","DAB (Distributeur automatique de billets)"]},{"id":56130002,"lat":47.53507,"lng":-2.28322,"addr":"routes de nantes","city":"NIVILLAC","cp":"56130","fuels":{"Gazole":{"p":2.175,"d":"2026-04-29"},"SP95":{"p":1.999,"d":"2026-04-29"},"SP98":{"p":2.079,"d":"2026-04-29"}},"brand":"Carrefour","services":["DAB (Distributeur automatique de billets)"]},{"id":56890001,"lat":47.698,"lng":-2.804,"addr":"6 RUE DU VERGER","city":"PLESCOP","cp":"56890","fuels":{"Gazole":{"p":2.199,"d":"2026-04-17"},"SP95":{"p":1.999,"d":"2026-04-17"},"SP98":{"p":2.049,"d":"2026-04-17"}},"brand":"Carrefour","services":["Relais colis","Boutique alimentaire","Boutique non alimentaire","Restauration à emporter","Restauration sur place","Aire de camping-cars","Vente de gaz domestique (Butane, Propane)","Bornes électriques","DAB (Distributeur automatique de billets)"]},{"id":56520001,"lat":47.787,"lng":-3.49,"addr":"ROUTE DES PLAGES","city":"GUIDEL","cp":"56520","fuels":{"Gazole":{"p":2.165,"d":"2026-04-30"},"E85":{"p":0.789,"d":"2026-04-15"},"E10":{"p":1.989,"d":"2026-04-30"},"SP98":{"p":2.029,"d":"2026-04-30"}},"brand":"Système U","h24":true,"services":["Laverie","Relais colis","Location de véhicule","Lavage automatique","Vente de gaz domestique (Butane, Propane)","Wifi","Automate CB 24/24"]},{"id":56690002,"lat":47.76,"lng":-3.123,"addr":"RUE DU DISTRO","city":"LANDEVANT","cp":"56690","fuels":{"Gazole":{"p":2.159,"d":"2026-04-30"},"E10":{"p":1.969,"d":"2026-04-30"},"SP98":{"p":2.059,"d":"2026-04-29"}},"brand":"Intermarché","h24":true,"services":["Laverie","Relais colis","Boutique alimentaire","Piste poids lourds","Lavage automatique","Vente de gaz domestique (Butane, Propane)","Bornes électriques","Automate CB 24/24","DAB (Distributeur automatique de billets)"]},{"id":56420002,"lat":47.839,"lng":-2.638,"addr":"21 Rue du Docteur Rème","city":"Plumelec","cp":"56420","fuels":{"Gazole":{"p":2.09,"d":"2026-05-01"},"SP95":{"p":1.99,"d":"2026-04-28"}},"brand":"TotalEnergies","h24":true,"services":["Boutique non alimentaire","Station de gonflage","Carburant additivé","Services réparation / entretien","Vente de gaz domestique (Butane, Propane)","Vente d'additifs carburants","Automate CB 24/24"]},{"id":56660001,"lat":47.84,"lng":-2.708,"addr":"9 Rue des Hêtres","city":"Saint-Jean-Brévelay","cp":"56660","fuels":{"Gazole":{"p":2.179,"d":"2026-04-28"},"E85":{"p":0.819,"d":"2026-04-25"},"E10":{"p":1.999,"d":"2026-04-30"},"SP98":{"p":2.089,"d":"2026-04-30"}},"brand":"Intermarché","h24":true,"services":["Station de gonflage","Piste poids lourds","Vente de gaz domestique (Butane, Propane)","Automate CB 24/24","DAB (Distributeur automatique de billets)"]},{"id":56300005,"lat":48.053178995,"lng":-2.95900321221,"addr":"AVENUE DES CITES UNIES","city":"PONTIVY","cp":"56300","fuels":{"Gazole":{"p":2.188,"d":"2026-04-28"},"E85":{"p":0.818,"d":"2026-04-16"},"GPLc":{"p":1.149,"d":"2026-04-23"},"E10":{"p":1.989,"d":"2026-04-27"},"SP98":{"p":2.079,"d":"2026-04-01"}},"brand":"Intermarché"},{"id":56340002,"lat":47.575,"lng":-3.06,"addr":"zac de montauban","city":"CARNAC","cp":"56340","fuels":{"Gazole":{"p":2.159,"d":"2026-04-30"},"E85":{"p":0.899,"d":"2026-04-30"},"E10":{"p":1.989,"d":"2026-04-30"},"SP98":{"p":2.129,"d":"2026-04-30"}},"brand":"Système U","services":["Station de gonflage","Piste poids lourds","Lavage automatique","Lavage manuel"]},{"id":56100009,"lat":47.755,"lng":-3.39,"addr":"Rue Général Jacques de Bollardiere","city":"LORIENT","cp":"56100","fuels":{"Gazole":{"p":2.141,"d":"2026-04-28"},"E85":{"p":0.819,"d":"2026-04-23"},"E10":{"p":1.931,"d":"2026-04-28"},"SP98":{"p":2.029,"d":"2026-04-30"}},"brand":"Intermarché","services":["Lavage manuel","Vente de gaz domestique (Butane, Propane)","DAB (Distributeur automatique de billets)"]},{"id":56110002,"lat":48.141,"lng":-3.602,"addr":"RUE DE TOUL AN CHY","city":"GOURIN","cp":"56110","fuels":{"Gazole":{"p":2.13,"d":"2026-04-30"},"SP95":{"p":2.016,"d":"2026-04-30"},"E10":{"p":1.962,"d":"2026-04-30"}},"brand":"Intermarché","services":["Lavage automatique","Vente de gaz domestique (Butane, Propane)"]},{"id":56800004,"lat":47.937,"lng":-2.402,"addr":"Rue du Lac","city":"PLOëRMEL","cp":"56800","fuels":{"Gazole":{"p":2.179,"d":"2026-04-30"},"SP95":{"p":1.999,"d":"2026-04-30"},"E85":{"p":0.739,"d":"2026-04-30"},"E10":{"p":1.989,"d":"2026-04-30"}},"brand":"Leclerc","h24":true,"services":["Boutique alimentaire","Boutique non alimentaire","Station de gonflage","Location de véhicule","Piste poids lourds","Lavage automatique","Lavage manuel","Vente de gaz domestique (Butane, Propane)","Automate CB 24/24","DAB (Distributeur automatique de billets)"]},{"id":56390001,"lat":47.755,"lng":-2.843,"addr":"ROUTE DE VANNES","city":"GRAND-CHAMP","cp":"56390","fuels":{"Gazole":{"p":2.128,"d":"2026-04-29"},"SP95":{"p":2.079,"d":"2026-04-30"},"E85":{"p":0.704,"d":"2026-04-30"},"E10":{"p":1.948,"d":"2026-04-30"}},"brand":"Carrefour","services":["Station de gonflage","Location de véhicule","Vente de gaz domestique (Butane, Propane)","DAB (Distributeur automatique de billets)"]},{"id":56130001,"lat":47.526,"lng":-2.31,"addr":"LE PONT","city":"Marzan","cp":"56130","fuels":{"Gazole":{"p":2.09,"d":"2026-05-01"},"E85":{"p":0.828,"d":"2026-04-13"},"E10":{"p":1.99,"d":"2026-04-21"},"SP98":{"p":1.99,"d":"2026-04-08"}},"brand":"TotalEnergies","services":["Toilettes publiques","Boutique alimentaire","Boutique non alimentaire","Station de gonflage","Carburant additivé","Piste poids lourds","Lavage automatique","Lavage manuel","Vente de gaz domestique (Butane, Propane)","Vente d'additifs carburants"]},{"id":56170003,"lat":47.48597,"lng":-3.1208,"addr":"116 Rue du Port de Pêche","city":"Quiberon","cp":"56170","fuels":{"Gazole":{"p":2.169,"d":"2026-04-29"},"SP95":{"p":2.02,"d":"2026-04-30"},"E85":{"p":0.8,"d":"2026-04-21"},"E10":{"p":1.982,"d":"2026-04-29"},"SP98":{"p":2.049,"d":"2026-04-29"}},"brand":"Système U","services":["Toilettes publiques","Boutique alimentaire","Boutique non alimentaire","Restauration à emporter","Station de gonflage","Location de véhicule","Piste poids lourds","Lavage manuel","Vente de gaz domestique (Butane, Propane)","DAB (Distributeur automatique de billets)"]},{"id":56610001,"lat":47.635,"lng":-2.823,"addr":"CENTRE COMMERCIAL LA BRECHE","city":"Arradon","cp":"56610","fuels":{"Gazole":{"p":2.129,"d":"2026-04-29"},"SP95":{"p":1.999,"d":"2026-04-29"},"E10":{"p":1.989,"d":"2026-04-30"},"SP98":{"p":2.019,"d":"2026-04-29"}},"brand":"Système U","h24":true,"services":["Toilettes publiques","Boutique alimentaire","Boutique non alimentaire","Restauration sur place","Bar","Station de gonflage","Location de véhicule","Vente de gaz domestique (Butane, Propane)","Wifi","Automate CB 24/24","DAB (Distributeur automatique de billets)"]},{"id":56850004,"lat":47.81518747966,"lng":-3.3429154336,"addr":"2 Avenue Simone Veil","city":"Caudan","cp":"56850","fuels":{"Gazole":{"p":2.169,"d":"2026-04-30"},"E85":{"p":0.829,"d":"2026-04-30"},"E10":{"p":1.979,"d":"2026-04-30"},"SP98":{"p":2.049,"d":"2026-04-30"}},"brand":"Carrefour","h24":true,"services":["Toilettes publiques","Laverie","Relais colis","Boutique alimentaire","Boutique non alimentaire","Restauration à emporter","Restauration sur place","Station de gonflage","Lavage automatique","Lavage manuel","Vente de gaz domestique (Butane, Propane)","Bornes électriques","Vente d'additifs carburants","Wifi","Automate CB 24/24"]},{"id":56200001,"lat":47.771,"lng":-2.131,"addr":"2 rue du stade","city":"LA GACILLY","cp":"56200","fuels":{"Gazole":{"p":2.169,"d":"2026-04-30"},"E10":{"p":1.99,"d":"2026-04-30"},"SP98":{"p":1.99,"d":"2026-04-30"}},"brand":"TotalEnergies","h24":true,"services":["Toilettes publiques","Relais colis","Boutique non alimentaire","Station de gonflage","Carburant additivé","Location de véhicule","Piste poids lourds","Lavage automatique","Vente de gaz domestique (Butane, Propane)","Bornes électriques","Vente d'additifs carburants","Automate CB 24/24","DAB (Distributeur automatique de billets)"]},{"id":56100008,"lat":47.747,"lng":-3.388,"addr":"Rue Alfred Dreyfus","city":"LORIENT","cp":"56100","fuels":{"Gazole":{"p":2.139,"d":"2026-04-30"},"E85":{"p":0.819,"d":"2026-04-17"},"E10":{"p":1.969,"d":"2026-04-30"},"SP98":{"p":2.059,"d":"2026-04-30"}},"h24":true,"services":["Toilettes publiques","Relais colis","Boutique alimentaire","Boutique non alimentaire","Restauration à emporter","Restauration sur place","Bar","Vente de pétrole lampant","Station de gonflage","Lavage automatique","Vente de gaz domestique (Butane, Propane)","Bornes électriques","Vente d'additifs carburants","Automate CB 24/24","DAB (Distributeur automatique de billets)"]},{"id":56301001,"lat":48.06831,"lng":-2.94579,"addr":"Avenue de la Libération","city":"Pontivy","cp":"56300","fuels":{"Gazole":{"p":2.188,"d":"2026-04-28"},"SP95":{"p":2,"d":"2026-04-30"},"E85":{"p":0.758,"d":"2026-04-15"},"E10":{"p":1.975,"d":"2026-04-30"}},"brand":"Leclerc","services":["Boutique alimentaire","Boutique non alimentaire","Vente de gaz domestique (Butane, Propane)"]},{"id":56370007,"lat":47.529621,"lng":-2.754396,"addr":"KERBLANQUET","city":"SARZEAU","cp":"56370","fuels":{"Gazole":{"p":2.199,"d":"2026-04-20"},"E10":{"p":1.989,"d":"2026-04-29"},"SP98":{"p":2.089,"d":"2026-04-29"}},"brand":"Intermarché","services":["Automate CB 24/24"]},{"id":56340001,"lat":47.59997,"lng":-3.11087,"addr":"ROND POINT DE L OCEAN","city":"Plouharnel","cp":"56340","fuels":{"Gazole":{"p":2.169,"d":"2026-04-25"},"SP95":{"p":2.025,"d":"2026-04-25"},"SP98":{"p":2.058,"d":"2026-04-24"}},"brand":"Système U"},{"id":56000004,"lat":47.666,"lng":-2.794,"addr":"ZC PARC LANN","city":"Vannes","cp":"56000","fuels":{"Gazole":{"p":2.129,"d":"2026-04-28"},"E85":{"p":0.705,"d":"2026-04-26"},"GPLc":{"p":1.069,"d":"2026-04-13"},"E10":{"p":1.949,"d":"2026-04-30"},"SP98":{"p":2.019,"d":"2026-04-28"}},"brand":"Leclerc","h24":true,"services":["Laverie","Boutique alimentaire","Boutique non alimentaire","Restauration à emporter","Restauration sur place","Bar","Vente de fioul domestique","Station de gonflage","Location de véhicule","Piste poids lourds","Lavage automatique","Lavage manuel","Vente de gaz domestique (Butane, Propane)","Automate CB 24/24","DAB (Distributeur automatique de billets)"]},{"id":56130003,"lat":47.521,"lng":-2.283,"addr":"ZA DES METAIRIES - 43 rue pasteur","city":"NIVILLAC","cp":"56130","fuels":{"Gazole":{"p":2.168,"d":"2026-04-30"},"E85":{"p":0.818,"d":"2026-04-21"},"GPLc":{"p":1.169,"d":"2026-04-14"},"E10":{"p":2.009,"d":"2026-04-30"},"SP98":{"p":2.077,"d":"2026-04-28"}},"brand":"Groupement mousquetaires","h24":true,"services":["Toilettes publiques","Laverie","Relais colis","Boutique alimentaire","Boutique non alimentaire","Restauration à emporter","Restauration sur place","Station de gonflage","Carburant additivé","Piste poids lourds","Vente de gaz domestique (Butane, Propane)","Vente d'additifs carburants","Wifi","Automate CB 24/24"]},{"id":56700008,"lat":47.81001,"lng":-3.26381,"addr":"11 Avenue François Mitterrand","city":"HENNEBONT","cp":"56700","fuels":{"Gazole":{"p":2.169,"d":"2026-04-30"},"SP95":{"p":1.999,"d":"2026-04-30"},"E10":{"p":1.965,"d":"2026-04-30"},"SP98":{"p":2.051,"d":"2026-04-30"}},"brand":"Intermarché"},{"id":56300010,"lat":48.081,"lng":-2.949,"addr":"114 AVENUE GENERAL LECLERC","city":"Pontivy","cp":"56300","fuels":{"Gazole":{"p":2.25,"d":"2026-04-28"},"E10":{"p":1.99,"d":"2026-04-28"},"SP98":{"p":1.99,"d":"2026-04-28"}},"brand":"Total Contact","h24":true,"services":["Toilettes publiques","Boutique alimentaire","Boutique non alimentaire","Station de gonflage","Carburant additivé","Piste poids lourds","Lavage manuel","Services réparation / entretien","Vente de gaz domestique (Butane, Propane)","Vente d'additifs carburants","Automate CB 24/24"]},{"id":56870001,"lat":47.621,"lng":-2.916,"addr":"28 Rue des Frères Le Guénédal","city":"BADEN","cp":"56870","fuels":{"Gazole":{"p":2.128,"d":"2026-04-29"},"SP95":{"p":2.019,"d":"2026-04-29"},"E10":{"p":1.979,"d":"2026-04-29"},"SP98":{"p":2.049,"d":"2026-04-29"}},"brand":"Carrefour","services":["Station de gonflage","Vente de gaz domestique (Butane, Propane)"]},{"id":56460003,"lat":47.869697300000006,"lng":-2.4634533,"addr":"2 RUE NATIONALE","city":"Le Roc-Saint-André","cp":"56460","fuels":{"Gazole":{"p":2.25,"d":"2026-04-28"}},"brand":"TotalEnergies","services":["Boutique non alimentaire","Station de gonflage","Carburant additivé","Services réparation / entretien","DAB (Distributeur automatique de billets)"]},{"id":56190001,"lat":47.559,"lng":-2.511,"addr":"ZAC ESPACE LITTORAL","city":"MUZILLAC","cp":"56190","fuels":{"Gazole":{"p":2.16,"d":"2026-04-27"},"E10":{"p":2.009,"d":"2026-04-27"},"SP98":{"p":2.087,"d":"2026-04-27"}},"brand":"Système U","h24":true,"services":["Laverie","Relais colis","Boutique alimentaire","Restauration sur place","Bar","Station de gonflage","Aire de camping-cars","Location de véhicule","Piste poids lourds","Lavage automatique","Lavage manuel","Vente de gaz domestique (Butane, Propane)","Automate CB 24/24","DAB (Distributeur automatique de billets)"]},{"id":56150005,"lat":47.87,"lng":-3.022,"addr":"17 rue d'Auray","city":"BAUD","cp":"56150","fuels":{"Gazole":{"p":2.09,"d":"2026-05-01"},"E10":{"p":1.99,"d":"2026-05-01"}},"h24":true,"services":["Boutique alimentaire","Boutique non alimentaire","Automate CB 24/24"]},{"id":56690004,"lat":47.779,"lng":-3.195,"addr":"VE165 - AIRE DE BOUL SAPIN","city":"NOSTANG","cp":"56690","fuels":{"Gazole":{"p":2.09,"d":"2026-05-01"},"E85":{"p":0.829,"d":"2026-05-01"},"GPLc":{"p":1.035,"d":"2026-05-01"},"E10":{"p":1.99,"d":"2026-05-01"},"SP98":{"p":1.99,"d":"2026-05-01"}},"brand":"TotalEnergies","h24":true,"services":["Toilettes publiques","Boutique alimentaire","Restauration à emporter","Station de gonflage","Carburant additivé","Piste poids lourds","Bornes électriques","Vente d'additifs carburants","Wifi","Automate CB 24/24"]},{"id":56890003,"lat":47.682038768502,"lng":-2.7645718134344004,"addr":"Coet digo","city":"SAINT-AVé","cp":"56890","fuels":{"Gazole":{"p":2.179,"d":"2026-04-28"},"E85":{"p":0.74,"d":"2026-04-29"},"GPLc":{"p":1.099,"d":"2026-04-23"},"E10":{"p":2.019,"d":"2026-04-29"},"SP98":{"p":2.095,"d":"2026-04-29"}},"brand":"U","h24":true,"services":["Station de gonflage","Location de véhicule","Lavage automatique","Lavage manuel","Vente de gaz domestique (Butane, Propane)","Automate CB 24/24","DAB (Distributeur automatique de billets)"]},{"id":56380004,"lat":47.938155330083,"lng":-2.1322160777753,"addr":"40 Rue de Saint-Cyr","city":"Guer","cp":"56380","fuels":{"Gazole":{"p":2.22,"d":"2026-04-23"},"SP95":{"p":1.97,"d":"2026-04-09"}},"h24":true,"services":["Automate CB 24/24"]},{"id":56920001,"lat":48.067,"lng":-2.883,"addr":"ROUTE DE ROHAN","city":"Noyal-Pontivy","cp":"56920","fuels":{"Gazole":{"p":2.299,"d":"2026-04-13"},"SP95":{"p":2.05,"d":"2026-03-24"},"E10":{"p":1.979,"d":"2026-04-13"}},"brand":"Intermarché"},{"id":56250004,"lat":47.704,"lng":-2.649,"addr":"VOIE EXPRESS - RN 166 - LE BOLAN","city":"Saint-Nolff","cp":"56250","fuels":{"Gazole":{"p":2.09,"d":"2026-05-01"},"E85":{"p":0.803,"d":"2026-05-01"},"E10":{"p":1.99,"d":"2026-05-01"},"SP98":{"p":1.99,"d":"2026-05-01"}},"brand":"TotalEnergies","h24":true,"services":["Toilettes publiques","Boutique alimentaire","Boutique non alimentaire","Restauration à emporter","Station de gonflage","Carburant additivé","Piste poids lourds","Espace bébé","Vente d'additifs carburants","Wifi","Automate CB 24/24"]},{"id":56850003,"lat":47.785,"lng":-3.332,"addr":"1079 rue arago","city":"Caudan","cp":"56850","fuels":{"Gazole":{"p":2.25,"d":"2026-04-30"},"E85":{"p":0.842,"d":"2026-04-28"},"E10":{"p":1.99,"d":"2026-04-22"},"SP98":{"p":1.99,"d":"2026-04-21"}},"brand":"TotalEnergies","h24":true,"services":["Carburant additivé","Automate CB 24/24"]},{"id":56440003,"lat":47.836,"lng":-3.164,"addr":"RN24 - 131 ROUTE ER POPINEC","city":"LANGUIDIC","cp":"56440","fuels":{"Gazole":{"p":2.09,"d":"2026-05-01"},"E85":{"p":0.839,"d":"2026-05-01"},"E10":{"p":1.99,"d":"2026-05-01"},"SP98":{"p":1.99,"d":"2026-05-01"}},"brand":"TotalEnergies","h24":true,"services":["Toilettes publiques","Boutique alimentaire","Restauration à emporter","Restauration sur place","Station de gonflage","Carburant additivé","Vente de gaz domestique (Butane, Propane)","Vente d'additifs carburants","Wifi","Automate CB 24/24"]},{"id":56109002,"lat":47.733,"lng":-3.384,"addr":"60 RUE MONISTROL","city":"LORIENT","cp":"56100","fuels":{"Gazole":{"p":2.169,"d":"2026-04-30"},"E85":{"p":0.819,"d":"2026-04-17"},"GPLc":{"p":1.058,"d":"2026-04-24"},"E10":{"p":1.969,"d":"2026-04-30"},"SP98":{"p":2.059,"d":"2026-04-30"}},"brand":"Intermarché","h24":true,"services":["Toilettes publiques","Relais colis","Boutique alimentaire","Boutique non alimentaire","Restauration à emporter","Restauration sur place","Station de gonflage","Location de véhicule","Lavage automatique","Vente de gaz domestique (Butane, Propane)","Wifi","Automate CB 24/24","DAB (Distributeur automatique de billets)"]},{"id":56320001,"lat":48.036,"lng":-3.494,"addr":"21 Rue du Maréchal Leclerc","city":"LE FAOUëT","cp":"56320","fuels":{"Gazole":{"p":2.12,"d":"2026-04-27"},"SP95":{"p":1.99,"d":"2026-04-27"}},"brand":"Elan","services":["Toilettes publiques","Station de gonflage","Carburant additivé","Location de véhicule"]},{"id":56190011,"lat":47.56016876,"lng":-2.50584059,"addr":"ZAC DE TOULAN","city":"Ambon","cp":"56190","fuels":{"Gazole":{"p":2.168,"d":"2026-04-30"},"SP95":{"p":2.01,"d":"2026-04-30"},"E85":{"p":0.99,"d":"2026-04-08"},"GPLc":{"p":0.99,"d":"2026-04-08"},"SP98":{"p":2.09,"d":"2026-04-30"}},"brand":"Carrefour","services":["Toilettes publiques","Relais colis","Boutique alimentaire","Restauration à emporter","Carburant additivé","Location de véhicule","Vente de gaz domestique (Butane, Propane)","DAB (Distributeur automatique de billets)"]}]