[{"id":60350003,"lat":49.404,"lng":3.008,"addr":"ROUTE DE SOISSONS- RN 31","city":"Cuise-la-Motte","cp":"60350","fuels":{"Gazole":{"p":2.09,"d":"2026-05-01"},"E10":{"p":1.99,"d":"2026-05-01"}},"brand":"TotalEnergies","h24":true,"services":["Boutique alimentaire","Station de gonflage","Carburant additivé","Piste poids lourds","Vente de gaz domestique (Butane, Propane)","Automate CB 24/24","DAB (Distributeur automatique de billets)"]},{"id":60120004,"lat":49.635,"lng":2.286,"addr":"84 Avenue du Général Frère","city":"Breteuil","cp":"60120","fuels":{"Gazole":{"p":2.25,"d":"2026-04-30"},"E10":{"p":1.99,"d":"2026-04-21"},"SP98":{"p":1.99,"d":"2026-03-27"}},"brand":"TotalEnergies","h24":true,"services":["Boutique alimentaire","Boutique non alimentaire","Station de gonflage","Carburant additivé","Location de véhicule","Piste poids lourds","Lavage automatique","Lavage manuel","Services réparation / entretien","Vente d'additifs carburants","Automate CB 24/24","DAB (Distributeur automatique de billets)"]},{"id":60140003,"lat":49.32593,"lng":2.46409,"addr":"Rue du Général de Gaulle","city":"Liancourt","cp":"60140","fuels":{"Gazole":{"p":2.32,"d":"2026-03-31"},"E10":{"p":2.05,"d":"2026-03-20"},"SP98":{"p":2.09,"d":"2026-03-31"}},"brand":"Leclerc"},{"id":60650006,"lat":49.417,"lng":1.924,"addr":"RN31 - LE VIVIER DANGER","city":"ONS EN BRAY","cp":"60650","fuels":{"Gazole":{"p":2.19,"d":"2026-04-28"},"SP95":{"p":2.05,"d":"2026-04-28"},"SP98":{"p":2.12,"d":"2026-04-28"}},"brand":"Carrefour","services":["Vente de gaz domestique (Butane, Propane)"]},{"id":60560001,"lat":49.131,"lng":2.521,"addr":"Rue des Pâturages","city":"ORRY-LA-VILLE","cp":"60560","fuels":{"Gazole":{"p":2.199,"d":"2026-04-25"},"E10":{"p":1.999,"d":"2026-04-22"},"SP98":{"p":2.099,"d":"2026-04-22"}},"brand":"Intermarché","services":["Laverie","Boutique alimentaire","Vente de gaz domestique (Butane, Propane)","DAB (Distributeur automatique de billets)"]},{"id":60210002,"lat":49.66,"lng":1.941,"addr":"RUE EUGENE ST FUSCIEN","city":"GRANDVILLIERS","cp":"60210","fuels":{"Gazole":{"p":2.155,"d":"2026-04-21"},"SP95":{"p":1.985,"d":"2026-04-21"},"SP98":{"p":2.064,"d":"2026-04-27"}},"brand":"Carrefour","h24":true,"services":["Toilettes publiques","Relais colis","Station de gonflage","Location de véhicule","Piste poids lourds","Vente de gaz domestique (Butane, Propane)","Bornes électriques","Wifi","Automate CB 24/24"]},{"id":60510001,"lat":49.419,"lng":2.255,"addr":"ZONE DE LA COUTURELLE","city":"Bresles","cp":"60510","fuels":{"Gazole":{"p":2.159,"d":"2026-04-30"},"SP95":{"p":2.039,"d":"2026-04-30"},"E85":{"p":0.819,"d":"2026-04-30"},"E10":{"p":1.979,"d":"2026-04-30"},"SP98":{"p":2.099,"d":"2026-04-30"}},"brand":"Intermarché","services":["Vente de fioul domestique","Lavage manuel","Vente de gaz domestique (Butane, Propane)","DAB (Distributeur automatique de billets)"]},{"id":60370002,"lat":49.352,"lng":2.239,"addr":"125 RUE DE NOAILLES","city":"HERMES","cp":"60370","fuels":{"Gazole":{"p":2.165,"d":"2026-04-29"},"SP95":{"p":2.055,"d":"2026-04-29"},"E10":{"p":1.985,"d":"2026-04-29"},"SP98":{"p":2.115,"d":"2026-04-29"}},"brand":"Intermarché","h24":true,"services":["Laverie","Station de gonflage","Lavage automatique","Lavage manuel","Vente de gaz domestique (Butane, Propane)","Wifi","Automate CB 24/24","DAB (Distributeur automatique de billets)"]},{"id":60700004,"lat":49.306,"lng":2.604,"addr":"39 41 RUE DE LA REPUBLIQUE","city":"Pont-Sainte-Maxence","cp":"60700","fuels":{"Gazole":{"p":2.09,"d":"2026-05-01"},"E85":{"p":0.884,"d":"2026-05-01"},"E10":{"p":1.99,"d":"2026-05-01"}},"brand":"TotalEnergies","h24":true,"services":["Relais colis","Boutique alimentaire","Boutique non alimentaire","Station de gonflage","Carburant additivé","Lavage automatique","Vente de gaz domestique (Butane, Propane)","Automate CB 24/24"]},{"id":60250003,"lat":49.321,"lng":2.33,"addr":"Route de Beauvais","city":"ANGY","cp":"60250","fuels":{"Gazole":{"p":2.185,"d":"2026-04-30"},"E85":{"p":0.818,"d":"2026-04-27"},"E10":{"p":2.01,"d":"2026-04-30"},"SP98":{"p":2.075,"d":"2026-04-27"}},"brand":"Intermarché","services":["Laverie","Vente de fioul domestique","Location de véhicule","Lavage automatique","Lavage manuel","Vente de gaz domestique (Butane, Propane)","DAB (Distributeur automatique de billets)"]},{"id":60220002,"lat":49.65,"lng":1.722,"addr":"ROUTE D'HAUCOURT","city":"FORMERIE","cp":"60220","fuels":{"Gazole":{"p":2.169,"d":"2026-04-28"},"E10":{"p":2.039,"d":"2026-04-28"},"SP98":{"p":2.09,"d":"2026-04-30"}},"brand":"Auchan","services":["Station de gonflage","Vente de gaz domestique (Butane, Propane)"]},{"id":60000015,"lat":49.433,"lng":2.093,"addr":"14 RUE DE CLERMONT","city":"Beauvais","cp":"60000","fuels":{"Gazole":{"p":2.249,"d":"2026-05-01"},"E85":{"p":1.089,"d":"2026-05-01"},"GPLc":{"p":1.169,"d":"2026-05-01"},"E10":{"p":2.079,"d":"2026-05-01"},"SP98":{"p":2.249,"d":"2026-05-01"}},"brand":"BP","h24":true,"services":["Toilettes publiques","Boutique alimentaire","Boutique non alimentaire","Station de gonflage","Carburant additivé","Vente de gaz domestique (Butane, Propane)","Automate CB 24/24"]},{"id":60590002,"lat":49.356,"lng":1.77,"addr":"ZAC LA REMIS DU FRIER","city":"Sérifontaine","cp":"60590","fuels":{"Gazole":{"p":2.349,"d":"2026-04-15"},"SP95":{"p":2.129,"d":"2026-04-03"},"SP98":{"p":2.149,"d":"2026-04-03"}},"brand":"Carrefour","h24":true,"services":["Laverie","Boutique alimentaire","Restauration à emporter","Vente de pétrole lampant","Carburant additivé","Lavage automatique","Lavage manuel","Vente de gaz domestique (Butane, Propane)","Bornes électriques","Automate CB 24/24","DAB (Distributeur automatique de billets)"]},{"id":60310001,"lat":49.59,"lng":2.854,"addr":"Zone Artisanale","city":"Lassigny","cp":"60310","fuels":{"Gazole":{"p":2.218,"d":"2026-04-30"},"SP95":{"p":2.053,"d":"2026-04-30"},"E10":{"p":1.999,"d":"2026-04-30"},"SP98":{"p":2.089,"d":"2026-04-30"}},"brand":"Leclerc","h24":true,"services":["Laverie","Relais colis","Vente de pétrole lampant","Location de véhicule","Automate CB 24/24","DAB (Distributeur automatique de billets)"]},{"id":60260002,"lat":49.15012446903,"lng":2.4247054883606998,"addr":"Z.A DE LA SEIGNEURIE","city":"Lamorlaye","cp":"60260","fuels":{"Gazole":{"p":2.196,"d":"2026-04-25"},"E85":{"p":0.819,"d":"2026-04-16"},"E10":{"p":1.976,"d":"2026-04-25"},"SP98":{"p":2.086,"d":"2026-04-28"}},"brand":"Intermarché"},{"id":60730004,"lat":49.294719957049,"lng":2.1986864028575,"addr":"180 route nationale 1","city":"Sainte-Geneviève","cp":"60730","fuels":{"Gazole":{"p":2.09,"d":"2026-05-01"},"E85":{"p":0.865,"d":"2026-05-01"}},"brand":"TotalEnergies","h24":true,"services":["Toilettes publiques","Douches","Boutique alimentaire","Vente de fioul domestique","Station de gonflage","Carburant additivé","Piste poids lourds","Lavage manuel","Vente de gaz domestique (Butane, Propane)","Automate CB 24/24"]},{"id":60400001,"lat":49.57117,"lng":2.97854,"addr":"Z.a.c. Mont-Renaud","city":"NOYON","cp":"60400","fuels":{"Gazole":{"p":2.255,"d":"2026-04-17"},"GPLc":{"p":1.05,"d":"2026-04-17"},"E10":{"p":1.987,"d":"2026-04-17"},"SP98":{"p":2.106,"d":"2026-04-17"}},"brand":"Auchan","services":["Toilettes publiques","Station de gonflage","Carburant additivé","Vente de gaz domestique (Butane, Propane)","DAB (Distributeur automatique de billets)"]},{"id":60200002,"lat":49.41897,"lng":2.81861,"addr":"13 Rue de Clermont","city":"Compiègne","cp":"60200","fuels":{"Gazole":{"p":2.238,"d":"2026-04-28"},"SP95":{"p":2.08,"d":"2026-04-28"}},"brand":"Sarl Max Guerdin","services":["Boutique non alimentaire","Vente de fioul domestique","Vente de pétrole lampant","Carburant additivé","Piste poids lourds","Vente de gaz domestique (Butane, Propane)"]},{"id":60800003,"lat":49.22572305536,"lng":2.8803566326031,"addr":"Av. du Président John Kennedy","city":"Crépy-en-Valois","cp":"60800","fuels":{"SP95":{"p":2.009,"d":"2026-04-21"},"SP98":{"p":2.069,"d":"2026-04-21"}},"brand":"Carrefour","h24":true,"services":["Vente de gaz domestique (Butane, Propane)","Automate CB 24/24","DAB (Distributeur automatique de billets)"]},{"id":60290003,"lat":49.322,"lng":2.437,"addr":"Route de Mouy","city":"CAUFFRY","cp":"60290","fuels":{"Gazole":{"p":2.17,"d":"2026-04-29"},"GPLc":{"p":1.033,"d":"2026-04-08"},"E10":{"p":1.969,"d":"2026-04-30"},"SP98":{"p":2.065,"d":"2026-04-29"}},"brand":"Intermarché","h24":true,"services":["Vente de gaz domestique (Butane, Propane)","Automate CB 24/24","DAB (Distributeur automatique de billets)"]},{"id":60120006,"lat":49.60849,"lng":2.20488,"addr":"AUTOROUTE A16 - AIRE HARDIVILLERS","city":"HARDIVILLERS","cp":"60120","fuels":{"Gazole":{"p":2.09,"d":"2026-05-01"},"E85":{"p":0.999,"d":"2026-05-01"},"E10":{"p":1.99,"d":"2026-05-01"},"SP98":{"p":1.99,"d":"2026-05-01"}},"brand":"TotalEnergies","services":["Toilettes publiques","Douches","Boutique alimentaire","Restauration à emporter","Restauration sur place","Station de gonflage","Carburant additivé","Piste poids lourds","Espace bébé","DAB (Distributeur automatique de billets)"]},{"id":60360001,"lat":49.604,"lng":2.085,"addr":"Avenue du Général de Gaulle","city":"CRèVECOEUR-LE-GRAND","cp":"60360","fuels":{"Gazole":{"p":2.199,"d":"2026-04-30"},"E10":{"p":2.01,"d":"2026-04-30"}},"brand":"Carrefour","h24":true,"services":["Relais colis","Vente de pétrole lampant","Station de gonflage","Location de véhicule","Piste poids lourds","Lavage manuel","Automate CB 24/24","DAB (Distributeur automatique de billets)"]},{"id":60380001,"lat":49.548,"lng":1.846,"addr":"39 Route de Dieppe","city":"SONGEONS","cp":"60380","fuels":{"Gazole":{"p":2.192,"d":"2026-04-17"},"SP95":{"p":2.027,"d":"2026-04-17"},"SP98":{"p":2.084,"d":"2026-04-17"}},"brand":"Municipalité","services":["Carburant additivé","Piste poids lourds","DAB (Distributeur automatique de billets)"]},{"id":60750003,"lat":49.442233200000004,"lng":2.8829544,"addr":"100 rue de royaumont","city":"Choisy-au-Bac","cp":"60750","fuels":{"Gazole":{"p":2.219,"d":"2026-04-28"},"E10":{"p":1.999,"d":"2026-04-28"},"SP98":{"p":2.139,"d":"2026-04-28"}},"brand":"Shopi"},{"id":60100007,"lat":49.272,"lng":2.486,"addr":"LA VALLEE DE NOGENT-RN16","city":"CREIL","cp":"60100","fuels":{"Gazole":{"p":2.09,"d":"2026-05-01"},"GPLc":{"p":1.029,"d":"2026-05-01"},"E10":{"p":1.99,"d":"2026-05-01"},"SP98":{"p":1.99,"d":"2026-05-01"}},"brand":"TotalEnergies","services":["Relais colis","Boutique alimentaire","Boutique non alimentaire","Restauration à emporter","Station de gonflage","Carburant additivé","Lavage automatique","Vente de gaz domestique (Butane, Propane)","Wifi"]},{"id":60500010,"lat":49.191,"lng":2.464,"addr":"28 Avenue du Maréchal Joffre","city":"Chantilly","cp":"60500","fuels":{"Gazole":{"p":2.249,"d":"2026-05-01"},"E85":{"p":1.069,"d":"2026-05-01"},"E10":{"p":2.079,"d":"2026-05-01"},"SP98":{"p":2.249,"d":"2026-05-01"}},"brand":"BP","services":["Toilettes publiques","Boutique alimentaire","Boutique non alimentaire","Station de gonflage","Carburant additivé","Lavage automatique","Lavage manuel","Services réparation / entretien","Vente de gaz domestique (Butane, Propane)"]},{"id":60650004,"lat":49.422,"lng":1.978,"addr":"RD 931 Lieu dit \"Bois du Renard\"","city":"Saint-Paul","cp":"60650","fuels":{"Gazole":{"p":2.139,"d":"2026-04-30"},"E85":{"p":0.818,"d":"2026-04-30"},"E10":{"p":1.944,"d":"2026-04-30"},"SP98":{"p":2.048,"d":"2026-04-30"}},"brand":"Groupement des Mousquetaires","services":["Station de gonflage","Piste poids lourds","Lavage automatique","Lavage manuel","Vente de gaz domestique (Butane, Propane)","DAB (Distributeur automatique de billets)"]},{"id":60290002,"lat":49.323,"lng":2.448,"addr":"45 Rue du 1er Septembre","city":"CAUFFRY","cp":"60290","fuels":{"Gazole":{"p":2.194,"d":"2026-04-30"},"SP95":{"p":2.049,"d":"2026-04-30"},"E85":{"p":0.706,"d":"2026-04-30"},"E10":{"p":2.009,"d":"2026-04-30"}},"brand":"Leclerc","services":["Boutique alimentaire","Boutique non alimentaire","Vente de gaz domestique (Butane, Propane)"]},{"id":60530003,"lat":49.229,"lng":2.282,"addr":"ZI route de Crouy","city":"Neuilly-en-Thelle","cp":"60530","fuels":{"Gazole":{"p":2.199,"d":"2026-04-29"},"SP95":{"p":2.066,"d":"2026-04-29"},"E10":{"p":1.999,"d":"2026-04-29"},"SP98":{"p":2.139,"d":"2026-04-29"}},"brand":"Carrefour","services":["Station de gonflage","Piste poids lourds"]},{"id":60440001,"lat":49.136,"lng":2.801,"addr":"CHEMIN DE LA CROIX VERTE","city":"NANTEUIL-LE-HAUDOUIN","cp":"60440","fuels":{"Gazole":{"p":2.169,"d":"2026-04-30"},"SP95":{"p":2.039,"d":"2026-04-30"},"E85":{"p":0.819,"d":"2026-04-30"},"E10":{"p":1.989,"d":"2026-04-30"},"SP98":{"p":2.079,"d":"2026-04-30"}},"brand":"Intermarché","h24":true,"services":["Toilettes publiques","Laverie","Boutique alimentaire","Location de véhicule","Piste poids lourds","Vente de gaz domestique (Butane, Propane)","Bornes électriques","Automate CB 24/24","DAB (Distributeur automatique de billets)"]},{"id":60420001,"lat":49.553,"lng":2.533,"addr":"2 rue de la croix de coivrel","city":"Maignelay-Montigny","cp":"60420","fuels":{"Gazole":{"p":2.172,"d":"2026-04-30"},"SP95":{"p":2.032,"d":"2026-04-30"},"SP98":{"p":2.112,"d":"2026-04-30"}},"brand":"Carrefour","h24":true,"services":["Relais colis","Lavage automatique","Lavage manuel","Vente de gaz domestique (Butane, Propane)","Automate CB 24/24"]},{"id":60000010,"lat":49.443,"lng":2.093,"addr":"40 avenue du 8 Mai 1945","city":"Beauvais","cp":"60000","fuels":{"Gazole":{"p":2.175,"d":"2026-04-30"},"SP95":{"p":2.027,"d":"2026-04-28"},"E85":{"p":0.819,"d":"2026-04-16"},"GPLc":{"p":0.988,"d":"2026-04-08"},"SP98":{"p":2.075,"d":"2026-04-30"}},"brand":"Intermarché","h24":true,"services":["Laverie","Station de gonflage","Piste poids lourds","Lavage automatique","Lavage manuel","Vente d'additifs carburants","Automate CB 24/24","DAB (Distributeur automatique de billets)"]},{"id":60800009,"lat":49.234307444206,"lng":2.8866396033653,"addr":"20 rue Charles de Gaulle","city":"Crépy-en-Valois","cp":"60800","fuels":{"Gazole":{"p":2.39,"d":"2026-04-21"},"E10":{"p":2.021,"d":"2026-04-21"},"SP98":{"p":2.174,"d":"2026-04-21"}},"brand":"Monoprix","h24":true,"services":["Vente de gaz domestique (Butane, Propane)","Automate CB 24/24"]},{"id":60400003,"lat":49.575,"lng":2.999,"addr":"rue du moulin d'andeux","city":"Noyon","cp":"60400","fuels":{"Gazole":{"p":2.255,"d":"2026-04-16"},"E85":{"p":0.818,"d":"2026-04-24"},"E10":{"p":1.987,"d":"2026-04-16"},"SP98":{"p":2.106,"d":"2026-04-16"}},"brand":"Intermarché","h24":true,"services":["Laverie","Boutique alimentaire","Boutique non alimentaire","Carburant additivé","Location de véhicule","Vente de gaz domestique (Butane, Propane)","Automate CB 24/24","DAB (Distributeur automatique de billets)"]},{"id":60490008,"lat":49.539,"lng":2.702,"addr":"RD 1017","city":"CUVILLY","cp":"60490","fuels":{"Gazole":{"p":2.09,"d":"2026-05-01"},"E10":{"p":1.99,"d":"2026-05-01"}},"brand":"TotalEnergies","h24":true,"services":["Relais colis","Boutique alimentaire","Boutique non alimentaire","Piste poids lourds","Vente de gaz domestique (Butane, Propane)","Vente d'additifs carburants","Wifi","Automate CB 24/24"]},{"id":60320001,"lat":49.298113505068,"lng":2.7994520494136,"addr":"176 Avenue de la Gare","city":"BéTHISY-SAINT-PIERRE","cp":"60320","fuels":{"Gazole":{"p":2.199,"d":"2026-04-29"},"SP95":{"p":2.059,"d":"2026-04-29"},"E85":{"p":0.849,"d":"2026-04-10"},"E10":{"p":2.019,"d":"2026-04-29"},"SP98":{"p":2.149,"d":"2026-04-29"}},"brand":"Carrefour","h24":true,"services":["Laverie","Relais colis","Boutique alimentaire","Boutique non alimentaire","Restauration à emporter","Station de gonflage","Vente de gaz domestique (Butane, Propane)","Automate CB 24/24","DAB (Distributeur automatique de billets)"]},{"id":60800005,"lat":49.224659428094,"lng":2.9054913758613,"addr":"rue Henri LAROCHE","city":"Crépy-en-Valois","cp":"60800","fuels":{"Gazole":{"p":2.126,"d":"2026-04-30"},"SP95":{"p":2.011,"d":"2026-04-30"},"E85":{"p":0.818,"d":"2026-04-30"},"E10":{"p":1.958,"d":"2026-04-30"},"SP98":{"p":2.044,"d":"2026-04-30"}},"brand":"Groupement des Mousquetaires","services":["Vente de fioul domestique","Location de véhicule","Vente de gaz domestique (Butane, Propane)","DAB (Distributeur automatique de billets)"]},{"id":60490001,"lat":49.551,"lng":2.752,"addr":"69 Rue du Moulin","city":"LA NEUVILLE-SUR-RESSONS","cp":"60490","fuels":{"Gazole":{"p":2.199,"d":"2026-04-30"},"E10":{"p":2.018,"d":"2026-04-30"},"SP98":{"p":2.188,"d":"2026-04-30"}},"brand":"Carrefour","h24":true,"services":["Laverie","Relais colis","Vente de pétrole lampant","Location de véhicule","Vente de gaz domestique (Butane, Propane)","Automate CB 24/24","DAB (Distributeur automatique de billets)"]},{"id":60220006,"lat":49.652,"lng":1.728,"addr":"2 RUE ALAVOINE","city":"Formerie","cp":"60220","fuels":{"Gazole":{"p":2.09,"d":"2026-05-01"},"SP95":{"p":1.99,"d":"2026-04-21"},"E85":{"p":0.996,"d":"2026-04-28"},"SP98":{"p":1.99,"d":"2026-04-30"}},"brand":"TotalEnergies","h24":true,"services":["Vente de fioul domestique","Carburant additivé","Piste poids lourds","Vente de gaz domestique (Butane, Propane)","Automate CB 24/24"]},{"id":60100004,"lat":49.251,"lng":2.476,"addr":"8 Route de Chantilly","city":"CREIL","cp":"60100","fuels":{"Gazole":{"p":2.259,"d":"2026-04-30"},"GPLc":{"p":1.099,"d":"2026-04-07"},"E10":{"p":2.089,"d":"2026-04-30"},"SP98":{"p":2.199,"d":"2026-04-30"}},"brand":"Esso","h24":true,"services":["Toilettes publiques","Relais colis","Boutique alimentaire","Restauration à emporter","Station de gonflage","Aire de camping-cars","Piste poids lourds","Lavage automatique","Lavage manuel","Vente de gaz domestique (Butane, Propane)","Vente d'additifs carburants","Automate CB 24/24","DAB (Distributeur automatique de billets)"]},{"id":60400005,"lat":49.575,"lng":2.99,"addr":"70 avenue Jean Jaurès","city":"NOYON","cp":"60400","fuels":{"Gazole":{"p":2.09,"d":"2026-05-01"},"E85":{"p":0.839,"d":"2026-05-01"},"E10":{"p":1.99,"d":"2026-05-01"}},"brand":"TotalEnergies","h24":true,"services":["Relais colis","Boutique alimentaire","Boutique non alimentaire","Station de gonflage","Carburant additivé","Piste poids lourds","Lavage automatique","Vente de gaz domestique (Butane, Propane)","Vente d'additifs carburants","Wifi","Automate CB 24/24"]},{"id":60110002,"lat":49.223,"lng":2.137,"addr":"Cc Les Marquises, Rue Marcel Coquet","city":"Méru","cp":"60110","fuels":{"Gazole":{"p":2.199,"d":"2026-04-30"},"E10":{"p":1.999,"d":"2026-04-30"},"SP98":{"p":2.071,"d":"2026-04-30"}},"brand":"Auchan","h24":true,"services":["Vente de gaz domestique (Butane, Propane)","Bornes électriques","Automate CB 24/24","DAB (Distributeur automatique de billets)"]},{"id":60360002,"lat":49.604,"lng":2.085,"addr":"8 avenue du Général de Gaulle","city":"Crèvec&#339;ur-le-Grand","cp":"60360","fuels":{"Gazole":{"p":2.199,"d":"2026-04-30"},"SP95":{"p":2.055,"d":"2026-04-30"},"E10":{"p":2.01,"d":"2026-04-30"}},"brand":"Leclerc","h24":true,"services":["Laverie","Vente de fioul domestique","Station de gonflage","Piste poids lourds","Lavage manuel","Vente de gaz domestique (Butane, Propane)","Automate CB 24/24","DAB (Distributeur automatique de billets)"]},{"id":60110006,"lat":49.214,"lng":2.125,"addr":"1 rue de londres","city":"Amblainville","cp":"60110","fuels":{"Gazole":{"p":2.09,"d":"2026-05-01"},"E85":{"p":0.885,"d":"2026-05-01"},"E10":{"p":1.99,"d":"2026-05-01"}},"brand":"TotalEnergies","h24":true,"services":["Station de gonflage","Carburant additivé","Piste poids lourds","Lavage automatique","Lavage manuel","Automate CB 24/24"]},{"id":60150003,"lat":49.479,"lng":2.868,"addr":"ZAC DU GROS GRELOT","city":"THOUROTTE","cp":"60150","fuels":{"Gazole":{"p":2.18,"d":"2026-04-30"},"E85":{"p":0.814,"d":"2026-04-30"},"GPLc":{"p":0.999,"d":"2026-04-30"},"E10":{"p":1.995,"d":"2026-04-30"},"SP98":{"p":2.059,"d":"2026-04-30"}},"brand":"Station U","h24":true,"services":["Boutique alimentaire","Location de véhicule","Piste poids lourds","Lavage automatique","Lavage manuel","Vente de gaz domestique (Butane, Propane)","Automate CB 24/24","DAB (Distributeur automatique de billets)"]},{"id":60300008,"lat":49.208,"lng":2.59,"addr":"5/10 AVENUE MARECHAL FOCH","city":"SENLIS","cp":"60300","fuels":{"Gazole":{"p":2.239,"d":"2026-05-01"},"E85":{"p":1.089,"d":"2026-05-01"},"SP98":{"p":2.219,"d":"2026-05-01"}},"brand":"BP","h24":true,"services":["Boutique alimentaire","Boutique non alimentaire","Station de gonflage","Carburant additivé","Lavage automatique","Vente de gaz domestique (Butane, Propane)","Automate CB 24/24"]},{"id":60200008,"lat":49.394919671941,"lng":2.7929386448763003,"addr":"1 Esplanade Marguerite Perey","city":"Compiègne","cp":"60200","fuels":{"Gazole":{"p":2.149,"d":"2026-04-30"},"E85":{"p":0.819,"d":"2026-04-30"},"E10":{"p":1.985,"d":"2026-04-30"},"SP98":{"p":2.059,"d":"2026-04-30"}},"services":["Vente de fioul domestique","Vente de gaz domestique (Butane, Propane)","DAB (Distributeur automatique de billets)"]},{"id":60230002,"lat":49.156217844245,"lng":2.2546061423989,"addr":"Rue Truffaut","city":"CHAMBLY","cp":"60230","fuels":{"Gazole":{"p":2.199,"d":"2026-04-30"},"E85":{"p":0.759,"d":"2026-04-21"},"E10":{"p":1.999,"d":"2026-04-30"},"SP98":{"p":2.069,"d":"2026-04-30"}},"brand":"Leclerc","services":["Toilettes publiques","Boutique alimentaire","Boutique non alimentaire","Restauration à emporter","Restauration sur place","Bar","Piste poids lourds","Vente de gaz domestique (Butane, Propane)","DAB (Distributeur automatique de billets)"]},{"id":60800008,"lat":49.23,"lng":2.906,"addr":"9 Rue Saint-Germain","city":"Crépy-en-Valois","cp":"60800","fuels":{"Gazole":{"p":2.199,"d":"2026-04-30"},"E85":{"p":0.795,"d":"2026-04-29"},"E10":{"p":1.999,"d":"2026-04-30"},"SP98":{"p":2.1,"d":"2026-04-30"}},"brand":"Leclerc","services":["DAB (Distributeur automatique de billets)"]},{"id":60000006,"lat":49.43,"lng":2.092,"addr":"1 AVE KENNEDY","city":"Beauvais","cp":"60000","fuels":{"Gazole":{"p":2.138,"d":"2026-04-30"},"E10":{"p":2.01,"d":"2026-04-30"},"SP98":{"p":2.135,"d":"2026-04-30"}},"brand":"Esso"},{"id":60330004,"lat":49.096696560788,"lng":2.7494676177426998,"addr":"5 ROUTE DE PARIS","city":"Le Plessis-Belleville","cp":"60330","fuels":{"Gazole":{"p":2.09,"d":"2026-05-01"},"E85":{"p":0.843,"d":"2026-05-01"},"GPLc":{"p":1.059,"d":"2026-05-01"},"E10":{"p":1.99,"d":"2026-05-01"},"SP98":{"p":1.99,"d":"2026-05-01"}},"brand":"TotalEnergies","h24":true,"services":["Toilettes publiques","Boutique alimentaire","Boutique non alimentaire","Restauration à emporter","Station de gonflage","Carburant additivé","Piste poids lourds","Lavage automatique","Lavage manuel","Vente de gaz domestique (Butane, Propane)","Automate CB 24/24","DAB (Distributeur automatique de billets)"]},{"id":60200005,"lat":49.419,"lng":2.82,"addr":"20 Rue de Clermont","city":"Compiègne","cp":"60200","fuels":{"Gazole":{"p":2.238,"d":"2026-05-01"},"E10":{"p":1.99,"d":"2026-05-01"},"SP98":{"p":2.041,"d":"2026-05-01"}},"brand":"Esso"},{"id":60200006,"lat":49.401,"lng":2.807,"addr":"12 Avenue des Martyrs de la Liberté","city":"Compiègne","cp":"60200","fuels":{"Gazole":{"p":2.253,"d":"2026-05-01"},"E10":{"p":1.99,"d":"2026-05-01"},"SP98":{"p":2.05,"d":"2026-05-01"}},"brand":"Esso"},{"id":60500002,"lat":49.178,"lng":2.456,"addr":"41 Avenue du Général Leclerc","city":"Chantilly","cp":"60500","fuels":{"Gazole":{"p":2.204,"d":"2026-05-01"},"E10":{"p":1.999,"d":"2026-05-01"},"SP98":{"p":2.058,"d":"2026-05-01"}},"brand":"Esso"},{"id":60870002,"lat":49.289,"lng":2.5,"addr":"Avenue des Pommiers","city":"VILLERS-SAINT-PAUL","cp":"60870","fuels":{"Gazole":{"p":2.195,"d":"2026-04-30"},"SP95":{"p":2.095,"d":"2026-04-30"},"E10":{"p":1.99,"d":"2026-04-30"},"SP98":{"p":2.199,"d":"2026-04-08"}},"brand":"Intermarché","h24":true,"services":["Laverie","Vente de pétrole lampant","Station de gonflage","Location de véhicule","Piste poids lourds","Lavage automatique","Lavage manuel","Vente de gaz domestique (Butane, Propane)","Automate CB 24/24","DAB (Distributeur automatique de billets)"]},{"id":60700005,"lat":49.317,"lng":2.606,"addr":"avenue d'auvelais","city":"pont sainte maxence","cp":"60700","fuels":{"Gazole":{"p":2.159,"d":"2026-04-28"},"SP95":{"p":2.045,"d":"2026-04-30"},"E85":{"p":0.889,"d":"2026-04-27"},"E10":{"p":1.999,"d":"2026-04-30"},"SP98":{"p":2.069,"d":"2026-04-30"}},"brand":"Leclerc","h24":true,"services":["Station de gonflage","Carburant additivé","Piste poids lourds","Lavage automatique","Lavage manuel","Vente de gaz domestique (Butane, Propane)","Automate CB 24/24","DAB (Distributeur automatique de billets)"]},{"id":60000017,"lat":49.402495035409,"lng":2.1278669713141003,"addr":"ZAC SAINT-MATHURIN - RD1001","city":"Allonne","cp":"60000","fuels":{"Gazole":{"p":2.09,"d":"2026-05-01"},"E85":{"p":0.836,"d":"2026-05-01"},"E10":{"p":1.99,"d":"2026-05-01"}}},{"id":60210003,"lat":49.666,"lng":1.959,"addr":"Route de Crèvecoeur","city":"Grandvilliers","cp":"60210","fuels":{"Gazole":{"p":2.106,"d":"2026-04-30"},"SP95":{"p":2.067,"d":"2026-04-30"},"E85":{"p":0.818,"d":"2026-04-25"},"E10":{"p":2.013,"d":"2026-04-30"}},"brand":"Intermarché","services":["Laverie","Boutique non alimentaire","Station de gonflage","Piste poids lourds","Lavage manuel","Vente de gaz domestique (Butane, Propane)","DAB (Distributeur automatique de billets)"]},{"id":60110004,"lat":49.21043,"lng":2.151187,"addr":"A16 - SORTIE 13","city":"MERU","cp":"60110","fuels":{"Gazole":{"p":2.25,"d":"2026-05-01"},"E10":{"p":1.99,"d":"2026-05-01"}},"brand":"TotalEnergies"},{"id":60140002,"lat":49.329,"lng":2.464,"addr":"6 Rue Victor Hugo","city":"Liancourt","cp":"60140","fuels":{"Gazole":{"p":2.25,"d":"2026-04-27"},"SP95":{"p":1.99,"d":"2026-04-27"}},"brand":"TotalEnergies","services":["Boutique alimentaire","Boutique non alimentaire","Station de gonflage","Carburant additivé","Vente de gaz domestique (Butane, Propane)","Wifi"]},{"id":60200011,"lat":49.38626,"lng":2.7848,"addr":"Avenue de l' Europe","city":"Compiègne","cp":"60200","fuels":{"Gazole":{"p":2.25,"d":"2026-04-30"},"E10":{"p":1.99,"d":"2026-04-22"},"SP98":{"p":1.99,"d":"2026-03-13"}},"brand":"TotalEnergies","services":["Toilettes publiques","Boutique alimentaire","Boutique non alimentaire","Restauration à emporter","Restauration sur place","Station de gonflage","Carburant additivé","Piste poids lourds","Lavage automatique","Lavage manuel","DAB (Distributeur automatique de billets)"]},{"id":60126001,"lat":49.359,"lng":2.718,"addr":"202 RUE DE PICARDIE","city":"Longueil-Sainte-Marie","cp":"60126","fuels":{"Gazole":{"p":2.233,"d":"2026-04-17"},"SP95":{"p":2.079,"d":"2026-04-17"}},"brand":"Coccinelle","h24":true,"services":["Laverie","Relais colis","Boutique alimentaire","Boutique non alimentaire","Restauration à emporter","Restauration sur place","Vente de fioul domestique","Station de gonflage","Location de véhicule","Lavage automatique","Lavage manuel","Vente de gaz domestique (Butane, Propane)","Vente d'additifs carburants","Automate CB 24/24"]},{"id":60490007,"lat":49.5236,"lng":2.72292,"addr":"AUTOROUTE A1 - AIRE DE RESSONS EST","city":"RESSONS SUR MATZ","cp":"60490","fuels":{"Gazole":{"p":2.09,"d":"2026-05-01"},"E85":{"p":0.999,"d":"2026-05-01"},"GPLc":{"p":1.119,"d":"2026-05-01"},"E10":{"p":1.99,"d":"2026-05-01"},"SP98":{"p":1.99,"d":"2026-05-01"}},"brand":"TotalEnergies","services":["Toilettes publiques","Douches","Boutique alimentaire","Boutique non alimentaire","Station de gonflage","Carburant additivé","Piste poids lourds","Espace bébé","DAB (Distributeur automatique de billets)"]},{"id":60280003,"lat":49.4312668816,"lng":2.8373434750855,"addr":"254 avenue de la république","city":"CLAIROIX","cp":"60280","fuels":{"Gazole":{"p":2.119,"d":"2026-04-30"},"E85":{"p":0.819,"d":"2026-04-16"},"E10":{"p":1.969,"d":"2026-04-30"},"SP98":{"p":2.059,"d":"2026-04-25"}},"brand":"Intermarché","h24":true,"services":["Station de gonflage","Piste poids lourds","Lavage automatique","Vente de gaz domestique (Butane, Propane)","Vente d'additifs carburants","Automate CB 24/24"]},{"id":60000012,"lat":49.431,"lng":2.118,"addr":"RN 31 - ROUTE DE CLERMONT","city":"BEAUVAIS","cp":"60000","fuels":{"E85":{"p":0.863,"d":"2026-05-01"},"GPLc":{"p":1.019,"d":"2026-05-01"}},"brand":"TotalEnergies","h24":true,"services":["Toilettes publiques","Boutique alimentaire","Boutique non alimentaire","Station de gonflage","Carburant additivé","Piste poids lourds","Lavage automatique","Lavage manuel","Vente de gaz domestique (Butane, Propane)","Wifi","Automate CB 24/24"]},{"id":60600004,"lat":49.3826,"lng":2.40177,"addr":"Rue Gérard de Nerval","city":"CLERMONT","cp":"60600","fuels":{"Gazole":{"p":2.159,"d":"2026-04-30"},"SP95":{"p":2.035,"d":"2026-04-27"},"E10":{"p":1.97,"d":"2026-04-30"},"SP98":{"p":2.079,"d":"2026-04-29"}},"brand":"Intermarché","services":["Vente de fioul domestique","Lavage manuel","Vente de gaz domestique (Butane, Propane)","DAB (Distributeur automatique de billets)"]},{"id":60410003,"lat":49.309,"lng":2.73,"addr":"Rue Juliette Adam","city":"Verberie","cp":"60410","fuels":{"Gazole":{"p":2.199,"d":"2026-04-23"},"SP95":{"p":2.039,"d":"2026-04-23"},"SP98":{"p":2.119,"d":"2026-04-23"}},"brand":"Leclerc","services":["DAB (Distributeur automatique de billets)"]},{"id":60112002,"lat":49.484,"lng":2.047,"addr":"Rue de Dieppe","city":"Troissereux","cp":"60112","fuels":{"Gazole":{"p":2.09,"d":"2026-05-01"},"E10":{"p":1.99,"d":"2026-04-21"}},"brand":"TotalEnergies","h24":true,"services":["Carburant additivé","Piste poids lourds","Services réparation / entretien","Vente de gaz domestique (Butane, Propane)","Vente d'additifs carburants","Automate CB 24/24"]},{"id":60160003,"lat":49.256,"lng":2.432,"addr":"33, RUE GUY MOQUET","city":"MONTATAIRE","cp":"60160","fuels":{"Gazole":{"p":2.09,"d":"2026-05-01"},"E85":{"p":0.834,"d":"2026-05-01"},"E10":{"p":1.99,"d":"2026-05-01"}},"brand":"TotalEnergies","h24":true,"services":["Boutique alimentaire","Boutique non alimentaire","Station de gonflage","Carburant additivé","Lavage automatique","Vente de gaz domestique (Butane, Propane)","Automate CB 24/24","DAB (Distributeur automatique de billets)"]},{"id":60180001,"lat":49.276,"lng":2.486,"addr":"Rue du Marais Sec","city":"NOGENT-SUR-OISE","cp":"60180","fuels":{"Gazole":{"p":2.21,"d":"2026-04-30"},"E85":{"p":0.843,"d":"2026-04-28"},"GPLc":{"p":1.029,"d":"2026-04-17"},"E10":{"p":1.99,"d":"2026-04-29"},"SP98":{"p":2.071,"d":"2026-04-30"}},"brand":"Auchan","services":["Station de gonflage","Piste poids lourds","Vente de gaz domestique (Butane, Propane)"]},{"id":60540002,"lat":49.2013605,"lng":2.2042972,"addr":"10 RUE LOUIS DENOUAL","city":"BORNEL","cp":"60540","fuels":{"Gazole":{"p":2.228,"d":"2026-04-28"},"E10":{"p":2.059,"d":"2026-04-28"},"SP98":{"p":2.139,"d":"2026-04-28"}},"brand":"Carrefour","services":["Relais colis","Boutique alimentaire","Restauration à emporter","Vente de pétrole lampant","Station de gonflage","Carburant additivé","Lavage automatique","Lavage manuel","Vente de gaz domestique (Butane, Propane)"]},{"id":60300007,"lat":49.211,"lng":2.593,"addr":"64/66 AV. MAL FOCH","city":"SENLIS","cp":"60300","fuels":{"Gazole":{"p":2.09,"d":"2026-05-01"},"E85":{"p":0.859,"d":"2026-05-01"},"GPLc":{"p":1.076,"d":"2026-05-01"}},"brand":"TotalEnergies","h24":true,"services":["Toilettes publiques","Boutique alimentaire","Boutique non alimentaire","Station de gonflage","Carburant additivé","Lavage automatique","Vente de gaz domestique (Butane, Propane)","Vente d'additifs carburants","Automate CB 24/24"]},{"id":60230004,"lat":49.188,"lng":2.235,"addr":"RN1 ROUTE PARIS","city":"CHAMBLY","cp":"60230","fuels":{"Gazole":{"p":2.09,"d":"2026-05-01"},"GPLc":{"p":0.999,"d":"2026-05-01"},"E10":{"p":1.99,"d":"2026-05-01"}},"brand":"TotalEnergies","h24":true,"services":["Douches","Relais colis","Boutique alimentaire","Boutique non alimentaire","Restauration à emporter","Restauration sur place","Station de gonflage","Carburant additivé","Piste poids lourds","Vente de gaz domestique (Butane, Propane)","Wifi","Automate CB 24/24"]},{"id":60240001,"lat":49.272,"lng":1.874,"addr":"ZAC du moulin d'Angean","city":"Chaumont-en-Vexin","cp":"60240","fuels":{"Gazole":{"p":2.138,"d":"2026-04-30"},"E10":{"p":1.959,"d":"2026-04-30"},"SP98":{"p":2.081,"d":"2026-04-30"}},"services":["DAB (Distributeur automatique de billets)"]},{"id":60680003,"lat":49.403,"lng":2.739,"addr":"RN 31 - ROUTE DE CLERMONT","city":"JONQUIERES","cp":"60680","fuels":{"Gazole":{"p":2.09,"d":"2026-05-01"},"E85":{"p":0.839,"d":"2026-05-01"},"E10":{"p":1.99,"d":"2026-05-01"},"SP98":{"p":1.99,"d":"2026-05-01"}},"brand":"AS 24","h24":true,"services":["Boutique alimentaire","Boutique non alimentaire","Restauration à emporter","Station de gonflage","Carburant additivé","Piste poids lourds","Vente de gaz domestique (Butane, Propane)","Vente d'additifs carburants","Wifi","Automate CB 24/24"]},{"id":60300010,"lat":49.221,"lng":2.593,"addr":"DEVIATION NORD DE SENLIS - Avenue du Poteau","city":"CHAMANT","cp":"60300","fuels":{"Gazole":{"p":2.09,"d":"2026-05-01"},"SP95":{"p":1.99,"d":"2026-04-30"},"E85":{"p":0.859,"d":"2026-05-01"},"E10":{"p":1.99,"d":"2026-05-01"}},"brand":"TotalEnergies","h24":true,"services":["Toilettes publiques","Boutique alimentaire","Boutique non alimentaire","Station de gonflage","Piste poids lourds","Lavage automatique","Lavage manuel","Automate CB 24/24"]},{"id":60870003,"lat":49.284,"lng":2.492,"addr":"ROCADE INDUSTRIELLE","city":"Villers-Saint-Paul","cp":"60870","fuels":{"Gazole":{"p":2.09,"d":"2026-05-01"},"E85":{"p":0.843,"d":"2026-05-01"},"E10":{"p":1.99,"d":"2026-05-01"},"SP98":{"p":1.99,"d":"2026-05-01"}},"brand":"TotalEnergies"},{"id":60120005,"lat":49.641,"lng":2.279,"addr":"88 rue d`Amiens les Hiebles ZAC NORD","city":"BRETEUIL","cp":"60120","fuels":{"Gazole":{"p":2.169,"d":"2026-04-30"},"SP95":{"p":2.051,"d":"2026-04-30"},"E85":{"p":0.749,"d":"2026-04-24"},"E10":{"p":2.015,"d":"2026-04-30"}},"brand":"Leclerc","h24":true,"services":["Laverie","Relais colis","Boutique alimentaire","Boutique non alimentaire","Station de gonflage","Location de véhicule","Piste poids lourds","Vente de gaz domestique (Butane, Propane)","Bornes électriques","Wifi","Automate CB 24/24","DAB (Distributeur automatique de billets)"]},{"id":60390001,"lat":49.368,"lng":1.987,"addr":"450 Rue des Aulnes","city":"AUNEUIL","cp":"60390","fuels":{"Gazole":{"p":2.199,"d":"2026-04-28"},"E10":{"p":1.999,"d":"2026-04-28"},"SP98":{"p":2.069,"d":"2026-04-30"}},"brand":"Carrefour","h24":true,"services":["Relais colis","Location de véhicule","Automate CB 24/24","DAB (Distributeur automatique de billets)"]},{"id":60340001,"lat":49.208,"lng":2.391,"addr":"ROUTE DE PRECY","city":"VILLERS-SOUS-SAINT-LEU","cp":"60340","fuels":{"Gazole":{"p":2.19,"d":"2026-04-30"},"E10":{"p":2.02,"d":"2026-04-30"},"SP98":{"p":2.122,"d":"2026-04-30"}},"brand":"Carrefour","services":["Vente de gaz domestique (Butane, Propane)","DAB (Distributeur automatique de billets)"]},{"id":60500008,"lat":49.202,"lng":2.463,"addr":"Allée de l'Europe","city":"Chantilly","cp":"60500","fuels":{"Gazole":{"p":2.25,"d":"2026-04-28"},"SP95":{"p":2.06,"d":"2026-04-28"},"SP98":{"p":2.14,"d":"2026-04-28"}},"brand":"Carrefour","h24":true,"services":["Station de gonflage","Vente de gaz domestique (Butane, Propane)","Wifi","Automate CB 24/24","DAB (Distributeur automatique de billets)"]},{"id":60300005,"lat":49.221,"lng":2.591,"addr":"Centre Commercial Villevert","city":"SENLIS","cp":"60300","fuels":{"Gazole":{"p":2.157,"d":"2026-04-29"},"E85":{"p":0.818,"d":"2026-04-21"},"E10":{"p":1.977,"d":"2026-04-29"},"SP98":{"p":2.067,"d":"2026-04-29"}},"brand":"Intermarché","services":["Laverie","Station de gonflage","Vente de gaz domestique (Butane, Propane)"]},{"id":60190003,"lat":49.403,"lng":2.626,"addr":"RN 17 / RN 31","city":"MOYVILLERS","cp":"60190","fuels":{"Gazole":{"p":2.09,"d":"2026-05-01"},"E85":{"p":0.855,"d":"2026-05-01"}},"brand":"TotalEnergies","services":["Boutique alimentaire","Boutique non alimentaire","Station de gonflage","Vente de gaz domestique (Butane, Propane)"]},{"id":60200001,"lat":49.413,"lng":2.816,"addr":"47 Rue Notre-Dame de Bon Secours","city":"COMPIèGNE","cp":"60200","fuels":{"Gazole":{"p":2.204,"d":"2026-04-30"},"E10":{"p":1.99,"d":"2026-04-30"},"SP98":{"p":2.067,"d":"2026-04-30"}},"brand":"Auchan","services":["Toilettes publiques","Boutique alimentaire","Boutique non alimentaire","Vente de gaz domestique (Butane, Propane)","DAB (Distributeur automatique de billets)"]},{"id":60000001,"lat":49.409,"lng":2.115,"addr":"1 Avenue Descartes","city":"BEAUVAIS","cp":"60000","fuels":{"Gazole":{"p":2.118,"d":"2026-04-30"},"E85":{"p":0.819,"d":"2026-04-16"},"E10":{"p":1.99,"d":"2026-04-30"},"SP98":{"p":2.075,"d":"2026-04-30"}},"brand":"Auchan","h24":true,"services":["Station de gonflage","Automate CB 24/24","DAB (Distributeur automatique de billets)"]},{"id":95472001,"lat":49.101,"lng":2.528,"addr":"RD922","city":"La Chapelle-en-Serval","cp":"60520","fuels":{"Gazole":{"p":2.198,"d":"2026-04-29"},"E10":{"p":2.019,"d":"2026-04-29"},"SP98":{"p":2.039,"d":"2026-04-29"}},"brand":"Leclerc","h24":true,"services":["Boutique alimentaire","Boutique non alimentaire","Location de véhicule","Lavage automatique","Vente de gaz domestique (Butane, Propane)","Automate CB 24/24","DAB (Distributeur automatique de billets)"]},{"id":60420003,"lat":49.592835751644,"lng":2.5133434965423,"addr":"16 RUE DU CALVAIRE","city":"Ferrières","cp":"60420","fuels":{"Gazole":{"p":2.196,"d":"2026-04-27"},"SP95":{"p":2.04,"d":"2026-04-20"}},"h24":true,"services":["Automate CB 24/24"]},{"id":60600001,"lat":49.362,"lng":2.422,"addr":"Route de Paris","city":"BREUIL-LE-VERT","cp":"60600","fuels":{"Gazole":{"p":2.153,"d":"2026-04-30"},"E10":{"p":1.98,"d":"2026-04-30"},"SP98":{"p":2.089,"d":"2026-04-30"}},"brand":"Auchan","h24":true,"services":["Relais colis","Boutique alimentaire","Boutique non alimentaire","Vente de pétrole lampant","Station de gonflage","Vente de gaz domestique (Butane, Propane)","Automate CB 24/24","DAB (Distributeur automatique de billets)"]},{"id":60600006,"lat":49.396,"lng":2.419,"addr":"Rue Nelson Mandela","city":"FITZ-JAMES","cp":"60600","fuels":{"Gazole":{"p":2.169,"d":"2026-04-30"},"E85":{"p":0.875,"d":"2026-04-20"},"E10":{"p":1.97,"d":"2026-04-30"},"SP98":{"p":2.079,"d":"2026-04-29"}},"h24":true,"services":["Boutique non alimentaire","Vente de fioul domestique","Vente de pétrole lampant","Station de gonflage","Lavage automatique","Lavage manuel","Services réparation / entretien","Vente de gaz domestique (Butane, Propane)","Automate CB 24/24","DAB (Distributeur automatique de billets)"]},{"id":60300009,"lat":49.20834539496099,"lng":2.6023127084038,"addr":"64 avenue du Général de Gaulle","city":"Senlis","cp":"60300","fuels":{"Gazole":{"p":2.25,"d":"2026-04-30"},"E85":{"p":0.869,"d":"2026-04-30"},"E10":{"p":1.99,"d":"2026-04-30"},"SP98":{"p":1.99,"d":"2026-04-30"}},"brand":"BP","h24":true,"services":["Station de gonflage","Piste poids lourds","Services réparation / entretien","Vente d'additifs carburants","Automate CB 24/24","DAB (Distributeur automatique de billets)"]},{"id":60390004,"lat":49.371485,"lng":1.988032,"addr":"100 route de Gisors","city":"Auneuil","cp":"60390","fuels":{"Gazole":{"p":2.199,"d":"2026-04-28"},"E10":{"p":1.999,"d":"2026-04-28"},"SP98":{"p":2.069,"d":"2026-04-30"}},"h24":true,"services":["Relais colis","Station de gonflage","Piste poids lourds","Lavage automatique","Lavage manuel","Automate CB 24/24"]},{"id":60005001,"lat":49.456,"lng":2.1,"addr":"Route d' Amiens","city":"BEAUVAIS","cp":"60000","fuels":{"E10":{"p":1.99,"d":"2026-04-07"}},"brand":"TotalEnergies","h24":true,"services":["Station de gonflage","Carburant additivé","Automate CB 24/24"]},{"id":60260001,"lat":49.156,"lng":2.445,"addr":"79 Avenue de la Libération","city":"LAMORLAYE","cp":"60260","fuels":{"Gazole":{"p":2.201,"d":"2026-04-28"},"SP95":{"p":2.051,"d":"2026-04-28"},"E85":{"p":0.82,"d":"2026-04-24"},"E10":{"p":2.005,"d":"2026-04-28"},"SP98":{"p":2.128,"d":"2026-04-28"}},"brand":"Carrefour","h24":true,"services":["Toilettes publiques","Relais colis","Station de gonflage","Location de véhicule","Vente de gaz domestique (Butane, Propane)","Wifi","Automate CB 24/24","DAB (Distributeur automatique de billets)"]},{"id":60640001,"lat":49.655,"lng":3.05,"addr":"206 Rue Marcel Poulin","city":"GUISCARD","cp":"60640","fuels":{"Gazole":{"p":2.09,"d":"2026-05-01"},"E10":{"p":1.99,"d":"2026-05-01"},"SP98":{"p":1.99,"d":"2026-05-01"}},"brand":"TotalEnergies","services":["Boutique alimentaire","Boutique non alimentaire","Carburant additivé","Services réparation / entretien"]},{"id":60130001,"lat":49.512,"lng":2.431,"addr":"Z.I. Nord","city":"SAINT-JUST-EN-CHAUSSéE","cp":"60130","fuels":{"Gazole":{"p":2.172,"d":"2026-04-30"},"SP95":{"p":2.037,"d":"2026-04-30"},"E85":{"p":0.758,"d":"2026-04-30"},"SP98":{"p":2.073,"d":"2026-04-30"}},"brand":"Leclerc","h24":true,"services":["Station de gonflage","Location de véhicule","Piste poids lourds","Lavage automatique","Lavage manuel","Vente de gaz domestique (Butane, Propane)","Automate CB 24/24","DAB (Distributeur automatique de billets)"]},{"id":60000011,"lat":49.41,"lng":2.109,"addr":"9 Avenue Montaigne","city":"BEAUVAIS","cp":"60000","fuels":{"Gazole":{"p":2.227,"d":"2026-04-28"},"SP95":{"p":2.027,"d":"2026-04-28"},"E85":{"p":0.819,"d":"2026-04-17"},"GPLc":{"p":0.988,"d":"2026-04-14"},"SP98":{"p":2.114,"d":"2026-04-28"}},"brand":"Carrefour","h24":true,"services":["Piste poids lourds","Automate CB 24/24"]},{"id":60270003,"lat":49.188755748479004,"lng":2.413338110243,"addr":"Rue Blanche","city":"GOUVIEUX","cp":"60270","fuels":{"Gazole":{"p":2.096,"d":"2026-04-29"},"E10":{"p":1.975,"d":"2026-04-29"},"SP98":{"p":2.075,"d":"2026-04-29"}},"brand":"Intermarché","h24":true,"services":["Lavage automatique","Automate CB 24/24"]},{"id":60590001,"lat":49.289,"lng":1.807,"addr":"RN 181","city":"Trie-Château","cp":"60590","fuels":{"Gazole":{"p":2.166,"d":"2026-04-30"},"SP95":{"p":2.059,"d":"2026-04-30"},"E85":{"p":0.799,"d":"2026-04-17"},"E10":{"p":1.977,"d":"2026-04-29"},"SP98":{"p":2.068,"d":"2026-04-30"}},"brand":"Leclerc","h24":true,"services":["Relais colis","Boutique alimentaire","Boutique non alimentaire","Station de gonflage","Carburant additivé","Location de véhicule","Piste poids lourds","Lavage manuel","Vente de gaz domestique (Butane, Propane)","Bornes électriques","Automate CB 24/24","DAB (Distributeur automatique de billets)"]},{"id":60280001,"lat":49.408,"lng":2.781,"addr":"6 Avenue de l'Europe","city":"VENETTE","cp":"60280","fuels":{"Gazole":{"p":2.157,"d":"2026-04-30"},"SP95":{"p":2.088,"d":"2026-04-30"},"E85":{"p":0.916,"d":"2026-04-30"},"GPLc":{"p":0.999,"d":"2026-04-30"},"E10":{"p":2.001,"d":"2026-04-30"},"SP98":{"p":2.169,"d":"2026-04-30"}},"brand":"Carrefour","services":["Restauration à emporter","Restauration sur place","Carburant additivé","Vente de gaz domestique (Butane, Propane)","DAB (Distributeur automatique de billets)"]},{"id":60150005,"lat":49.47,"lng":2.86,"addr":"ZI LE CHAMP SAINTE CROIX","city":"LONGUEIL ANNEL","cp":"60150","fuels":{"Gazole":{"p":2.19,"d":"2026-04-29"},"E10":{"p":1.969,"d":"2026-04-29"},"SP98":{"p":2.09,"d":"2026-04-29"}},"brand":"Carrefour","services":["Bornes électriques"]},{"id":60610002,"lat":49.358,"lng":2.777,"addr":"ZAC DES JARDINS","city":"LA CROIX SAINT OUEN","cp":"60610","fuels":{"Gazole":{"p":2.119,"d":"2026-04-30"},"E85":{"p":0.759,"d":"2026-04-14"},"E10":{"p":1.969,"d":"2026-04-27"},"SP98":{"p":2.049,"d":"2026-04-30"}},"brand":"Leclerc","services":["Vente de pétrole lampant","Station de gonflage","Carburant additivé","Piste poids lourds","Lavage automatique","Lavage manuel","Wifi","DAB (Distributeur automatique de billets)"]},{"id":60000008,"lat":49.433,"lng":2.046,"addr":"42 Rue Juliette Nevouet","city":"Goincourt","cp":"60000","fuels":{"Gazole":{"p":2.139,"d":"2026-04-28"},"E85":{"p":0.818,"d":"2026-04-16"},"E10":{"p":1.944,"d":"2026-04-28"},"SP98":{"p":2.048,"d":"2026-04-13"}},"brand":"Intermarché","h24":true,"services":["Toilettes publiques","Relais colis","Boutique alimentaire","Restauration sur place","Station de gonflage","Location de véhicule","Lavage automatique","Lavage manuel","Vente de gaz domestique (Butane, Propane)","Automate CB 24/24","DAB (Distributeur automatique de billets)"]},{"id":60120002,"lat":49.63618,"lng":2.29025,"addr":"Rue d'Amiens","city":"BRETEUIL","cp":"60120","fuels":{"Gazole":{"p":2.169,"d":"2026-04-30"},"SP95":{"p":2.051,"d":"2026-04-30"},"SP98":{"p":2.09,"d":"2026-04-30"}},"brand":"Carrefour","services":["Relais colis","Location de véhicule","Vente de gaz domestique (Butane, Propane)","DAB (Distributeur automatique de billets)"]},{"id":60000007,"lat":49.431,"lng":2.071,"addr":"AVENUE NELSON MANDELA","city":"Beauvais","cp":"60000","fuels":{"Gazole":{"p":2.213,"d":"2026-04-30"},"E10":{"p":2.011,"d":"2026-04-30"},"SP98":{"p":2.131,"d":"2026-04-28"}},"brand":"Carrefour","h24":true,"services":["Toilettes publiques","Laverie","Boutique alimentaire","Boutique non alimentaire","Restauration à emporter","Bar","Lavage automatique","Lavage manuel","Vente de gaz domestique (Butane, Propane)","Automate CB 24/24","DAB (Distributeur automatique de billets)"]},{"id":60690001,"lat":49.582,"lng":1.954,"addr":"145 DU GENERAL LECLERC","city":"MARSEILLE EN BEAUVAISIS","cp":"60690","fuels":{"Gazole":{"p":2.101,"d":"2026-04-30"},"SP95":{"p":2.063,"d":"2026-04-30"},"E85":{"p":0.818,"d":"2026-04-30"},"E10":{"p":2.009,"d":"2026-04-30"},"SP98":{"p":2.119,"d":"2026-04-30"}},"brand":"Intermarché","h24":true,"services":["Toilettes publiques","Laverie","Boutique alimentaire","Boutique non alimentaire","Vente de pétrole lampant","Station de gonflage","Piste poids lourds","Lavage automatique","Lavage manuel","Vente de gaz domestique (Butane, Propane)","Bornes électriques","Automate CB 24/24","DAB (Distributeur automatique de billets)"]},{"id":60490009,"lat":49.519649613694995,"lng":2.7195533558196,"addr":"A1 SENS LILLE/PARIS REPERE 80.260","city":"RESSONS SUR MATZ","cp":"60490","fuels":{"Gazole":{"p":2.09,"d":"2026-05-01"},"E85":{"p":0.999,"d":"2026-05-01"},"GPLc":{"p":1.109,"d":"2026-05-01"},"E10":{"p":1.99,"d":"2026-05-01"},"SP98":{"p":1.99,"d":"2026-05-01"}},"brand":"TotalEnergies"},{"id":60730002,"lat":49.29,"lng":2.201,"addr":"Centre Commercial du Château","city":"SAINTE-GENEVIèVE","cp":"60730","fuels":{"Gazole":{"p":2.159,"d":"2026-04-30"},"E10":{"p":1.989,"d":"2026-04-30"},"SP98":{"p":2.049,"d":"2026-04-30"}},"brand":"Système U","h24":true,"services":["Laverie","Relais colis","Boutique alimentaire","Restauration à emporter","Vente de pétrole lampant","Location de véhicule","Piste poids lourds","Lavage manuel","Vente de gaz domestique (Butane, Propane)","Bornes électriques","Automate CB 24/24","DAB (Distributeur automatique de billets)"]},{"id":60350002,"lat":49.401,"lng":2.994,"addr":"19 Route de Reims","city":"Trosly-Breuil","cp":"60350","fuels":{"Gazole":{"p":2.161,"d":"2026-04-30"},"E85":{"p":0.819,"d":"2026-04-17"},"E10":{"p":1.99,"d":"2026-04-30"},"SP98":{"p":2.101,"d":"2026-04-30"}},"brand":"Groupement des Mousquetaires","services":["Vente de fioul domestique","Piste poids lourds","Vente de gaz domestique (Butane, Propane)","DAB (Distributeur automatique de billets)"]},{"id":60740001,"lat":49.239,"lng":2.471,"addr":"RD1016","city":"SAINT-MAXIMIN","cp":"60740","fuels":{"Gazole":{"p":2.2,"d":"2026-04-28"},"GPLc":{"p":1.029,"d":"2026-04-30"},"E10":{"p":2,"d":"2026-04-28"},"SP98":{"p":2.108,"d":"2026-04-30"}},"brand":"Carrefour","h24":true,"services":["Station de gonflage","Carburant additivé","Piste poids lourds","Vente de gaz domestique (Butane, Propane)","Automate CB 24/24"]},{"id":60190002,"lat":49.41449,"lng":2.64666,"addr":"Rue de la Sècherie","city":"Moyvillers","cp":"60190","fuels":{"Gazole":{"p":2.165,"d":"2026-04-30"},"SP95":{"p":2.058,"d":"2026-04-30"},"SP98":{"p":2.105,"d":"2026-04-30"}},"brand":"Intermarché","services":["Vente de fioul domestique","Vente de gaz domestique (Butane, Propane)","DAB (Distributeur automatique de billets)"]},{"id":60160002,"lat":49.253,"lng":2.428,"addr":"Rue André Ginisti","city":"MONTATAIRE","cp":"60160","fuels":{"Gazole":{"p":2.199,"d":"2026-04-28"},"E85":{"p":0.779,"d":"2026-04-24"},"E10":{"p":1.999,"d":"2026-04-28"},"SP98":{"p":2.029,"d":"2026-04-24"}},"brand":"Leclerc","h24":true,"services":["Toilettes publiques","Vente de pétrole lampant","Location de véhicule","Piste poids lourds","Vente de gaz domestique (Butane, Propane)","Automate CB 24/24","DAB (Distributeur automatique de billets)"]},{"id":60650007,"lat":49.438949,"lng":1.887184,"addr":"58 route nationale","city":"Saint Aubin en Bray","cp":"60650","fuels":{"Gazole":{"p":2.189,"d":"2026-04-29"},"E85":{"p":0.799,"d":"2026-04-24"},"E10":{"p":2.048,"d":"2026-04-29"},"SP98":{"p":2.119,"d":"2026-04-29"}},"brand":"Esso","h24":true,"services":["Toilettes publiques","Boutique alimentaire","Boutique non alimentaire","Station de gonflage","Piste poids lourds","Vente de gaz domestique (Butane, Propane)","Automate CB 24/24"]},{"id":60200012,"lat":49.407,"lng":2.813,"addr":"142 RUE DE PARIS","city":"COMPIEGNE","cp":"60200","fuels":{"Gazole":{"p":2.09,"d":"2026-05-01"},"E85":{"p":0.836,"d":"2026-05-01"},"E10":{"p":1.99,"d":"2026-05-01"}},"brand":"TotalEnergies","h24":true,"services":["Boutique alimentaire","Boutique non alimentaire","Restauration à emporter","Station de gonflage","Carburant additivé","Lavage automatique","Vente de gaz domestique (Butane, Propane)","Vente d'additifs carburants","Wifi","Automate CB 24/24"]},{"id":60170003,"lat":49.515,"lng":2.924,"addr":"ZAC DE LA GRERIE","city":"Ribécourt-Dreslincourt","cp":"60170","fuels":{"Gazole":{"p":2.227,"d":"2026-04-30"},"E10":{"p":2.019,"d":"2026-04-30"},"SP98":{"p":2.105,"d":"2026-04-30"}},"brand":"Leclerc","h24":true,"services":["Laverie","Location de véhicule","Piste poids lourds","Lavage automatique","Lavage manuel","Vente de gaz domestique (Butane, Propane)","Automate CB 24/24","DAB (Distributeur automatique de billets)"]},{"id":60290005,"lat":49.337,"lng":2.434,"addr":"RN.16 RTE DE CLERMONT","city":"RANTIGNY","cp":"60290","fuels":{"Gazole":{"p":2.09,"d":"2026-05-01"},"E85":{"p":0.829,"d":"2026-05-01"},"E10":{"p":1.99,"d":"2026-05-01"},"SP98":{"p":1.99,"d":"2026-05-01"}},"brand":"TotalEnergies","services":["Boutique alimentaire","Boutique non alimentaire","Station de gonflage","Carburant additivé","Piste poids lourds","Vente de gaz domestique (Butane, Propane)","Vente d'additifs carburants"]}]