[{"id":62180002,"lat":50.412,"lng":1.608,"addr":"LA FOLIE NORD","city":"RANG-DU-FLIERS","cp":"62180","fuels":{"Gazole":{"p":2.091,"d":"2026-04-29"},"GPLc":{"p":1.09,"d":"2026-04-29"},"E10":{"p":1.952,"d":"2026-04-29"},"SP98":{"p":2.041,"d":"2026-04-29"}},"brand":"Intermarché","services":["Toilettes publiques","Laverie","Relais colis","Boutique alimentaire","Boutique non alimentaire","Restauration à emporter","Restauration sur place","Bar","Vente de pétrole lampant","Station de gonflage","Carburant additivé","Location de véhicule","Lavage automatique","Lavage manuel","Vente de gaz domestique (Butane, Propane)","Bornes électriques","DAB (Distributeur automatique de billets)"]},{"id":62560002,"lat":50.59081,"lng":2.1688,"addr":"26 RUE PRINCIPALE","city":"Coyecques","cp":"62560","fuels":{"Gazole":{"p":2.09,"d":"2026-05-01"},"SP95":{"p":1.99,"d":"2026-05-01"}},"brand":"Elan","services":["Toilettes publiques","Boutique alimentaire","Bar","Carburant additivé","Piste poids lourds","Vente de gaz domestique (Butane, Propane)"]},{"id":62218002,"lat":50.448,"lng":2.865,"addr":"Rue de l'Abbaye","city":"Loison-sous-Lens","cp":"62218","fuels":{"Gazole":{"p":2.148,"d":"2026-04-29"},"E10":{"p":1.999,"d":"2026-04-29"},"SP98":{"p":2.007,"d":"2026-04-29"}},"brand":"Leclerc","h24":true,"services":["Boutique alimentaire","Boutique non alimentaire","Vente de fioul domestique","Location de véhicule","Vente de gaz domestique (Butane, Propane)","Bornes électriques","Automate CB 24/24","DAB (Distributeur automatique de billets)"]},{"id":52540001,"lat":50.503,"lng":2.508,"addr":"RUE PASTEUR","city":"MARLES-LES-MINES","cp":"62540","fuels":{"Gazole":{"p":2.239,"d":"2026-04-30"},"E10":{"p":1.989,"d":"2026-04-28"},"SP98":{"p":2.089,"d":"2026-04-28"}},"brand":"Intermarché","h24":true,"services":["Toilettes publiques","Relais colis","Vente de pétrole lampant","Location de véhicule","Vente de gaz domestique (Butane, Propane)","Automate CB 24/24","DAB (Distributeur automatique de billets)"]},{"id":62221001,"lat":50.431,"lng":2.864,"addr":"87, rue Jean Monnet","city":"NOYELLES-SOUS-LENS","cp":"62221","fuels":{"Gazole":{"p":2.129,"d":"2026-04-30"},"SP95":{"p":2.019,"d":"2026-04-30"},"E10":{"p":1.969,"d":"2026-04-30"},"SP98":{"p":2.089,"d":"2026-04-30"}},"brand":"Intermarché","h24":true,"services":["Relais colis","Piste poids lourds","Vente de gaz domestique (Butane, Propane)","Automate CB 24/24","DAB (Distributeur automatique de billets)"]},{"id":62219001,"lat":50.735,"lng":2.274,"addr":"Avenue des Frais Fonds","city":"LONGUENESSE","cp":"62219","fuels":{"Gazole":{"p":2.139,"d":"2026-04-30"},"E85":{"p":0.818,"d":"2026-04-16"},"GPLc":{"p":1.06,"d":"2026-04-27"},"E10":{"p":1.949,"d":"2026-04-30"},"SP98":{"p":2.069,"d":"2026-04-30"}},"brand":"Auchan","h24":true,"services":["Station de gonflage","Piste poids lourds","Vente de gaz domestique (Butane, Propane)","Automate CB 24/24","DAB (Distributeur automatique de billets)"]},{"id":62380001,"lat":50.70998,"lng":2.12748,"addr":"57 Avenue Bernard Chochoy","city":"Lumbres","cp":"62380","fuels":{"Gazole":{"p":2.25,"d":"2026-04-30"},"E85":{"p":0.839,"d":"2026-04-30"},"E10":{"p":1.99,"d":"2026-04-30"},"SP98":{"p":1.99,"d":"2026-04-30"}},"brand":"TotalEnergies","services":["Toilettes publiques","Boutique non alimentaire","Station de gonflage","Carburant additivé","Piste poids lourds"]},{"id":62820003,"lat":50.486,"lng":2.997,"addr":"ROUTE DE CARVIN","city":"LIBERCOURT","cp":"62820","fuels":{"Gazole":{"p":2.09,"d":"2026-05-01"},"E10":{"p":1.99,"d":"2026-05-01"},"SP98":{"p":1.99,"d":"2026-05-01"}},"brand":"TotalEnergies","h24":true,"services":["Relais colis","Boutique alimentaire","Boutique non alimentaire","Station de gonflage","Lavage automatique","Lavage manuel","Vente de gaz domestique (Butane, Propane)","Vente d'additifs carburants","Automate CB 24/24"]},{"id":62360006,"lat":50.689,"lng":1.619,"addr":"43 BOULEVARD DE LA LIANE","city":"Saint-Léonard","cp":"62360","fuels":{"Gazole":{"p":2.09,"d":"2026-05-01"},"E10":{"p":1.99,"d":"2026-05-01"},"SP98":{"p":1.99,"d":"2026-05-01"}},"brand":"TotalEnergies","h24":true,"services":["Boutique alimentaire","Station de gonflage","Carburant additivé","Piste poids lourds","Lavage automatique","Lavage manuel","Vente de gaz domestique (Butane, Propane)","Automate CB 24/24"]},{"id":62610005,"lat":50.881,"lng":1.972,"addr":"Zac du pont sans pareil","city":"Ardres","cp":"62610","fuels":{"Gazole":{"p":2.199,"d":"2026-04-30"},"SP95":{"p":2.059,"d":"2026-04-30"},"SP98":{"p":2.149,"d":"2026-04-30"}},"services":["Laverie","Relais colis","Boutique alimentaire","Boutique non alimentaire","Location de véhicule","Vente de gaz domestique (Butane, Propane)","DAB (Distributeur automatique de billets)"]},{"id":62380002,"lat":50.7091707625,"lng":2.11618475084,"addr":"Route d'Acquin","city":"LUMBRES","cp":"62380","fuels":{"Gazole":{"p":2.149,"d":"2026-04-29"},"E85":{"p":0.799,"d":"2026-04-21"},"E10":{"p":1.999,"d":"2026-04-27"},"SP98":{"p":2.069,"d":"2026-04-27"}},"brand":"Système U","services":["Vente de pétrole lampant","Location de véhicule","Piste poids lourds","Vente de gaz domestique (Butane, Propane)","DAB (Distributeur automatique de billets)"]},{"id":62390001,"lat":50.231,"lng":2.114,"addr":"1 place de la Gare","city":"AUXI-LE-CHâTEAU","cp":"62390","fuels":{"Gazole":{"p":2.139,"d":"2026-04-29"},"E85":{"p":0.818,"d":"2026-04-17"},"E10":{"p":1.967,"d":"2026-04-30"}},"brand":"Intermarché","h24":true,"services":["Laverie","Location de véhicule","Vente de gaz domestique (Butane, Propane)","Automate CB 24/24"]},{"id":62250005,"lat":50.8166,"lng":1.70267,"addr":"72 Avenue Ferber","city":"Marquise","cp":"62250","fuels":{"Gazole":{"p":2.09,"d":"2026-05-01"},"E85":{"p":0.842,"d":"2026-04-28"},"E10":{"p":1.99,"d":"2026-04-20"},"SP98":{"p":1.99,"d":"2026-04-07"}},"brand":"TotalEnergies","services":["Boutique alimentaire","Boutique non alimentaire","Vente de fioul domestique","Station de gonflage","Carburant additivé","Piste poids lourds","Lavage automatique","Lavage manuel","Services réparation / entretien","DAB (Distributeur automatique de billets)"]},{"id":62310003,"lat":50.516,"lng":2.125,"addr":"75 rue du Fort du Rietz","city":"Fruges","cp":"62310","fuels":{"Gazole":{"p":2.145,"d":"2026-04-29"},"E85":{"p":0.759,"d":"2026-04-24"},"E10":{"p":1.965,"d":"2026-04-30"},"SP98":{"p":2.039,"d":"2026-04-30"}},"brand":"Leclerc","h24":true,"services":["Toilettes publiques","Laverie","Relais colis","Boutique alimentaire","Boutique non alimentaire","Piste poids lourds","Bornes électriques","Automate CB 24/24","DAB (Distributeur automatique de billets)"]},{"id":62230001,"lat":50.651,"lng":1.609,"addr":"Boulevard Raymond Splingard","city":"Outreau","cp":"62230","fuels":{"Gazole":{"p":2.135,"d":"2026-04-16"},"SP95":{"p":1.978,"d":"2026-04-16"},"SP98":{"p":2.065,"d":"2026-04-16"}},"brand":"Carrefour","h24":true,"services":["Laverie","Boutique alimentaire","Vente de gaz domestique (Butane, Propane)","Automate CB 24/24","DAB (Distributeur automatique de billets)"]},{"id":62840004,"lat":50.653,"lng":2.839,"addr":"7bis rue des Glattignies","city":"Fleurbaix","cp":"62840","fuels":{"Gazole":{"p":2.159,"d":"2026-04-30"},"E85":{"p":0.799,"d":"2026-04-22"},"E10":{"p":1.939,"d":"2026-04-22"},"SP98":{"p":2.019,"d":"2026-04-22"}},"brand":"Carrefour","h24":true,"services":["Boutique alimentaire","Boutique non alimentaire","Restauration à emporter","Vente d'additifs carburants","Automate CB 24/24","DAB (Distributeur automatique de billets)"]},{"id":62240005,"lat":50.669,"lng":1.838,"addr":"22 rue du 11 Novembre","city":"DESVRES","cp":"62240","fuels":{"Gazole":{"p":2.189,"d":"2026-04-27"},"SP95":{"p":2.019,"d":"2026-04-27"},"E10":{"p":1.989,"d":"2026-04-27"},"SP98":{"p":2.099,"d":"2026-04-27"}},"brand":"Carrefour","h24":true,"services":["Boutique alimentaire","Vente de gaz domestique (Butane, Propane)","Automate CB 24/24","DAB (Distributeur automatique de billets)"]},{"id":62840005,"lat":50.65883405,"lng":2.7703257631579,"addr":"1173 RUE DE LA LYS","city":"Sailly-sur-la-Lys","cp":"62840","fuels":{"Gazole":{"p":2.229,"d":"2026-04-30"},"E10":{"p":1.949,"d":"2026-04-30"},"SP98":{"p":2.049,"d":"2026-04-30"}},"brand":"Carrefour"},{"id":62860006,"lat":50.2273337,"lng":3.0649737,"addr":"AUTOROUTE A26 - Aire de Rumaucourt","city":"Marquion","cp":"62860","fuels":{"Gazole":{"p":2.283,"d":"2026-04-28"},"E10":{"p":2.13,"d":"2026-04-28"},"SP98":{"p":2.219,"d":"2026-04-28"}},"brand":"Shell","services":["Douches","Boutique alimentaire","Restauration sur place","Station de gonflage","Carburant additivé","Piste poids lourds","Espace bébé"]},{"id":62690002,"lat":50.348,"lng":2.569,"addr":"3 route départementale 939","city":"Savy-Berlette","cp":"62690","fuels":{"Gazole":{"p":2.25,"d":"2026-04-30"},"E10":{"p":1.99,"d":"2026-04-30"},"SP98":{"p":1.99,"d":"2026-04-30"}},"brand":"TotalEnergies","h24":true,"services":["Boutique alimentaire","Boutique non alimentaire","Station de gonflage","Carburant additivé","Piste poids lourds","Lavage automatique","Lavage manuel","Services réparation / entretien","Vente de gaz domestique (Butane, Propane)","Bornes électriques","Vente d'additifs carburants","Automate CB 24/24"]},{"id":62147001,"lat":50.122186534067,"lng":3.0892816536201,"addr":"Autoroute A2 Aire d'Havrincourt","city":"HERMIES","cp":"62147","fuels":{"Gazole":{"p":2.339,"d":"2026-04-21"},"GPLc":{"p":1.13,"d":"2026-04-08"},"E10":{"p":2.119,"d":"2026-04-25"},"SP98":{"p":2.199,"d":"2026-04-17"}},"brand":"Avia","services":["Toilettes publiques","Douches","Boutique non alimentaire","Station de gonflage","Carburant additivé","Piste poids lourds","Espace bébé"]},{"id":62830002,"lat":50.639,"lng":1.759,"addr":"route de Desvres","city":"Samer","cp":"62830","fuels":{"Gazole":{"p":2.14,"d":"2026-04-30"},"SP95":{"p":2.013,"d":"2026-04-30"},"E85":{"p":0.715,"d":"2026-04-24"},"E10":{"p":1.989,"d":"2026-04-30"}},"brand":"Leclerc","services":["Piste poids lourds","Vente de gaz domestique (Butane, Propane)"]},{"id":59500005,"lat":50.497,"lng":2.867,"addr":"87 Route de Meurchin","city":"WINGLES","cp":"62410","fuels":{"Gazole":{"p":2.249,"d":"2026-04-20"},"E85":{"p":0.911,"d":"2026-04-28"},"E10":{"p":1.987,"d":"2026-04-30"}},"brand":"Carrefour","h24":true,"services":["Toilettes publiques","Laverie","Relais colis","Vente de pétrole lampant","Station de gonflage","Location de véhicule","Vente de gaz domestique (Butane, Propane)","Wifi","Automate CB 24/24"]},{"id":62400001,"lat":50.525,"lng":2.628,"addr":"Centre commercial AUCHAN La Rotonde","city":"BéTHUNE","cp":"62400","fuels":{"Gazole":{"p":2.19,"d":"2026-04-20"},"E85":{"p":0.819,"d":"2026-04-16"},"GPLc":{"p":1.082,"d":"2026-04-08"},"E10":{"p":1.979,"d":"2026-04-29"},"SP98":{"p":2.089,"d":"2026-04-29"}},"brand":"Auchan","h24":true,"services":["Vente de pétrole lampant","Piste poids lourds","Vente de gaz domestique (Butane, Propane)","Automate CB 24/24"]},{"id":62223002,"lat":50.313411145193,"lng":2.7619377797434,"addr":"Route de Béthune","city":"SAINTE-CATHERINE","cp":"62223","fuels":{"Gazole":{"p":2.129,"d":"2026-04-30"},"E85":{"p":0.818,"d":"2026-04-20"},"E10":{"p":1.963,"d":"2026-04-30"},"SP98":{"p":2.069,"d":"2026-04-30"}},"brand":"Intermarché","services":["Vente de gaz domestique (Butane, Propane)"]},{"id":62128007,"lat":50.174,"lng":2.874,"addr":"Aire de st Leger Autoroute A1","city":"Croisilles","cp":"62128","fuels":{"Gazole":{"p":2.233,"d":"2026-04-30"},"E85":{"p":0.832,"d":"2026-04-30"},"GPLc":{"p":1.128,"d":"2026-04-30"},"E10":{"p":2.044,"d":"2026-04-30"},"SP98":{"p":2.119,"d":"2026-04-30"}},"brand":"Avia","services":["Toilettes publiques","Douches","Boutique alimentaire","Boutique non alimentaire","Restauration à emporter","Restauration sur place","Station de gonflage","Carburant additivé","Piste poids lourds","Espace bébé"]},{"id":62000014,"lat":50.297,"lng":2.769,"addr":"138 PLACE DE THECOSLOVAQUIE","city":"ARRAS","cp":"62000","fuels":{"Gazole":{"p":2.09,"d":"2026-05-01"},"E85":{"p":0.841,"d":"2026-05-01"},"E10":{"p":1.99,"d":"2026-05-01"}},"brand":"TotalEnergies","h24":true,"services":["Relais colis","Boutique alimentaire","Boutique non alimentaire","Restauration à emporter","Station de gonflage","Carburant additivé","Lavage automatique","Vente de gaz domestique (Butane, Propane)","Wifi","Automate CB 24/24"]},{"id":62490002,"lat":50.333,"lng":3.002,"addr":"ROUTE DE BREBIERES","city":"VITRY-EN-ARTOIS","cp":"62490","fuels":{"Gazole":{"p":2.104,"d":"2026-04-28"},"E10":{"p":2.011,"d":"2026-04-27"},"SP98":{"p":2.103,"d":"2026-04-30"}},"brand":"Système U","services":["Vente de pétrole lampant","Station de gonflage","Lavage automatique","Lavage manuel","Vente de gaz domestique (Butane, Propane)"]},{"id":62620002,"lat":50.454,"lng":2.607,"addr":"Rue de la Plaine","city":"Barlin","cp":"62620","fuels":{"Gazole":{"p":2.279,"d":"2026-04-28"},"SP95":{"p":2.005,"d":"2026-04-13"},"E85":{"p":0.821,"d":"2026-04-08"},"E10":{"p":1.982,"d":"2026-04-30"}},"brand":"Carrefour","h24":true,"services":["Relais colis","Location de véhicule","Vente de gaz domestique (Butane, Propane)","Automate CB 24/24","DAB (Distributeur automatique de billets)"]},{"id":62130003,"lat":50.388056680472,"lng":2.3483871499758,"addr":"3 Rue René Cassin","city":"Saint-Pol-sur-Ternoise","cp":"62130","fuels":{"Gazole":{"p":2.19,"d":"2026-04-29"},"E85":{"p":0.818,"d":"2026-04-29"},"E10":{"p":1.976,"d":"2026-04-29"},"SP98":{"p":2.08,"d":"2026-04-29"}},"brand":"Intermarché","h24":true,"services":["Automate CB 24/24"]},{"id":62850001,"lat":50.79,"lng":1.951,"addr":"Rue de Courtebourne","city":"LICQUES","cp":"62850","fuels":{"Gazole":{"p":2.169,"d":"2026-04-28"},"E85":{"p":0.849,"d":"2026-04-21"},"E10":{"p":1.979,"d":"2026-04-28"},"SP98":{"p":2.099,"d":"2026-04-28"}},"brand":"Carrefour","h24":true,"services":["Station de gonflage","Location de véhicule","Lavage automatique","Lavage manuel","Vente de gaz domestique (Butane, Propane)","Automate CB 24/24"]},{"id":62120015,"lat":50.697879035687,"lng":2.351145511856,"addr":"ROUTE NATIONALE 43","city":"RACQUINGHEM","cp":"62120","fuels":{"Gazole":{"p":2.229,"d":"2026-04-30"},"SP95":{"p":2.049,"d":"2026-04-30"},"E10":{"p":2.019,"d":"2026-04-30"}},"brand":"Carrefour","services":["Relais colis","Boutique alimentaire","Boutique non alimentaire","Restauration à emporter","Carburant additivé","Piste poids lourds","Vente de gaz domestique (Butane, Propane)","DAB (Distributeur automatique de billets)"]},{"id":62280004,"lat":50.738,"lng":1.623,"addr":"Route de Calais","city":"SAINT-MARTIN-BOULOGNE","cp":"62280","fuels":{"Gazole":{"p":2.208,"d":"2026-04-23"},"E10":{"p":1.999,"d":"2026-04-27"},"SP98":{"p":2.111,"d":"2026-04-07"}},"brand":"Carrefour","h24":true,"services":["Toilettes publiques","Boutique alimentaire","Carburant additivé","Lavage manuel","Services réparation / entretien","Vente de gaz domestique (Butane, Propane)","Automate CB 24/24","DAB (Distributeur automatique de billets)"]},{"id":62580003,"lat":50.376149699186,"lng":2.8070252243759,"addr":"Rue saint Nazaire","city":"Vimy","cp":"62580","fuels":{"Gazole":{"p":2.229,"d":"2026-04-29"},"SP95":{"p":2.056,"d":"2026-04-29"},"SP98":{"p":2.161,"d":"2026-04-29"}},"brand":"Carrefour","services":["Boutique alimentaire","Restauration à emporter","Vente de pétrole lampant","Vente de gaz domestique (Butane, Propane)","Vente d'additifs carburants"]},{"id":62231001,"lat":50.925303,"lng":1.8502560000000001,"addr":"RUE DU CAP DE BONNE ESPERANCE","city":"COQUELLES","cp":"62231","fuels":{"Gazole":{"p":2.458,"d":"2026-04-30"}},"brand":"Shell","services":["Piste poids lourds","Vente d'additifs carburants"]},{"id":62170002,"lat":50.448,"lng":1.749,"addr":"Rue de Paris","city":"CAMPIGNEULLES-LES-PETITES","cp":"62170","fuels":{"Gazole":{"p":2.499,"d":"2026-04-06"},"SP95":{"p":1.99,"d":"2026-04-18"},"SP98":{"p":2.13,"d":"2026-04-02"}},"brand":"Carrefour","services":["Relais colis","Location de véhicule","Vente de gaz domestique (Butane, Propane)","DAB (Distributeur automatique de billets)"]},{"id":62910001,"lat":50.821,"lng":2.196,"addr":"RUE BLEUE MAISON","city":"Éperlecques","cp":"62910","fuels":{"Gazole":{"p":2.194,"d":"2026-04-28"},"E10":{"p":1.966,"d":"2026-04-28"},"SP98":{"p":2.134,"d":"2026-04-28"}},"brand":"Carrefour","services":["Location de véhicule","Lavage automatique","Vente de gaz domestique (Butane, Propane)","DAB (Distributeur automatique de billets)"]},{"id":62380003,"lat":50.714,"lng":2.109,"addr":"ZAC DES SARS","city":"LUMBRES","cp":"62380","fuels":{"Gazole":{"p":2.149,"d":"2026-04-29"},"SP95":{"p":2.029,"d":"2026-04-30"},"E85":{"p":0.799,"d":"2026-04-24"},"E10":{"p":1.989,"d":"2026-04-30"},"SP98":{"p":2.059,"d":"2026-04-30"}},"brand":"Leclerc","h24":true,"services":["Vente de gaz domestique (Butane, Propane)","Automate CB 24/24","DAB (Distributeur automatique de billets)"]},{"id":62510003,"lat":50.727,"lng":2.3,"addr":"Rue bernard CHOCHOY","city":"ARQUES","cp":"62510","fuels":{"Gazole":{"p":2.139,"d":"2026-04-30"},"E85":{"p":0.818,"d":"2026-04-15"},"E10":{"p":1.969,"d":"2026-04-30"},"SP98":{"p":2.069,"d":"2026-04-30"}},"brand":"Intermarché","services":["Restauration sur place","Station de gonflage","Vente de gaz domestique (Butane, Propane)","DAB (Distributeur automatique de billets)"]},{"id":62760002,"lat":50.158077,"lng":2.507405,"addr":"36 RUE DE VERDUN","city":"Pas-en-Artois","cp":"62760","fuels":{"Gazole":{"p":2.339,"d":"2026-04-02"},"SP95":{"p":2.119,"d":"2026-04-02"},"SP98":{"p":2.169,"d":"2026-04-02"}},"brand":"Carrefour","h24":true,"services":["Relais colis","Boutique alimentaire","Boutique non alimentaire","Vente de gaz domestique (Butane, Propane)","Automate CB 24/24"]},{"id":62164001,"lat":50.809,"lng":1.612,"addr":"38 route nationale","city":"AMBLETEUSE","cp":"62164","fuels":{"Gazole":{"p":2.199,"d":"2026-04-27"},"SP95":{"p":2.056,"d":"2026-04-27"},"SP98":{"p":2.149,"d":"2026-04-27"}},"h24":true,"services":["Toilettes publiques","Boutique alimentaire","Boutique non alimentaire","Station de gonflage","Piste poids lourds","Services réparation / entretien","Vente de gaz domestique (Butane, Propane)","Vente d'additifs carburants","Automate CB 24/24"]},{"id":62520001,"lat":50.51152,"lng":1.62056,"addr":"Avenue Georges Besse","city":"LE TOUQUET-PARIS-PLAGE","cp":"62520","fuels":{"Gazole":{"p":2.245,"d":"2026-04-15"},"E10":{"p":1.893,"d":"2026-04-22"},"SP98":{"p":2.095,"d":"2026-04-15"}},"brand":"Carrefour","services":["Station de gonflage","Vente de gaz domestique (Butane, Propane)","DAB (Distributeur automatique de billets)"]},{"id":62730002,"lat":50.946,"lng":1.952,"addr":"rue pasteur","city":"MARCK","cp":"62730","fuels":{"Gazole":{"p":2.199,"d":"2026-04-25"},"SP95":{"p":1.999,"d":"2026-04-25"},"SP98":{"p":2.059,"d":"2026-04-25"}},"brand":"Carrefour","services":["Vente de gaz domestique (Butane, Propane)","DAB (Distributeur automatique de billets)"]},{"id":62147005,"lat":50.12418838497,"lng":3.0899769262674,"addr":"AUTOROUTE A2 AIRE DE GRAINCOURT","city":"HAVRINCOURT","cp":"62147","fuels":{"Gazole":{"p":2.255,"d":"2026-04-30"},"E10":{"p":2.066,"d":"2026-04-30"},"SP98":{"p":2.141,"d":"2026-04-30"}},"brand":"Dyneff","services":["Toilettes publiques","Douches","Boutique alimentaire","Boutique non alimentaire","Restauration à emporter","Restauration sur place","Station de gonflage","Carburant additivé","Piste poids lourds","Espace bébé","Wifi"]},{"id":62217003,"lat":50.274,"lng":2.767,"addr":"Rue du 19 Mars 1962","city":"Achicourt","cp":"62217","fuels":{"Gazole":{"p":2.125,"d":"2026-04-27"},"E10":{"p":1.98,"d":"2026-04-27"},"SP98":{"p":2.056,"d":"2026-04-27"}},"brand":"Intermarché","services":["Laverie","Boutique alimentaire","Boutique non alimentaire","Restauration à emporter","Station de gonflage","Location de véhicule","Piste poids lourds","Lavage automatique","Vente de gaz domestique (Butane, Propane)","DAB (Distributeur automatique de billets)"]},{"id":62134001,"lat":50.447,"lng":2.251,"addr":"73 RUE D.HESDIN","city":"ANVIN","cp":"62134","fuels":{"Gazole":{"p":2.209,"d":"2026-04-24"},"SP95":{"p":2.089,"d":"2026-04-24"},"SP98":{"p":2.159,"d":"2026-04-24"}},"brand":"Carrefour","h24":true,"services":["Boutique alimentaire","Restauration à emporter","Vente de pétrole lampant","Vente de gaz domestique (Butane, Propane)","Automate CB 24/24"]},{"id":62400003,"lat":50.54721,"lng":2.66418,"addr":"Rue du 11 Novembre","city":"ESSARS","cp":"62400","fuels":{"Gazole":{"p":2.182,"d":"2026-04-30"},"E10":{"p":1.982,"d":"2026-04-30"},"SP98":{"p":2.154,"d":"2026-04-30"}},"brand":"Carrefour","services":["Vente de gaz domestique (Butane, Propane)","DAB (Distributeur automatique de billets)"]},{"id":62100016,"lat":50.946,"lng":1.893,"addr":"56 Avenue Antoine de Saint-Exupéry","city":"Calais","cp":"62100","fuels":{"Gazole":{"p":2.149,"d":"2026-04-27"},"E85":{"p":0.819,"d":"2026-04-17"},"E10":{"p":1.959,"d":"2026-04-27"},"SP98":{"p":2.089,"d":"2026-04-27"}},"brand":"Intermarché","services":["Station de gonflage","DAB (Distributeur automatique de billets)"]},{"id":62630002,"lat":50.51122,"lng":1.64565,"addr":"4 Route d'Hilbert","city":"ÉTAPLES","cp":"62630","fuels":{"Gazole":{"p":2.258,"d":"2026-04-29"},"SP95":{"p":2.099,"d":"2026-04-29"},"SP98":{"p":1.836,"d":"2026-02-12"}},"brand":"Esso","services":["Station de gonflage","Carburant additivé","Piste poids lourds","Lavage manuel","Vente de gaz domestique (Butane, Propane)"]},{"id":62810001,"lat":50.27889,"lng":2.53606,"addr":"1000 avenue Francois Mitterand","city":"AVESNES-LE-COMTE","cp":"62810","fuels":{"Gazole":{"p":2.289,"d":"2026-04-24"},"SP95":{"p":1.999,"d":"2026-04-24"},"SP98":{"p":2.099,"d":"2026-04-24"}},"brand":"Carrefour","services":["Relais colis","Location de véhicule","Piste poids lourds","Vente de gaz domestique (Butane, Propane)","DAB (Distributeur automatique de billets)"]},{"id":62370001,"lat":50.874,"lng":2.075,"addr":"1000 AVENUE DES ALLIES","city":"AUDRUICQ","cp":"62370","fuels":{"Gazole":{"p":2.21,"d":"2026-04-29"},"SP95":{"p":2.028,"d":"2026-04-29"},"SP98":{"p":2.108,"d":"2026-04-29"}},"h24":true,"services":["Toilettes publiques","Laverie","Relais colis","Station de gonflage","Location de véhicule","Vente de gaz domestique (Butane, Propane)","Bornes électriques","Automate CB 24/24","DAB (Distributeur automatique de billets)"]},{"id":62160001,"lat":50.443,"lng":2.696,"addr":"Impasse de l'Épinette","city":"AIX-NOULETTE","cp":"62160","fuels":{"Gazole":{"p":2.146,"d":"2026-04-24"},"SP95":{"p":2.017,"d":"2026-04-24"},"SP98":{"p":2.097,"d":"2026-04-24"}},"brand":"Carrefour","h24":true,"services":["Laverie","Relais colis","Vente de pétrole lampant","Vente de gaz domestique (Butane, Propane)","Automate CB 24/24"]},{"id":62950001,"lat":50.41371,"lng":2.98088,"addr":"av République","city":"NOYELLES-GODAULT","cp":"62950","fuels":{"Gazole":{"p":2.169,"d":"2026-04-30"},"E85":{"p":0.801,"d":"2026-04-30"},"GPLc":{"p":0.999,"d":"2026-04-30"},"E10":{"p":1.989,"d":"2026-04-30"},"SP98":{"p":2.099,"d":"2026-04-30"}},"brand":"Auchan","h24":true,"services":["Vente de pétrole lampant","Station de gonflage","Vente de gaz domestique (Butane, Propane)","Automate CB 24/24"]},{"id":62700008,"lat":50.477,"lng":2.534,"addr":"864 RUE DE LA REPUBLIQUE - RN 41","city":"Bruay-la-Buissière","cp":"62700","fuels":{"Gazole":{"p":2.09,"d":"2026-05-01"},"E85":{"p":0.842,"d":"2026-05-01"},"GPLc":{"p":1.086,"d":"2026-05-01"},"E10":{"p":1.99,"d":"2026-05-01"},"SP98":{"p":1.99,"d":"2026-05-01"}},"brand":"Total Excellium","h24":true,"services":["Toilettes publiques","Relais colis","Boutique alimentaire","Boutique non alimentaire","Restauration à emporter","Station de gonflage","Carburant additivé","Piste poids lourds","Lavage automatique","Lavage manuel","Vente de gaz domestique (Butane, Propane)","Vente d'additifs carburants","Wifi","Automate CB 24/24"]},{"id":62901001,"lat":50.937,"lng":1.809,"addr":"1001 BOULEVARD DU KENT","city":"COQUELLES","cp":"62231","fuels":{"Gazole":{"p":2.185,"d":"2026-04-30"},"SP95":{"p":2.048,"d":"2026-04-30"},"E85":{"p":0.824,"d":"2026-04-29"},"GPLc":{"p":0.999,"d":"2026-04-10"},"E10":{"p":1.979,"d":"2026-04-29"},"SP98":{"p":2.113,"d":"2026-04-29"}},"brand":"Carrefour","h24":true,"services":["Station de gonflage","Carburant additivé","Aire de camping-cars","Piste poids lourds","Automate CB 24/24"]},{"id":62360001,"lat":50.734,"lng":1.698,"addr":"93 bis AVENUE DE LA FORET","city":"LA CAPELLE-LèS-BOULOGNE","cp":"62360","fuels":{"Gazole":{"p":2.212,"d":"2026-04-23"},"E10":{"p":1.99,"d":"2026-04-23"},"SP98":{"p":1.99,"d":"2026-04-23"}},"brand":"TotalEnergies","h24":true,"services":["Toilettes publiques","Boutique alimentaire","Bar","Station de gonflage","Carburant additivé","Piste poids lourds","Services réparation / entretien","Vente de gaz domestique (Butane, Propane)","Automate CB 24/24"]},{"id":62100006,"lat":50.946,"lng":1.837,"addr":"70 Avenue Roger Salengro","city":"CALAIS","cp":"62100","fuels":{"Gazole":{"p":2.279,"d":"2026-04-27"},"E85":{"p":0.955,"d":"2026-04-16"},"GPLc":{"p":1.059,"d":"2026-04-20"},"E10":{"p":2.099,"d":"2026-04-29"},"SP98":{"p":2.199,"d":"2026-04-27"}},"brand":"Avia","h24":true,"services":["Toilettes publiques","Relais colis","Boutique alimentaire","Boutique non alimentaire","Station de gonflage","Carburant additivé","Piste poids lourds","Services réparation / entretien","Vente de gaz domestique (Butane, Propane)","Automate CB 24/24"]},{"id":62230004,"lat":50.711,"lng":1.601,"addr":"BOULEVARD MONTESQUIEU","city":"OUTREAU","cp":"62230","fuels":{"Gazole":{"p":2.09,"d":"2026-05-01"},"E85":{"p":0.815,"d":"2026-05-01"},"E10":{"p":1.99,"d":"2026-05-01"}},"brand":"TotalEnergies"},{"id":62000016,"lat":50.289,"lng":2.749,"addr":"131 rue Georges Auphelle","city":"Arras","cp":"62000","fuels":{"Gazole":{"p":2.229,"d":"2026-04-29"},"E85":{"p":0.955,"d":"2026-04-29"},"E10":{"p":2.029,"d":"2026-04-29"},"SP98":{"p":2.099,"d":"2026-04-29"}},"brand":"Avia","h24":true,"services":["Carburant additivé","Automate CB 24/24"]},{"id":62120013,"lat":50.717,"lng":2.332,"addr":"2 Rue Principale","city":"CAMPAGNE-LèS-WARDRECQUES","cp":"62120","fuels":{"Gazole":{"p":2.159,"d":"2026-04-29"},"E85":{"p":0.818,"d":"2026-04-16"},"E10":{"p":1.953,"d":"2026-04-30"},"SP98":{"p":2.059,"d":"2026-04-30"}},"brand":"Netto","h24":true,"services":["Laverie","Lavage automatique","Automate CB 24/24","DAB (Distributeur automatique de billets)"]},{"id":62400004,"lat":50.539,"lng":2.631,"addr":"612 Rue d'Aire","city":"Béthune","cp":"62400","fuels":{"Gazole":{"p":2.09,"d":"2026-05-01"},"E85":{"p":0.846,"d":"2026-04-25"},"E10":{"p":1.99,"d":"2026-04-25"}},"brand":"TotalEnergies","h24":true,"services":["Relais colis","Boutique alimentaire","Boutique non alimentaire","Station de gonflage","Carburant additivé","Lavage automatique","Vente de gaz domestique (Butane, Propane)","Vente d'additifs carburants","Automate CB 24/24"]},{"id":62930001,"lat":50.778,"lng":1.617,"addr":"Rue du Bon Air","city":"WIMEREUX","cp":"62930","fuels":{"Gazole":{"p":2.199,"d":"2026-04-30"},"E10":{"p":2.019,"d":"2026-04-30"},"SP98":{"p":2.129,"d":"2026-04-30"}},"brand":"Groupement des Mousquetaires","h24":true,"services":["Piste poids lourds","Vente de gaz domestique (Butane, Propane)","Automate CB 24/24","DAB (Distributeur automatique de billets)"]},{"id":62710002,"lat":50.460877962157994,"lng":2.9609228567724,"addr":"Rue Roger Salengro","city":"Courrières","cp":"62710","fuels":{"Gazole":{"p":2.167,"d":"2026-04-29"},"E10":{"p":1.952,"d":"2026-04-29"},"SP98":{"p":2.056,"d":"2026-04-29"}},"brand":"Netto","h24":true,"services":["Automate CB 24/24"]},{"id":62280003,"lat":50.733,"lng":1.669,"addr":"Route Nationale 42","city":"SAINT-MARTIN-BOULOGNE","cp":"62280","fuels":{"Gazole":{"p":2.149,"d":"2026-04-29"},"E85":{"p":0.769,"d":"2026-04-30"},"GPLc":{"p":1.049,"d":"2026-04-29"},"E10":{"p":1.969,"d":"2026-04-28"},"SP98":{"p":2.09,"d":"2026-04-27"}},"brand":"Auchan","services":["Vente de pétrole lampant","Station de gonflage","Aire de camping-cars","Piste poids lourds","Vente de gaz domestique (Butane, Propane)","DAB (Distributeur automatique de billets)"]},{"id":62200004,"lat":50.74,"lng":1.613,"addr":"Avenue Percier et Fontaine","city":"Boulogne-sur-Mer","cp":"62200","fuels":{"Gazole":{"p":2.152,"d":"2026-04-30"},"E10":{"p":1.982,"d":"2026-04-30"},"SP98":{"p":2.09,"d":"2026-04-30"}},"brand":"Intermarché","services":["Boutique alimentaire","Restauration à emporter","Station de gonflage","Vente de gaz domestique (Butane, Propane)","DAB (Distributeur automatique de billets)"]},{"id":62640003,"lat":50.41909,"lng":2.92884,"addr":"49 avenue F. Mitterrand","city":"Montigny-en-Gohelle","cp":"62640","fuels":{"Gazole":{"p":2.184,"d":"2026-04-29"},"E85":{"p":0.818,"d":"2026-04-29"},"E10":{"p":1.969,"d":"2026-04-29"}},"brand":"Intermarché","services":["Vente de gaz domestique (Butane, Propane)","DAB (Distributeur automatique de billets)"]},{"id":62260003,"lat":50.507,"lng":2.438,"addr":"22 ROUTE NATIONALE","city":"Cauchy-à-la-Tour","cp":"62260","fuels":{"Gazole":{"p":2.25,"d":"2026-04-25"},"E10":{"p":1.99,"d":"2026-04-22"},"SP98":{"p":1.99,"d":"2026-04-09"}},"brand":"TotalEnergies","h24":true,"services":["Boutique alimentaire","Boutique non alimentaire","Automate CB 24/24"]},{"id":62260002,"lat":50.516,"lng":2.476,"addr":"RUE D ALLOUAGNE","city":"AUCHEL","cp":"62260","fuels":{"Gazole":{"p":2.169,"d":"2026-04-30"},"E10":{"p":1.999,"d":"2026-04-30"},"SP98":{"p":2.124,"d":"2026-04-30"}},"brand":"Carrefour","h24":true,"services":["Automate CB 24/24","DAB (Distributeur automatique de billets)"]},{"id":62750002,"lat":50.44606,"lng":2.79736,"addr":"Rue du Grand Mont","city":"Loos-en-Gohelle","cp":"62750","fuels":{"Gazole":{"p":2.176,"d":"2026-04-29"},"E85":{"p":0.818,"d":"2026-04-22"},"E10":{"p":1.961,"d":"2026-04-29"},"SP98":{"p":2.065,"d":"2026-04-29"}},"brand":"Intermarché","services":["Laverie","Restauration à emporter","Station de gonflage","Location de véhicule","Lavage manuel","Vente de gaz domestique (Butane, Propane)","DAB (Distributeur automatique de billets)"]},{"id":62250007,"lat":50.8242,"lng":1.71061,"addr":"Chemin des poissonniers","city":"Marquise","cp":"62250","fuels":{"Gazole":{"p":2.149,"d":"2026-04-29"},"SP95":{"p":2.099,"d":"2026-04-29"},"E85":{"p":0.819,"d":"2026-04-16"},"E10":{"p":1.999,"d":"2026-04-29"}},"brand":"Intermarché","services":["Vente de gaz domestique (Butane, Propane)","DAB (Distributeur automatique de billets)"]},{"id":62920001,"lat":50.544,"lng":2.541,"addr":"14 Rue Nationale","city":"CHOCQUES","cp":"62920","fuels":{"Gazole":{"p":2.09,"d":"2026-05-01"},"E10":{"p":1.99,"d":"2026-04-24"},"SP98":{"p":1.99,"d":"2026-04-24"}},"brand":"TotalEnergies","h24":true,"services":["Boutique alimentaire","Boutique non alimentaire","Station de gonflage","Carburant additivé","Piste poids lourds","Lavage automatique","Lavage manuel","Services réparation / entretien","Vente de gaz domestique (Butane, Propane)","Automate CB 24/24","DAB (Distributeur automatique de billets)"]},{"id":62881001,"lat":50.462,"lng":2.827,"addr":"Route de La Bassée","city":"Vendin-le-Vieil","cp":"62880","fuels":{"Gazole":{"p":2.149,"d":"2026-04-30"},"E85":{"p":0.818,"d":"2026-04-24"},"GPLc":{"p":1.082,"d":"2026-04-24"},"E10":{"p":2,"d":"2026-04-29"}},"brand":"Carrefour","h24":true,"services":["Station de gonflage","Piste poids lourds","Vente de gaz domestique (Butane, Propane)","Vente d'additifs carburants","Automate CB 24/24"]},{"id":62110003,"lat":50.41839,"lng":2.94714,"addr":"115 RUE PASTEUR","city":"Hénin-Beaumont","cp":"62110","fuels":{"Gazole":{"p":2.09,"d":"2026-05-01"},"E10":{"p":1.99,"d":"2026-05-01"}},"brand":"TotalEnergies","services":["Toilettes publiques","Boutique alimentaire","Station de gonflage","Carburant additivé","Lavage automatique","Services réparation / entretien","Vente de gaz domestique (Butane, Propane)"]},{"id":62217007,"lat":50.282,"lng":2.807,"addr":"ROUTE DE CAMBRAI","city":"Tilloy-lès-Mofflaines","cp":"62217","fuels":{"Gazole":{"p":2.09,"d":"2026-05-01"},"E10":{"p":1.99,"d":"2026-05-01"},"SP98":{"p":1.99,"d":"2026-05-01"}},"brand":"TotalEnergies","h24":true,"services":["Relais colis","Boutique alimentaire","Boutique non alimentaire","Restauration à emporter","Station de gonflage","Carburant additivé","Piste poids lourds","Vente de gaz domestique (Butane, Propane)","Wifi","Automate CB 24/24"]},{"id":62300012,"lat":50.435,"lng":2.841,"addr":"118 RUE RENE LANOY","city":"LENS","cp":"62300","fuels":{"Gazole":{"p":2.09,"d":"2026-05-01"},"E85":{"p":0.849,"d":"2026-05-01"},"E10":{"p":1.99,"d":"2026-05-01"},"SP98":{"p":1.99,"d":"2026-05-01"}},"brand":"TotalEnergies","services":["Toilettes publiques","Boutique alimentaire","Boutique non alimentaire","Station de gonflage","Carburant additivé","Lavage automatique","Vente de gaz domestique (Butane, Propane)","DAB (Distributeur automatique de billets)"]},{"id":62280001,"lat":50.70586,"lng":1.61382,"addr":"Route de Paris","city":"SAINT-MARTIN-BOULOGNE","cp":"62280","fuels":{"Gazole":{"p":2.18,"d":"2026-04-24"},"E10":{"p":1.979,"d":"2026-04-29"},"SP98":{"p":2.09,"d":"2026-04-24"}},"brand":"Carrefour","h24":true,"services":["Toilettes publiques","Boutique alimentaire","Station de gonflage","Vente de gaz domestique (Butane, Propane)","Automate CB 24/24","DAB (Distributeur automatique de billets)"]},{"id":62640002,"lat":50.419614010035005,"lng":2.9270741940336,"addr":"PONT DU TONKIN","city":"Montigny-en-Gohelle","cp":"62640","fuels":{"Gazole":{"p":2.09,"d":"2026-05-01"},"E85":{"p":0.95,"d":"2026-04-27"},"E10":{"p":1.99,"d":"2026-04-27"},"SP98":{"p":1.99,"d":"2026-03-10"}},"brand":"TotalEnergies","services":["Boutique alimentaire","Boutique non alimentaire","Vente de fioul domestique","Station de gonflage","Carburant additivé","Piste poids lourds","Services réparation / entretien"]},{"id":62230003,"lat":50.70189850960001,"lng":1.6083952491499998,"addr":"Boulevard Industriel","city":"OUTREAU","cp":"62230","fuels":{"Gazole":{"p":2.157,"d":"2026-04-30"},"SP95":{"p":2.017,"d":"2026-04-30"},"E85":{"p":0.709,"d":"2026-04-29"},"GPLc":{"p":1.09,"d":"2026-04-18"},"E10":{"p":1.987,"d":"2026-04-30"}},"brand":"Leclerc","services":["Boutique alimentaire","Boutique non alimentaire","Vente de pétrole lampant","Station de gonflage","Piste poids lourds","Vente de gaz domestique (Butane, Propane)","DAB (Distributeur automatique de billets)"]},{"id":62990001,"lat":50.425,"lng":1.901,"addr":"rue du 21 mai 1940","city":"BEAURAINVILLE","cp":"62990","fuels":{"Gazole":{"p":2.224,"d":"2026-04-30"},"SP95":{"p":2.061,"d":"2026-04-30"},"E85":{"p":0.899,"d":"2026-04-30"},"E10":{"p":1.999,"d":"2026-04-30"}},"brand":"Carrefour","h24":true,"services":["Laverie","Vente de gaz domestique (Butane, Propane)","Automate CB 24/24"]},{"id":62152003,"lat":50.621,"lng":1.643,"addr":"59 rue des allées","city":"Neufchâtel-Hardelot","cp":"62152","fuels":{"Gazole":{"p":2.09,"d":"2026-04-30"}},"brand":"TotalEnergies","h24":true,"services":["Toilettes publiques","Boutique non alimentaire","Station de gonflage","Carburant additivé","Services réparation / entretien","Vente d'additifs carburants","Automate CB 24/24"]},{"id":62300018,"lat":50.425389,"lng":2.824075,"addr":"53 ROUTE D'ARRAS","city":"LENS","cp":"62300","fuels":{"Gazole":{"p":2.22,"d":"2026-04-30"},"E10":{"p":1.989,"d":"2026-04-30"},"SP98":{"p":2.069,"d":"2026-04-30"}},"brand":"Auchan","h24":true,"services":["Automate CB 24/24"]},{"id":62170003,"lat":50.483,"lng":1.758,"addr":"Route Nationale","city":"ATTIN","cp":"62170","fuels":{"Gazole":{"p":2.149,"d":"2026-04-30"},"SP95":{"p":2.016,"d":"2026-04-30"},"E85":{"p":0.821,"d":"2026-04-30"},"E10":{"p":1.992,"d":"2026-04-30"}},"brand":"Leclerc","services":["Relais colis","Boutique alimentaire","Boutique non alimentaire","Vente de pétrole lampant","Location de véhicule","Piste poids lourds","Vente de gaz domestique (Butane, Propane)","DAB (Distributeur automatique de billets)"]},{"id":62217001,"lat":50.266,"lng":2.799,"addr":"rue Bleuets","city":"BEAURAINS","cp":"62217","fuels":{"Gazole":{"p":2.18,"d":"2026-04-30"},"E10":{"p":2.018,"d":"2026-04-30"},"SP98":{"p":2.133,"d":"2026-04-30"}},"brand":"Carrefour","h24":true,"services":["Toilettes publiques","Laverie","Vente de pétrole lampant","Station de gonflage","Lavage automatique","Vente de gaz domestique (Butane, Propane)","Bornes électriques","Wifi","Automate CB 24/24","DAB (Distributeur automatique de billets)"]},{"id":62710001,"lat":50.447,"lng":2.944,"addr":"Rue Raoul Briquet","city":"Courrières","cp":"62710","fuels":{"Gazole":{"p":2.169,"d":"2026-04-28"},"E85":{"p":0.801,"d":"2026-04-22"},"GPLc":{"p":0.999,"d":"2026-04-22"},"E10":{"p":1.989,"d":"2026-04-30"},"SP98":{"p":2.113,"d":"2026-04-30"}},"brand":"Carrefour","h24":true,"services":["Station de gonflage","Carburant additivé","Piste poids lourds","Lavage automatique","Vente de gaz domestique (Butane, Propane)","Automate CB 24/24"]},{"id":62400002,"lat":50.525,"lng":2.65,"addr":"655 Rue de Lille","city":"Béthune","cp":"62400","fuels":{"Gazole":{"p":2.19,"d":"2026-04-23"},"E85":{"p":0.819,"d":"2026-04-23"},"E10":{"p":1.959,"d":"2026-04-23"},"SP98":{"p":2.079,"d":"2026-04-23"}},"brand":"Carrefour","services":["Laverie","Relais colis","Station de gonflage","Vente de gaz domestique (Butane, Propane)","Bornes électriques","Vente d'additifs carburants"]},{"id":62250010,"lat":50.785,"lng":1.694,"addr":"AUTOROUTE A16 - AIRE DE L'EPITRE","city":"BEUVREQUEN","cp":"62250","fuels":{"Gazole":{"p":2.09,"d":"2026-05-01"},"E85":{"p":0.811,"d":"2026-05-01"},"E10":{"p":1.99,"d":"2026-05-01"},"SP98":{"p":1.99,"d":"2026-05-01"}},"brand":"TotalEnergies"},{"id":62240004,"lat":50.669,"lng":1.824,"addr":"ROUTE DE BOULOGNE","city":"Desvres","cp":"62240","fuels":{"Gazole":{"p":2.195,"d":"2026-04-30"},"SP95":{"p":1.955,"d":"2026-04-30"},"SP98":{"p":2.12,"d":"2026-04-30"}},"brand":"Carrefour","services":["Vente de pétrole lampant","Vente de gaz domestique (Butane, Propane)"]},{"id":62350002,"lat":50.62,"lng":2.542,"addr":"Rue de Busnes","city":"Saint-Venant","cp":"62350","fuels":{"Gazole":{"p":2.179,"d":"2026-04-27"},"SP95":{"p":2.029,"d":"2026-04-15"},"SP98":{"p":2.107,"d":"2026-04-15"}},"brand":"Carrefour","h24":true,"services":["Laverie","Relais colis","Automate CB 24/24"]},{"id":62180004,"lat":50.401548,"lng":1.65032437,"addr":"LES ALLEES","city":"VERTON","cp":"62180","fuels":{"Gazole":{"p":2.499,"d":"2026-04-04"},"E85":{"p":0.86,"d":"2026-04-30"},"E10":{"p":1.999,"d":"2026-04-30"},"SP98":{"p":2.135,"d":"2026-04-30"}},"brand":"Carrefour"},{"id":62200005,"lat":50.719,"lng":1.609,"addr":"2 BOULEVARD DAUNOU","city":"Boulogne-sur-Mer","cp":"62200","fuels":{"Gazole":{"p":2.09,"d":"2026-05-01"},"E85":{"p":0.823,"d":"2026-05-01"}},"brand":"TotalEnergies","h24":true,"services":["Relais colis","Boutique alimentaire","Boutique non alimentaire","Station de gonflage","Lavage automatique","Vente de gaz domestique (Butane, Propane)","Vente d'additifs carburants","Automate CB 24/24"]},{"id":62250009,"lat":50.84,"lng":1.774,"addr":"RUE JEAN MONNET","city":"Landrethun-le-Nord","cp":"62250","fuels":{"Gazole":{"p":2.265,"d":"2026-04-30"},"SP95":{"p":2.11,"d":"2026-04-30"},"SP98":{"p":2.194,"d":"2026-04-30"}},"brand":"Carrefour","services":["Relais colis","Boutique alimentaire","Boutique non alimentaire","Restauration à emporter","Piste poids lourds","Vente de gaz domestique (Butane, Propane)"]},{"id":62100014,"lat":50.958,"lng":1.88,"addr":"331 Grande Rue du Petit Courgain","city":"Calais","cp":"62100","fuels":{"Gazole":{"p":2.25,"d":"2026-04-28"},"E10":{"p":2.06,"d":"2026-04-14"},"SP98":{"p":2.18,"d":"2026-04-28"}},"brand":"Ets Caron","services":["Toilettes publiques","Vente de fioul domestique","Vente de pétrole lampant","Vente de gaz domestique (Butane, Propane)"]},{"id":62450003,"lat":50.099,"lng":2.855,"addr":"Rue du Faubourg de Péronne","city":"Bapaume","cp":"62450","fuels":{"Gazole":{"p":2.207,"d":"2026-04-30"},"E85":{"p":0.818,"d":"2026-04-24"},"E10":{"p":1.989,"d":"2026-04-30"},"SP98":{"p":2.099,"d":"2026-04-30"}},"brand":"Intermarché","h24":true,"services":["Relais colis","Boutique alimentaire","Location de véhicule","Lavage automatique","Vente de gaz domestique (Butane, Propane)","Bornes électriques","Automate CB 24/24"]},{"id":62660003,"lat":50.513,"lng":2.689,"addr":"ZONE DU MOULIN RUE ARTHUR LAMENDIN","city":"BEUVRY","cp":"62660","fuels":{"Gazole":{"p":2.165,"d":"2026-04-30"},"E85":{"p":0.757,"d":"2026-04-24"},"E10":{"p":1.999,"d":"2026-04-30"},"SP98":{"p":2.04,"d":"2026-04-30"}},"brand":"Leclerc","h24":true,"services":["Vente de pétrole lampant","Automate CB 24/24"]},{"id":62630006,"lat":50.507,"lng":1.68,"addr":"Autoroute A16 péage le touquet","city":"Étaples","cp":"62630","fuels":{"Gazole":{"p":2.605,"d":"2026-05-01"},"SP98":{"p":2.65,"d":"2026-05-01"}},"brand":"Shell","h24":true,"services":["Automate CB 24/24"]},{"id":62130002,"lat":50.381,"lng":2.342,"addr":"Rue d'Arras","city":"Saint-Michel-sur-Ternoise","cp":"62130","fuels":{"Gazole":{"p":2.219,"d":"2026-04-29"},"E10":{"p":2.005,"d":"2026-04-29"},"SP98":{"p":2.085,"d":"2026-04-29"}},"brand":"Esso"},{"id":62120014,"lat":50.573,"lng":2.377,"addr":"Aire de Rely - Autoroute A26 - Sens Calais - Reims","city":"Rely","cp":"62120","fuels":{"Gazole":{"p":2.294,"d":"2026-04-30"},"GPLc":{"p":1.06,"d":"2026-04-30"},"E10":{"p":2.088,"d":"2026-04-30"},"SP98":{"p":2.188,"d":"2026-04-30"}},"brand":"Shell","services":["Toilettes publiques","Laverie","Boutique alimentaire","Boutique non alimentaire","Restauration à emporter","Restauration sur place","Station de gonflage","Carburant additivé","Piste poids lourds","Espace bébé","DAB (Distributeur automatique de billets)"]},{"id":62128010,"lat":50.261,"lng":2.864,"addr":"Autoroute A1 - Aire de Wancourt","city":"WANCOURT","cp":"62128","fuels":{"Gazole":{"p":2.201,"d":"2026-05-01"},"GPLc":{"p":1.206,"d":"2026-05-01"},"E10":{"p":2.046,"d":"2026-05-01"},"SP98":{"p":2.124,"d":"2026-05-01"}},"brand":"BP","h24":true,"services":["Toilettes publiques","Douches","Boutique alimentaire","Boutique non alimentaire","Restauration à emporter","Station de gonflage","Carburant additivé","Piste poids lourds","Espace bébé","Bornes électriques","Wifi","Automate CB 24/24"]},{"id":62240003,"lat":50.669,"lng":1.823,"addr":"RN 341 ROUTE DE BOULOGNE","city":"Longfossé","cp":"62240","fuels":{"Gazole":{"p":2.198,"d":"2026-04-27"},"E10":{"p":1.998,"d":"2026-04-27"},"SP98":{"p":2.108,"d":"2026-04-27"}},"brand":"Esso"},{"id":62160003,"lat":50.448,"lng":2.738,"addr":"22 Rue François Beaucamp","city":"Grenay","cp":"62160","fuels":{"Gazole":{"p":2.198,"d":"2026-04-30"},"E10":{"p":1.988,"d":"2026-04-30"},"SP98":{"p":2.108,"d":"2026-04-30"}},"brand":"Esso"},{"id":62290003,"lat":50.484,"lng":2.659,"addr":"47 Rue Nationale","city":"NOEUX-LES-MINES","cp":"62290","fuels":{"Gazole":{"p":2.29,"d":"2026-04-21"},"E10":{"p":2,"d":"2026-04-21"},"SP98":{"p":2.13,"d":"2026-04-30"}},"brand":"Esso","services":["Relais colis","Boutique non alimentaire","Station de gonflage","Carburant additivé"]},{"id":62600005,"lat":50.40858,"lng":1.59383,"addr":"481 RUE IMPERATRICE","city":"Berck","cp":"62600","fuels":{"Gazole":{"p":2.09,"d":"2026-05-01"},"E10":{"p":1.99,"d":"2026-05-01"}},"brand":"Total Contact"},{"id":62500003,"lat":50.744,"lng":2.26,"addr":"109 Rue d'Arras","city":"Saint-Omer","cp":"62500","fuels":{"Gazole":{"p":2.184,"d":"2026-05-01"},"E85":{"p":0.888,"d":"2026-05-01"},"E10":{"p":1.99,"d":"2026-05-01"},"SP98":{"p":2.07,"d":"2026-05-01"}},"brand":"Esso"},{"id":62740001,"lat":50.424,"lng":2.918,"addr":"CD 46","city":"Fouquières-lès-Lens","cp":"62740","fuels":{"Gazole":{"p":2.204,"d":"2026-04-30"},"E85":{"p":0.909,"d":"2026-04-30"},"E10":{"p":1.989,"d":"2026-04-30"},"SP98":{"p":2.069,"d":"2026-04-30"}},"brand":"TotalEnergies"},{"id":62860007,"lat":50.225,"lng":3.069,"addr":"AIRE DE BARALLE AUTOROUTE A 26","city":"MARQUION","cp":"62860","fuels":{"Gazole":{"p":2.234,"d":"2026-04-28"},"E10":{"p":2.045,"d":"2026-04-28"},"SP98":{"p":2.12,"d":"2026-04-28"}},"brand":"BP","h24":true,"services":["Toilettes publiques","Douches","Boutique alimentaire","Boutique non alimentaire","Restauration à emporter","Restauration sur place","Bar","Station de gonflage","Carburant additivé","Piste poids lourds","Espace bébé","Bornes électriques","Wifi","Automate CB 24/24"]},{"id":62870002,"lat":50.401,"lng":1.88,"addr":"Rue Daniel Ranger","city":"CAMPAGNE-LèS-HESDIN","cp":"62870","fuels":{"Gazole":{"p":2.195,"d":"2026-04-20"},"SP95":{"p":1.999,"d":"2026-04-20"},"SP98":{"p":2.071,"d":"2026-04-20"}},"brand":"Carrefour","h24":true,"services":["Boutique alimentaire","Vente de gaz domestique (Butane, Propane)","Automate CB 24/24","DAB (Distributeur automatique de billets)"]},{"id":62127001,"lat":50.356,"lng":2.48,"addr":"22, route Nationale","city":"TINCQUES","cp":"62127","fuels":{"Gazole":{"p":2.245,"d":"2026-04-29"},"E85":{"p":2.16,"d":"2026-04-29"},"E10":{"p":2.02,"d":"2026-04-29"},"SP98":{"p":2.148,"d":"2026-04-09"}},"brand":"Esso","h24":true,"services":["Douches","Laverie","Relais colis","Restauration à emporter","Restauration sur place","Bar","Piste poids lourds","Vente de gaz domestique (Butane, Propane)","Vente d'additifs carburants","Wifi","Automate CB 24/24"]},{"id":62300014,"lat":50.427,"lng":2.819,"addr":"44 ROUTE D ARRAS","city":"LENS","cp":"62300","fuels":{"Gazole":{"p":2.09,"d":"2026-05-01"},"E85":{"p":0.834,"d":"2026-05-01"},"GPLc":{"p":1.019,"d":"2026-05-01"},"E10":{"p":1.99,"d":"2026-05-01"}},"brand":"TotalEnergies","services":["Relais colis","Boutique alimentaire","Boutique non alimentaire","Station de gonflage","Lavage automatique","Vente d'additifs carburants","Wifi"]},{"id":62250001,"lat":50.809,"lng":1.696,"addr":"Avenue Ferber","city":"MARQUISE","cp":"62250","fuels":{"Gazole":{"p":2.185,"d":"2026-04-28"},"SP95":{"p":1.999,"d":"2026-04-28"},"SP98":{"p":2.05,"d":"2026-04-28"}},"brand":"Carrefour","services":["Relais colis","Boutique alimentaire","Boutique non alimentaire","Restauration à emporter","Station de gonflage","Vente de gaz domestique (Butane, Propane)"]},{"id":62310001,"lat":50.512,"lng":2.134,"addr":"ROUTE DE HESDIN","city":"FRUGES","cp":"62310","fuels":{"Gazole":{"p":2.183,"d":"2026-04-30"},"E85":{"p":0.759,"d":"2026-04-30"},"E10":{"p":1.969,"d":"2026-04-30"},"SP98":{"p":2.141,"d":"2026-04-30"}},"brand":"Carrefour","services":["DAB (Distributeur automatique de billets)"]},{"id":62215006,"lat":50.979,"lng":2.042,"addr":"PLACE DE GENERAL DE GAULLE","city":"Oye-Plage","cp":"62215","fuels":{"Gazole":{"p":2.239,"d":"2026-04-17"},"SP95":{"p":1.999,"d":"2026-04-17"},"SP98":{"p":2.109,"d":"2026-04-17"}},"brand":"Carrefour","h24":true,"services":["Relais colis","Boutique alimentaire","Restauration à emporter","Lavage automatique","Automate CB 24/24"]},{"id":62130004,"lat":50.364,"lng":2.331,"addr":"350 route de Saint Pol","city":"Herlin-le-Sec","cp":"62130","fuels":{"Gazole":{"p":2.189,"d":"2026-04-30"},"E85":{"p":0.808,"d":"2026-04-30"},"GPLc":{"p":1.03,"d":"2026-04-30"},"E10":{"p":1.996,"d":"2026-04-30"},"SP98":{"p":2.079,"d":"2026-04-30"}},"brand":"Leclerc","h24":true,"services":["Boutique alimentaire","Restauration à emporter","Restauration sur place","Location de véhicule","Piste poids lourds","Vente de gaz domestique (Butane, Propane)","Vente d'additifs carburants","Automate CB 24/24","DAB (Distributeur automatique de billets)"]},{"id":62770001,"lat":50.401,"lng":2.101,"addr":"RUE WATTINNE BOSSUT","city":"AUCHY-LèS-HESDIN","cp":"62770","fuels":{"Gazole":{"p":2.189,"d":"2026-04-24"},"SP95":{"p":2.049,"d":"2026-04-24"},"SP98":{"p":2.09,"d":"2026-04-24"}},"brand":"Carrefour","services":["Boutique alimentaire","Restauration à emporter","Vente de pétrole lampant","Vente de gaz domestique (Butane, Propane)"]},{"id":62480001,"lat":50.71,"lng":1.577,"addr":"Impasse Stein","city":"LE PORTEL","cp":"62480","fuels":{"Gazole":{"p":2.29,"d":"2026-04-17"},"E10":{"p":1.969,"d":"2026-04-28"},"SP98":{"p":2.119,"d":"2026-04-17"}},"brand":"Intermarché","services":["Vente de gaz domestique (Butane, Propane)","DAB (Distributeur automatique de billets)"]},{"id":62156002,"lat":50.2461085,"lng":2.9415206,"addr":"2 rue de Cherisy","city":"Vis en Artois","cp":"62156","fuels":{"Gazole":{"p":2.239,"d":"2026-04-30"},"SP95":{"p":2.069,"d":"2026-04-30"},"SP98":{"p":2.189,"d":"2026-04-30"}},"brand":"Carrefour","h24":true,"services":["Automate CB 24/24"]},{"id":62810002,"lat":50.278,"lng":2.533,"addr":"149 Grand Rue","city":"Avesnes-le-Comte","cp":"62810","fuels":{"Gazole":{"p":2.09,"d":"2026-05-01"},"E10":{"p":1.99,"d":"2026-04-08"},"SP98":{"p":1.99,"d":"2026-04-22"}},"h24":true,"services":["Boutique alimentaire","Station de gonflage","Carburant additivé","Vente de gaz domestique (Butane, Propane)","Bornes électriques","Automate CB 24/24"]},{"id":62012001,"lat":50.301,"lng":2.736,"addr":"6 rue Claude Bernard","city":"ARRAS","cp":"62000","fuels":{"Gazole":{"p":2.2,"d":"2026-04-30"},"E85":{"p":0.841,"d":"2026-04-29"},"GPLc":{"p":1.05,"d":"2026-04-15"},"E10":{"p":1.99,"d":"2026-04-30"},"SP98":{"p":2.064,"d":"2026-04-30"}},"brand":"Auchan","h24":true,"services":["Station de gonflage","Piste poids lourds","Vente de gaz domestique (Butane, Propane)","Automate CB 24/24"]},{"id":62270002,"lat":50.27748,"lng":2.29229,"addr":"5,RUE JULES FERRY","city":"FRéVENT","cp":"62270","fuels":{"Gazole":{"p":2.329,"d":"2026-04-30"},"SP95":{"p":2.099,"d":"2026-04-30"},"SP98":{"p":2.189,"d":"2026-04-30"}},"brand":"Carrefour","services":["Vente de gaz domestique (Butane, Propane)","DAB (Distributeur automatique de billets)"]},{"id":62290001,"lat":50.47753377,"lng":2.6781464899999996,"addr":"Rue de Mazingarbe","city":"NOEUX-LES-MINES","cp":"62290","fuels":{"Gazole":{"p":2.142,"d":"2026-04-30"},"E85":{"p":0.809,"d":"2026-04-27"},"E10":{"p":1.988,"d":"2026-04-30"},"SP98":{"p":2.055,"d":"2026-04-30"}},"brand":"Leclerc","services":["Boutique alimentaire","Boutique non alimentaire","Vente de gaz domestique (Butane, Propane)"]},{"id":62129002,"lat":50.631881500000006,"lng":2.2654255,"addr":"24 CHAUSSEE BRUNEHAUT","city":"Thérouanne","cp":"62129","fuels":{"Gazole":{"p":2.169,"d":"2026-04-30"},"E85":{"p":0.849,"d":"2026-04-30"},"E10":{"p":1.979,"d":"2026-04-30"},"SP98":{"p":2.109,"d":"2026-04-30"}},"brand":"Carrefour","h24":true,"services":["Automate CB 24/24"]},{"id":62690001,"lat":50.35,"lng":2.582,"addr":"50 rue GEORGES LAMIOT","city":"AUBIGNY-EN-ARTOIS","cp":"62690","fuels":{"Gazole":{"p":2.186,"d":"2026-04-30"},"SP95":{"p":2.06,"d":"2026-04-30"},"E85":{"p":0.839,"d":"2026-04-30"},"SP98":{"p":2.141,"d":"2026-04-30"}},"brand":"Carrefour","h24":true,"services":["Laverie","Relais colis","Location de véhicule","Vente de gaz domestique (Butane, Propane)","Wifi","Automate CB 24/24","DAB (Distributeur automatique de billets)"]},{"id":62150002,"lat":50.454,"lng":2.532,"addr":"68 RUE DE LA GARE","city":"HOUDAIN","cp":"62150","fuels":{"Gazole":{"p":2.15,"d":"2026-04-29"},"E10":{"p":1.979,"d":"2026-04-29"},"SP98":{"p":2.099,"d":"2026-04-29"}},"brand":"Carrefour","h24":true,"services":["Relais colis","Boutique alimentaire","Restauration à emporter","Station de gonflage","Piste poids lourds","Vente de gaz domestique (Butane, Propane)","Automate CB 24/24"]},{"id":62101001,"lat":50.95,"lng":1.893,"addr":"Avenue Georges Guynemer","city":"CALAIS","cp":"62100","fuels":{"Gazole":{"p":2.159,"d":"2026-04-30"},"SP95":{"p":2.019,"d":"2026-04-30"},"E85":{"p":0.829,"d":"2026-04-30"},"GPLc":{"p":0.999,"d":"2026-04-10"},"E10":{"p":1.959,"d":"2026-04-25"},"SP98":{"p":2.069,"d":"2026-04-30"}},"brand":"Carrefour","h24":true,"services":["Piste poids lourds","Vente de gaz domestique (Butane, Propane)","Automate CB 24/24"]},{"id":62152001,"lat":50.63,"lng":1.646,"addr":"ROUTE DE BOULOGNE","city":"NESLES","cp":"62152","fuels":{"Gazole":{"p":2.18,"d":"2026-04-30"},"SP95":{"p":2.05,"d":"2026-04-30"},"SP98":{"p":2.15,"d":"2026-04-30"}},"brand":"Carrefour","h24":true,"services":["Toilettes publiques","Relais colis","Location de véhicule","Vente de gaz domestique (Butane, Propane)","Automate CB 24/24","DAB (Distributeur automatique de billets)"]},{"id":62100024,"lat":50.95575,"lng":1.90807,"addr":"RUE MARCEL DASSAULT","city":"CALAIS","cp":"62100","fuels":{"Gazole":{"p":2.09,"d":"2026-05-01"},"E85":{"p":0.831,"d":"2026-05-01"},"GPLc":{"p":1.013,"d":"2026-05-01"},"E10":{"p":1.99,"d":"2026-05-01"},"SP98":{"p":1.99,"d":"2026-05-01"}},"brand":"TotalEnergies","services":["Toilettes publiques","Douches","Boutique alimentaire","Boutique non alimentaire","Restauration à emporter","Restauration sur place","Station de gonflage","Carburant additivé","Aire de camping-cars","Piste poids lourds","Lavage automatique","Espace bébé"]},{"id":62143003,"lat":50.405,"lng":2.745,"addr":"Autoroute A26 - Aire d'Angres","city":"Angres","cp":"62143","fuels":{"Gazole":{"p":2.241,"d":"2026-05-01"},"E10":{"p":2.09,"d":"2026-05-01"}},"h24":true,"services":["Toilettes publiques","Douches","Boutique alimentaire","Boutique non alimentaire","Restauration à emporter","Restauration sur place","Station de gonflage","Carburant additivé","Piste poids lourds","Espace bébé","Bornes électriques","Wifi","Automate CB 24/24"]},{"id":62100012,"lat":50.947,"lng":1.91,"addr":"361 Avenue Antoine de Saint-Exupéry","city":"Calais","cp":"62100","fuels":{"Gazole":{"p":2.299,"d":"2026-04-30"},"E10":{"p":2.099,"d":"2026-04-30"},"SP98":{"p":2.219,"d":"2026-04-30"}},"brand":"Esso","h24":true,"services":["Boutique alimentaire","Piste poids lourds","Automate CB 24/24"]},{"id":62300006,"lat":50.427,"lng":2.806,"addr":"162 Avenue Alfred Maes","city":"Lens","cp":"62300","fuels":{"Gazole":{"p":2.283,"d":"2026-04-29"},"E10":{"p":1.99,"d":"2026-04-29"},"SP98":{"p":2.07,"d":"2026-04-29"}},"brand":"Esso"},{"id":62100001,"lat":50.943,"lng":1.81,"addr":"AVENUE ROGER SALENGRO","city":"Calais","cp":"62100","fuels":{"Gazole":{"p":2.217,"d":"2026-04-30"},"GPLc":{"p":0.999,"d":"2026-04-27"},"E10":{"p":1.979,"d":"2026-04-30"},"SP98":{"p":2.113,"d":"2026-04-30"}},"brand":"Auchan","h24":true,"services":["Vente de pétrole lampant","Station de gonflage","Carburant additivé","Aire de camping-cars","Piste poids lourds","Vente de gaz domestique (Butane, Propane)","Automate CB 24/24","DAB (Distributeur automatique de billets)"]},{"id":62660001,"lat":50.517,"lng":2.683,"addr":"ROUTE DE LILLE","city":"BEUVRY","cp":"62660","fuels":{"Gazole":{"p":2.209,"d":"2026-04-28"},"E85":{"p":0.829,"d":"2026-03-20"},"E10":{"p":1.994,"d":"2026-04-28"},"SP98":{"p":2.134,"d":"2026-04-28"}},"brand":"Carrefour","services":["Relais colis","Location de véhicule"]},{"id":62360004,"lat":50.67,"lng":1.633,"addr":"Rue Edmond Mandaré","city":"SAINT-ÉTIENNE-AU-MONT","cp":"62360","fuels":{"Gazole":{"p":2.167,"d":"2026-04-28"},"E10":{"p":1.968,"d":"2026-04-28"},"SP98":{"p":2.079,"d":"2026-04-28"}},"brand":"Intermarché","services":["Toilettes publiques","Restauration à emporter","Location de véhicule","Lavage automatique","Lavage manuel","Vente de gaz domestique (Butane, Propane)","DAB (Distributeur automatique de billets)"]},{"id":62700001,"lat":50.494,"lng":2.572,"addr":"1115 avenue de la liberation","city":"BRUAY-LA-BUISSIèRE","cp":"62700","fuels":{"Gazole":{"p":2.169,"d":"2026-04-30"},"E85":{"p":0.82,"d":"2026-04-16"},"GPLc":{"p":0.985,"d":"2026-04-30"},"E10":{"p":1.989,"d":"2026-04-30"},"SP98":{"p":2.098,"d":"2026-04-30"}},"brand":"Carrefour","h24":true,"services":["Toilettes publiques","Relais colis","Restauration à emporter","Restauration sur place","Vente de fioul domestique","Station de gonflage","Carburant additivé","Piste poids lourds","Lavage manuel","Vente de gaz domestique (Butane, Propane)","Vente d'additifs carburants","Wifi","Automate CB 24/24","DAB (Distributeur automatique de billets)"]},{"id":62790001,"lat":50.437,"lng":3.057,"addr":"AVENUE MITTERRAND","city":"LEFOREST","cp":"62790","fuels":{"Gazole":{"p":2.198,"d":"2026-04-27"},"SP95":{"p":2.055,"d":"2026-04-27"},"SP98":{"p":2.143,"d":"2026-04-27"}},"brand":"Carrefour","services":["Piste poids lourds","Vente de gaz domestique (Butane, Propane)"]},{"id":62600003,"lat":50.407,"lng":1.571,"addr":"41 Rue Soubitez","city":"BERCK","cp":"62600","fuels":{"Gazole":{"p":2.147,"d":"2026-04-24"},"SP95":{"p":2.038,"d":"2026-04-24"},"SP98":{"p":2.116,"d":"2026-04-24"}},"brand":"Carrefour","h24":true,"services":["Piste poids lourds","Vente de gaz domestique (Butane, Propane)","Automate CB 24/24","DAB (Distributeur automatique de billets)"]},{"id":62510002,"lat":50.736,"lng":2.28,"addr":"Avenue Georges Brassens","city":"ARQUES","cp":"62510","fuels":{"Gazole":{"p":2.15,"d":"2026-04-30"}},"brand":"Carrefour","services":["Relais colis","Boutique alimentaire","Boutique non alimentaire","DAB (Distributeur automatique de billets)"]},{"id":62560003,"lat":50.598,"lng":2.096,"addr":"500 AVENUE ROLAND HUGUET","city":"Fauquembergues","cp":"62560","fuels":{"Gazole":{"p":2.169,"d":"2026-04-30"},"E10":{"p":1.929,"d":"2026-04-30"},"SP98":{"p":1.999,"d":"2026-04-30"}},"brand":"Carrefour","h24":true,"services":["Automate CB 24/24"]},{"id":62550002,"lat":50.485,"lng":2.414,"addr":"245 AVENUE KENNEDY","city":"PERNES","cp":"62550","fuels":{"Gazole":{"p":2.249,"d":"2026-04-29"},"SP95":{"p":2.089,"d":"2026-04-29"},"SP98":{"p":2.159,"d":"2026-04-29"}},"brand":"Carrefour","h24":true,"services":["Relais colis","Boutique alimentaire","Vente de gaz domestique (Butane, Propane)","Automate CB 24/24"]},{"id":62210001,"lat":50.414,"lng":2.835,"addr":"14 Rue René Lannoy","city":"Avion","cp":"62210","fuels":{"Gazole":{"p":2.206,"d":"2026-04-29"},"E10":{"p":1.983,"d":"2026-04-29"},"SP98":{"p":2.112,"d":"2026-04-29"}},"brand":"Carrefour","h24":true,"services":["Automate CB 24/24"]},{"id":62232002,"lat":50.540552606169,"lng":2.6078070661317003,"addr":"2 RUE DU RENOUVEAU","city":"VENDIN LES BETHUNE","cp":"62232","fuels":{"Gazole":{"p":2.199,"d":"2026-04-28"},"E85":{"p":0.829,"d":"2026-03-20"},"E10":{"p":1.989,"d":"2026-04-28"}},"brand":"Carrefour","services":["Relais colis","Location de véhicule","Vente de gaz domestique (Butane, Propane)"]},{"id":62120009,"lat":50.621,"lng":2.392,"addr":"Rue Witternesse","city":"LAMBRES","cp":"62120","fuels":{"Gazole":{"p":2.159,"d":"2026-04-28"},"E10":{"p":1.969,"d":"2026-04-28"},"SP98":{"p":2.079,"d":"2026-04-28"}},"brand":"Intermarché","services":["Laverie","Station de gonflage","Location de véhicule","Vente de gaz domestique (Butane, Propane)","DAB (Distributeur automatique de billets)"]},{"id":62650002,"lat":50.568386,"lng":1.908013,"addr":"18 BIS RUE DE LA LONGEVILLE","city":"HUCQUELIERS","cp":"62650","fuels":{"Gazole":{"p":2.179,"d":"2026-04-30"},"SP95":{"p":2.029,"d":"2026-04-30"},"SP98":{"p":2.089,"d":"2026-04-30"}},"brand":"Carrefour","services":["Relais colis","Boutique alimentaire","Vente de fioul domestique","Vente de gaz domestique (Butane, Propane)","Vente d'additifs carburants"]},{"id":62161001,"lat":50.328,"lng":2.713,"addr":"Rue de Neuville","city":"MAROEUIL","cp":"62161","fuels":{"Gazole":{"p":2.34,"d":"2026-04-30"},"SP95":{"p":2.2,"d":"2026-04-30"},"SP98":{"p":2.292,"d":"2026-04-30"}},"brand":"Carrefour","h24":true,"services":["Laverie","Boutique alimentaire","Station de gonflage","Piste poids lourds","Lavage manuel","Vente de gaz domestique (Butane, Propane)","Automate CB 24/24"]},{"id":62120001,"lat":50.63519769999999,"lng":2.4106756,"addr":"Centre commercial du val de Lys","city":"Aire-sur-la-Lys","cp":"62120","fuels":{"Gazole":{"p":2.147,"d":"2026-04-30"},"SP95":{"p":2.048,"d":"2026-04-30"},"E85":{"p":0.876,"d":"2026-04-30"},"GPLc":{"p":0.999,"d":"2026-04-23"},"E10":{"p":2.002,"d":"2026-04-30"},"SP98":{"p":2.13,"d":"2026-04-30"}},"brand":"Carrefour","services":["Vente de gaz domestique (Butane, Propane)"]},{"id":62800001,"lat":50.422,"lng":2.774,"addr":"2 Rue Marie Liétard","city":"LIévin","cp":"62800","fuels":{"Gazole":{"p":2.149,"d":"2026-04-30"},"SP95":{"p":2.073,"d":"2026-04-30"},"E85":{"p":0.818,"d":"2026-04-30"},"GPLc":{"p":1,"d":"2026-04-25"},"E10":{"p":1.979,"d":"2026-04-30"},"SP98":{"p":2.085,"d":"2026-04-30"}},"brand":"Carrefour","h24":true,"services":["Station de gonflage","Piste poids lourds","Vente de gaz domestique (Butane, Propane)","Automate CB 24/24"]},{"id":62280002,"lat":50.737,"lng":1.622,"addr":"Route de Calais","city":"SAINT-MARTIN-BOULOGNE","cp":"62280","fuels":{"Gazole":{"p":2.18,"d":"2026-04-28"},"E85":{"p":0.799,"d":"2026-04-24"},"E10":{"p":1.959,"d":"2026-04-24"},"SP98":{"p":2.09,"d":"2026-04-24"}},"brand":"Esso","services":["Station de gonflage","Vente de gaz domestique (Butane, Propane)","DAB (Distributeur automatique de billets)"]},{"id":62370002,"lat":50.945,"lng":2.119,"addr":"174 rue de Calais","city":"SAINT-FOLQUIN","cp":"62370","fuels":{"Gazole":{"p":2.19,"d":"2026-04-29"},"E10":{"p":2.05,"d":"2026-04-24"},"SP98":{"p":2.14,"d":"2026-04-29"}},"services":["Relais colis","Boutique alimentaire","Station de gonflage","Lavage manuel","DAB (Distributeur automatique de billets)"]},{"id":62340001,"lat":50.8623270932,"lng":1.8845697498999998,"addr":"ZAE DU MOULIN A HUILE","city":"GUîNES","cp":"62340","fuels":{"Gazole":{"p":2.224,"d":"2026-04-30"},"E10":{"p":1.969,"d":"2026-04-30"},"SP98":{"p":2.14,"d":"2026-04-30"}},"brand":"Carrefour","services":["Vente de gaz domestique (Butane, Propane)"]},{"id":62120017,"lat":50.57291837014,"lng":2.3802908317047,"addr":"km55, A26","city":"Saint-Hilaire-Cottes","cp":"62120","fuels":{"Gazole":{"p":2.289,"d":"2026-04-30"},"E10":{"p":2.09,"d":"2026-04-30"},"SP98":{"p":2.175,"d":"2026-04-30"}},"brand":"Avia","h24":true,"services":["Toilettes publiques","Douches","Laverie","Boutique alimentaire","Boutique non alimentaire","Restauration à emporter","Restauration sur place","Station de gonflage","Carburant additivé","Piste poids lourds","Espace bébé","Automate CB 24/24"]},{"id":62630007,"lat":50.51588833617,"lng":1.6450284847821999,"addr":"ROUTE DE BOULOGNE","city":"ETAPLES","cp":"62630","fuels":{"Gazole":{"p":2.19,"d":"2026-04-29"},"E10":{"p":1.986,"d":"2026-04-29"},"SP98":{"p":2.1,"d":"2026-04-29"}},"brand":"Carrefour","h24":true,"services":["Toilettes publiques","Laverie","Relais colis","Restauration à emporter","Station de gonflage","Location de véhicule","Vente de gaz domestique (Butane, Propane)","Automate CB 24/24","DAB (Distributeur automatique de billets)"]},{"id":62160004,"lat":50.451,"lng":2.721,"addr":"Rue Casimir Beugnet","city":"BULLY-LES-MINES","cp":"62160","fuels":{"Gazole":{"p":2.189,"d":"2026-04-30"},"E85":{"p":0.818,"d":"2026-04-18"},"E10":{"p":1.979,"d":"2026-04-30"},"SP98":{"p":2.099,"d":"2026-04-30"}},"brand":"Intermarché","h24":true,"services":["Laverie","Lavage automatique","Vente de gaz domestique (Butane, Propane)","Automate CB 24/24"]},{"id":62940001,"lat":50.467,"lng":2.565,"addr":"RUE EMILE ZOLA","city":"HAILLICOURT","cp":"62940","fuels":{"Gazole":{"p":2.195,"d":"2026-04-30"},"E10":{"p":1.979,"d":"2026-04-30"},"SP98":{"p":2.079,"d":"2026-04-30"}},"brand":"Carrefour","services":["Relais colis","Location de véhicule","Vente de gaz domestique (Butane, Propane)"]},{"id":62440001,"lat":50.455,"lng":2.904,"addr":"Chemin de la Grosse Borne","city":"HARNES","cp":"62440","fuels":{"Gazole":{"p":2.158,"d":"2026-04-29"},"E10":{"p":2.009,"d":"2026-04-29"},"SP98":{"p":2.017,"d":"2026-04-29"}},"brand":"Auchan","h24":true,"services":["Station de gonflage","Vente de gaz domestique (Butane, Propane)","Automate CB 24/24","DAB (Distributeur automatique de billets)"]},{"id":62780003,"lat":50.4946,"lng":1.59569,"addr":"AVENUE FRANCOIS GODIN","city":"CUCQ","cp":"62780","fuels":{"Gazole":{"p":2.148,"d":"2026-04-30"},"E85":{"p":0.818,"d":"2026-04-17"},"E10":{"p":1.979,"d":"2026-04-30"},"SP98":{"p":2.062,"d":"2026-04-30"}},"brand":"Intermarché","services":["Toilettes publiques","Location de véhicule","Piste poids lourds","Vente de gaz domestique (Butane, Propane)","DAB (Distributeur automatique de billets)"]},{"id":62126001,"lat":50.76535,"lng":1.61844,"addr":"99 Rue Raoul Lebeurre","city":"WIMILLE","cp":"62126","fuels":{"Gazole":{"p":2.199,"d":"2026-04-28"},"SP95":{"p":2.09,"d":"2026-04-28"},"SP98":{"p":2.149,"d":"2026-04-16"}},"brand":"Carrefour","services":["Station de gonflage","Carburant additivé","Vente de gaz domestique (Butane, Propane)","DAB (Distributeur automatique de billets)"]},{"id":62320001,"lat":50.393,"lng":2.923,"addr":"ROUTE DE DROCOURT","city":"ROUVROY","cp":"62320","fuels":{"Gazole":{"p":2.198,"d":"2026-04-28"},"E10":{"p":1.97,"d":"2026-04-28"},"SP98":{"p":2.123,"d":"2026-04-28"}},"brand":"Carrefour","services":["Piste poids lourds","Lavage manuel","Vente de gaz domestique (Butane, Propane)","DAB (Distributeur automatique de billets)"]},{"id":62980001,"lat":50.487,"lng":2.746,"addr":"5, place de la République","city":"VERMELLES","cp":"62980","fuels":{"Gazole":{"p":2.143,"d":"2026-04-30"},"E10":{"p":1.999,"d":"2026-04-30"},"SP98":{"p":2.04,"d":"2026-04-30"}},"brand":"Leclerc","h24":true,"services":["Vente de pétrole lampant","Vente de gaz domestique (Butane, Propane)","Automate CB 24/24"]},{"id":62140001,"lat":50.371,"lng":2.027,"addr":"ROUTE DE MONTREUIL","city":"MARCONNELLE","cp":"62140","fuels":{"E10":{"p":1.971,"d":"2026-04-28"},"SP98":{"p":2.139,"d":"2026-04-28"}},"brand":"Carrefour","services":["Piste poids lourds","Vente de gaz domestique (Butane, Propane)","DAB (Distributeur automatique de billets)"]},{"id":62100028,"lat":50.938,"lng":1.882,"addr":"320 RUE DE SAINT-OMER","city":"Calais","cp":"62100","fuels":{"Gazole":{"p":2.219,"d":"2026-05-01"},"E85":{"p":1.049,"d":"2026-05-01"},"E10":{"p":2.059,"d":"2026-05-01"},"SP98":{"p":2.229,"d":"2026-05-01"}},"brand":"Esso","h24":true,"services":["Toilettes publiques","Boutique alimentaire","Boutique non alimentaire","Station de gonflage","Carburant additivé","Vente de gaz domestique (Butane, Propane)","Automate CB 24/24"]},{"id":62630004,"lat":50.526,"lng":1.628,"addr":"CD 940","city":"Étaples-sur-Mer","cp":"62630","fuels":{"Gazole":{"p":2.16,"d":"2026-04-30"},"E85":{"p":0.814,"d":"2026-04-30"},"GPLc":{"p":0.98,"d":"2026-04-30"},"E10":{"p":1.997,"d":"2026-04-30"},"SP98":{"p":2.055,"d":"2026-04-30"}},"brand":"Leclerc","h24":true,"services":["Laverie","Relais colis","Boutique alimentaire","Boutique non alimentaire","Restauration à emporter","Restauration sur place","Bar","Location de véhicule","Vente de gaz domestique (Butane, Propane)","Automate CB 24/24","DAB (Distributeur automatique de billets)"]},{"id":62610002,"lat":50.853,"lng":1.986,"addr":"RN 43","city":"AUTINGUES","cp":"62610","fuels":{"E85":{"p":0.874,"d":"2026-04-22"},"E10":{"p":1.956,"d":"2026-04-29"},"SP98":{"p":2.089,"d":"2026-04-18"}},"brand":"Auchan","h24":true,"services":["Station de gonflage","Piste poids lourds","Vente de gaz domestique (Butane, Propane)","Automate CB 24/24"]},{"id":62300013,"lat":50.443434761834,"lng":2.8312583134527,"addr":"ZUP LENS GRANDE RESIDENCE","city":"LENS","cp":"62300","fuels":{"Gazole":{"p":2.09,"d":"2026-05-01"},"E10":{"p":1.99,"d":"2026-05-01"}},"brand":"TotalEnergies"},{"id":62620001,"lat":50.454,"lng":2.616,"addr":"3 Rue d'Haillicourt","city":"BARLIN","cp":"62620","fuels":{"Gazole":{"p":2.09,"d":"2026-04-30"},"E85":{"p":0.852,"d":"2026-04-27"},"E10":{"p":1.99,"d":"2026-04-21"}},"brand":"TotalEnergies","h24":true,"services":["Boutique alimentaire","Boutique non alimentaire","Station de gonflage","Carburant additivé","Vente de gaz domestique (Butane, Propane)","Automate CB 24/24"]},{"id":62100002,"lat":50.953,"lng":1.853,"addr":"23 Rue Paul Bert","city":"CALAIS","cp":"62100","fuels":{"Gazole":{"p":2.09,"d":"2026-05-01"},"E10":{"p":1.99,"d":"2026-05-01"},"SP98":{"p":1.99,"d":"2026-05-01"}},"brand":"TotalEnergies","h24":true,"services":["Relais colis","Boutique alimentaire","Boutique non alimentaire","Station de gonflage","Carburant additivé","Piste poids lourds","Services réparation / entretien","Vente de gaz domestique (Butane, Propane)","Vente d'additifs carburants","Automate CB 24/24","DAB (Distributeur automatique de billets)"]},{"id":62680001,"lat":50.405,"lng":2.876,"addr":"avenue 10 Mars","city":"Méricourt","cp":"62680","fuels":{"Gazole":{"p":2.158,"d":"2026-04-29"},"E85":{"p":0.818,"d":"2026-04-17"},"E10":{"p":1.966,"d":"2026-04-30"},"SP98":{"p":2.058,"d":"2026-04-30"}},"brand":"Intermarché","h24":true,"services":["Toilettes publiques","Laverie","Boutique alimentaire","Boutique non alimentaire","Restauration à emporter","Restauration sur place","Location de véhicule","Piste poids lourds","Vente de gaz domestique (Butane, Propane)","Bornes électriques","Automate CB 24/24","DAB (Distributeur automatique de billets)"]},{"id":62730003,"lat":50.941,"lng":1.939,"addr":"504 AVENUE HENRI RAVISSE","city":"MARCK","cp":"62730","fuels":{"Gazole":{"p":2.25,"d":"2026-04-27"}},"services":["Toilettes publiques","Douches","Laverie","Boutique alimentaire","Boutique non alimentaire","Restauration à emporter","Restauration sur place","Bar","Station de gonflage","Piste poids lourds","Wifi","DAB (Distributeur automatique de billets)"]},{"id":62131001,"lat":50.502,"lng":2.652,"addr":"D 937 ZAC DU BEAUPRE","city":"VERQUIN","cp":"62131","fuels":{"Gazole":{"p":2.279,"d":"2026-04-29"},"E85":{"p":0.819,"d":"2026-04-15"},"E10":{"p":1.999,"d":"2026-04-30"},"SP98":{"p":2.129,"d":"2026-04-29"}},"brand":"Intermarché","h24":true,"services":["Laverie","Station de gonflage","Piste poids lourds","Lavage automatique","Lavage manuel","Automate CB 24/24","DAB (Distributeur automatique de billets)"]},{"id":62110001,"lat":50.416,"lng":2.976,"addr":"1230 BOULEVARD ALBERT SCHWEITZER","city":"Hénin-Beaumont","cp":"62110","fuels":{"Gazole":{"p":2.25,"d":"2026-04-30"},"E10":{"p":1.99,"d":"2026-04-30"}},"brand":"TotalEnergies","h24":true,"services":["Toilettes publiques","Boutique alimentaire","Boutique non alimentaire","Piste poids lourds","Services réparation / entretien","Vente d'additifs carburants","Wifi","Automate CB 24/24"]},{"id":62970003,"lat":50.41648,"lng":3.0254,"addr":"RUE LOUIS BLANC","city":"Courcelles-lès-Lens","cp":"62970","fuels":{"Gazole":{"p":2.169,"d":"2026-04-27"},"E10":{"p":2.019,"d":"2026-04-27"},"SP98":{"p":2.09,"d":"2026-04-27"}},"brand":"Leclerc","h24":true,"services":["Automate CB 24/24","DAB (Distributeur automatique de billets)"]},{"id":62100011,"lat":50.94,"lng":1.879,"addr":"2 Route de Saint-Omer","city":"CALAIS","cp":"62100","fuels":{"Gazole":{"p":2.179,"d":"2026-04-28"},"SP95":{"p":2.039,"d":"2026-04-28"},"SP98":{"p":2.099,"d":"2026-04-28"}},"brand":"Carrefour","h24":true,"services":["Vente de gaz domestique (Butane, Propane)","Automate CB 24/24","DAB (Distributeur automatique de billets)"]},{"id":62410001,"lat":50.495,"lng":2.858,"addr":"45 RUE A.PEZE","city":"WINGLES","cp":"62410","fuels":{"Gazole":{"p":2.169,"d":"2026-04-29"},"E85":{"p":0.819,"d":"2026-04-16"},"E10":{"p":1.987,"d":"2026-04-29"},"SP98":{"p":2.098,"d":"2026-04-30"}},"brand":"Intermarché","services":["Toilettes publiques","Laverie","Relais colis","Station de gonflage","Lavage automatique","Lavage manuel","Wifi","DAB (Distributeur automatique de billets)"]},{"id":62142001,"lat":50.739,"lng":1.802,"addr":"L D LES PICHOTTESZA LEGERE","city":"ALINCTHUN","cp":"62142","fuels":{"Gazole":{"p":2.159,"d":"2026-04-27"},"E10":{"p":1.989,"d":"2026-04-27"},"SP98":{"p":2.109,"d":"2026-04-27"}},"brand":"Intermarché","services":["Laverie","Vente de gaz domestique (Butane, Propane)","DAB (Distributeur automatique de billets)"]},{"id":62720002,"lat":50.807,"lng":1.73,"addr":"Rue Roger Salengro","city":"RINXENT","cp":"62720","fuels":{"Gazole":{"p":2.179,"d":"2026-04-29"},"SP95":{"p":2.009,"d":"2026-04-29"},"SP98":{"p":2.079,"d":"2026-04-29"}},"brand":"Carrefour","h24":true,"services":["Relais colis","Boutique alimentaire","Restauration à emporter","Vente de gaz domestique (Butane, Propane)","Bornes électriques","Vente d'additifs carburants","Automate CB 24/24","DAB (Distributeur automatique de billets)"]},{"id":62137001,"lat":50.928,"lng":1.901,"addr":"2246 route de St Omer","city":"Coulogne","cp":"62137","fuels":{"Gazole":{"p":2.09,"d":"2026-04-30"},"E10":{"p":1.99,"d":"2026-04-30"}},"brand":"Esso","h24":true,"services":["Carburant additivé","Piste poids lourds","Vente d'additifs carburants","Automate CB 24/24"]},{"id":62780004,"lat":50.51,"lng":1.629,"addr":"209 AVENUE DE L'EUROPE","city":"CUCQ","cp":"62780","fuels":{"E85":{"p":0.819,"d":"2026-05-01"},"GPLc":{"p":1.019,"d":"2026-05-01"}},"brand":"TotalEnergies","h24":true,"services":["Toilettes publiques","Boutique alimentaire","Boutique non alimentaire","Restauration à emporter","Station de gonflage","Carburant additivé","Lavage automatique","Lavage manuel","Vente de gaz domestique (Butane, Propane)","Vente d'additifs carburants","Automate CB 24/24"]},{"id":62250011,"lat":50.859765360000004,"lng":1.73284823,"addr":"AUTOROUTE A16 - AIRE DES DEUX CAPS","city":"LEUBRINGHEN","cp":"62250","fuels":{"Gazole":{"p":2.09,"d":"2026-05-01"},"E10":{"p":1.99,"d":"2026-05-01"},"SP98":{"p":1.99,"d":"2026-05-01"}},"brand":"TotalEnergies","services":["Toilettes publiques","Douches","Boutique alimentaire","Boutique non alimentaire","Restauration à emporter","Restauration sur place","Bar","Station de gonflage","Carburant additivé","Aire de camping-cars","Piste poids lourds","Espace bébé"]},{"id":62860002,"lat":50.215,"lng":3.067,"addr":"ROUTE DEPARTEMENTAL CD 939","city":"MARQUION","cp":"62860","fuels":{"Gazole":{"p":2.12,"d":"2026-04-25"},"E10":{"p":1.947,"d":"2026-04-25"},"SP98":{"p":2.017,"d":"2026-04-25"}},"brand":"Système U","h24":true,"services":["Station de gonflage","Lavage manuel","Automate CB 24/24","DAB (Distributeur automatique de billets)"]},{"id":62590001,"lat":50.47,"lng":2.996,"addr":"38 Rue Émile Zola","city":"Oignies","cp":"62590","fuels":{"Gazole":{"p":2.178,"d":"2026-04-29"},"E10":{"p":1.99,"d":"2026-04-29"},"SP98":{"p":2.08,"d":"2026-04-29"}}},{"id":62700003,"lat":50.475,"lng":2.538,"addr":"Rue Augustin Caron","city":"Bruay-la-Buissière","cp":"62700","fuels":{"Gazole":{"p":2.169,"d":"2026-04-30"},"E85":{"p":0.818,"d":"2026-04-30"},"E10":{"p":1.989,"d":"2026-04-30"},"SP98":{"p":2.098,"d":"2026-04-30"}},"brand":"Intermarché","h24":true,"services":["Station de gonflage","Location de véhicule","Vente de gaz domestique (Butane, Propane)","Automate CB 24/24"]},{"id":62118002,"lat":50.306,"lng":2.952,"addr":"RUE DU MARECHAL FOCH","city":"BIACHE SAINT VAAST","cp":"62118","fuels":{"Gazole":{"p":2.085,"d":"2026-04-28"},"E10":{"p":2.011,"d":"2026-04-27"},"SP98":{"p":2.083,"d":"2026-04-27"}},"brand":"U","h24":true,"services":["Vente de pétrole lampant","Station de gonflage","Lavage automatique","Lavage manuel","Vente de gaz domestique (Butane, Propane)","Automate CB 24/24","DAB (Distributeur automatique de billets)"]},{"id":62140003,"lat":50.372881298871,"lng":2.022489605961,"addr":"LA CITE DES POILUS","city":"MARCONNELLE","cp":"62140","fuels":{"Gazole":{"p":2.162,"d":"2026-04-29"},"E85":{"p":0.818,"d":"2026-04-29"},"E10":{"p":1.985,"d":"2026-04-30"},"SP98":{"p":2.09,"d":"2026-04-30"}},"brand":"Intermarché"},{"id":62147006,"lat":50.111382,"lng":3.036056,"addr":"22 BIS GRAND PLACE","city":"HERMIES","cp":"62147","fuels":{"E85":{"p":0.899,"d":"2026-02-04"},"E10":{"p":1.969,"d":"2026-04-27"},"SP98":{"p":2.039,"d":"2026-04-27"}},"brand":"Carrefour","h24":true,"services":["Automate CB 24/24"]},{"id":62223001,"lat":50.304,"lng":2.789,"addr":"Route de Lille","city":"Saint-Nicolas","cp":"62223","fuels":{"Gazole":{"p":2.15,"d":"2026-04-28"},"SP95":{"p":2.022,"d":"2026-04-30"},"E85":{"p":0.758,"d":"2026-04-14"},"E10":{"p":1.989,"d":"2026-04-30"},"SP98":{"p":2.051,"d":"2026-04-28"}},"brand":"Leclerc","services":["Toilettes publiques","Relais colis","Boutique alimentaire","Boutique non alimentaire","Vente de pétrole lampant","Station de gonflage","Vente de gaz domestique (Butane, Propane)","DAB (Distributeur automatique de billets)"]},{"id":62840006,"lat":50.625772999999995,"lng":2.7726409999999997,"addr":"57 rue Robert Parfait","city":"LAVENTIE","cp":"62840","fuels":{"Gazole":{"p":2.259,"d":"2026-04-15"},"E85":{"p":0.849,"d":"2026-04-15"}},"brand":"Carrefour","services":["Automate CB 24/24"]},{"id":62153004,"lat":50.40430397997199,"lng":2.7427477754803,"addr":"AUTOROUTE A26 - AIRE DE SOUCHEZ","city":"SOUCHEZ","cp":"62153","fuels":{"Gazole":{"p":2.244,"d":"2026-05-01"},"E10":{"p":2.059,"d":"2026-05-01"},"SP98":{"p":2.134,"d":"2026-05-01"}},"services":["Toilettes publiques","Douches","Laverie","Boutique alimentaire","Boutique non alimentaire","Restauration à emporter","Restauration sur place","Bar","Station de gonflage","Carburant additivé","Aire de camping-cars","Piste poids lourds","Espace bébé","Bornes électriques","Wifi"]},{"id":62210002,"lat":50.4,"lng":2.831,"addr":"Boulevard Maurice Thorez","city":"Avion","cp":"62210","fuels":{"Gazole":{"p":2.206,"d":"2026-04-30"},"SP98":{"p":2.112,"d":"2026-04-30"}},"brand":"Auchan","h24":true,"services":["Vente de gaz domestique (Butane, Propane)","Automate CB 24/24","DAB (Distributeur automatique de billets)"]},{"id":62000005,"lat":50.28087,"lng":2.78103,"addr":"89 Avenue Fernand Lobbedez","city":"ARRAS","cp":"62000","fuels":{"Gazole":{"p":2.158,"d":"2026-04-29"},"SP95":{"p":2.037,"d":"2026-04-30"},"E10":{"p":1.999,"d":"2026-04-30"},"SP98":{"p":2.076,"d":"2026-04-30"}},"brand":"Leclerc","services":["Boutique alimentaire","Boutique non alimentaire","Vente de pétrole lampant","Station de gonflage","Vente de gaz domestique (Butane, Propane)"]},{"id":62330002,"lat":50.612,"lng":2.493,"addr":"Rue Delcourt","city":"Guarbecque","cp":"62330","fuels":{"Gazole":{"p":2.135,"d":"2026-04-27"},"E10":{"p":1.957,"d":"2026-04-29"},"SP98":{"p":2.063,"d":"2026-04-29"}},"brand":"Netto","h24":true,"services":["Laverie","Relais colis","Boutique alimentaire","Restauration à emporter","Lavage automatique","Lavage manuel","Vente de gaz domestique (Butane, Propane)","Vente d'additifs carburants","Automate CB 24/24","DAB (Distributeur automatique de billets)"]},{"id":62530001,"lat":50.452,"lng":2.637,"addr":"Rue Victor Hugo","city":"Hersin-Coupigny","cp":"62530","fuels":{"Gazole":{"p":2.195,"d":"2026-04-30"},"E85":{"p":0.818,"d":"2026-04-30"},"E10":{"p":1.989,"d":"2026-04-30"},"SP98":{"p":2.09,"d":"2026-04-30"}},"brand":"Intermarché","h24":true,"services":["Laverie","Boutique alimentaire","Station de gonflage","Lavage automatique","Vente de gaz domestique (Butane, Propane)","Bornes électriques","Automate CB 24/24","DAB (Distributeur automatique de billets)"]},{"id":62170005,"lat":50.458,"lng":1.758,"addr":"43 AV.GAL LECLERC","city":"Montreuil","cp":"62170","fuels":{"Gazole":{"p":2.09,"d":"2026-05-01"},"E85":{"p":0.839,"d":"2026-05-01"},"E10":{"p":1.99,"d":"2026-05-01"}},"brand":"TotalEnergies","h24":true,"services":["Boutique alimentaire","Boutique non alimentaire","Station de gonflage","Carburant additivé","Vente de gaz domestique (Butane, Propane)","Automate CB 24/24","DAB (Distributeur automatique de billets)"]},{"id":62138002,"lat":50.51,"lng":2.784,"addr":"ZAC DES FLANDRES","city":"AUCHY-LES-MINES","cp":"62138","fuels":{"Gazole":{"p":2.129,"d":"2026-04-30"},"SP95":{"p":2.054,"d":"2026-04-30"},"E85":{"p":0.717,"d":"2026-04-30"},"GPLc":{"p":0.999,"d":"2026-04-24"},"E10":{"p":1.965,"d":"2026-04-30"},"SP98":{"p":2.118,"d":"2026-04-30"}},"brand":"Carrefour","h24":true,"services":["Relais colis","Station de gonflage","Carburant additivé","Location de véhicule","Piste poids lourds","Vente de gaz domestique (Butane, Propane)","Bornes électriques","Automate CB 24/24","DAB (Distributeur automatique de billets)"]},{"id":62120006,"lat":50.629,"lng":2.39,"addr":"ROUTE DE LAMBRES","city":"Aire-sur-la-Lys","cp":"62120","fuels":{"Gazole":{"p":2.159,"d":"2026-04-30"},"E85":{"p":0.912,"d":"2026-04-30"},"E10":{"p":1.969,"d":"2026-04-30"},"SP98":{"p":2.079,"d":"2026-04-30"}},"brand":"Esso"},{"id":62149001,"lat":50.512,"lng":2.746,"addr":"126 Boulevard Louis Lesage","city":"Cambrin","cp":"62149","fuels":{"Gazole":{"p":2.152,"d":"2026-05-01"},"E10":{"p":1.99,"d":"2026-05-01"},"SP98":{"p":2.07,"d":"2026-05-01"}},"brand":"Esso"},{"id":62300005,"lat":50.427,"lng":2.819,"addr":"43 Route d'Arras","city":"Lens","cp":"62300","fuels":{"Gazole":{"p":2.135,"d":"2026-05-01"},"E10":{"p":1.99,"d":"2026-05-01"},"SP98":{"p":2.07,"d":"2026-05-01"}},"brand":"Esso"},{"id":62114002,"lat":50.455,"lng":2.684,"addr":"100 Avenue François Mitterand","city":"SAINS-EN-GOHELLE","cp":"62114","fuels":{"Gazole":{"p":2.25,"d":"2026-04-30"},"E10":{"p":1.99,"d":"2026-04-30"},"SP98":{"p":1.99,"d":"2026-04-30"}},"brand":"TotalEnergies","h24":true,"services":["Boutique alimentaire","Station de gonflage","Piste poids lourds","Vente d'additifs carburants","Automate CB 24/24"]},{"id":62610004,"lat":50.852,"lng":1.987,"addr":"15 route départementale 943","city":"Nielles-lès-Ardres","cp":"62610","fuels":{"Gazole":{"p":2.09,"d":"2026-05-01"},"E10":{"p":1.99,"d":"2026-04-21"}},"brand":"TotalEnergies","h24":true,"services":["Toilettes publiques","Boutique alimentaire","Restauration à emporter","Restauration sur place","Bar","Station de gonflage","Carburant additivé","Piste poids lourds","Lavage manuel","Vente de gaz domestique (Butane, Propane)","Automate CB 24/24"]},{"id":62116001,"lat":50.148,"lng":2.717,"addr":"62 RUE DE DIERVILLE","city":"Bucquoy","cp":"62116","fuels":{"Gazole":{"p":2.199,"d":"2026-04-29"},"E10":{"p":2.079,"d":"2026-04-10"},"SP98":{"p":2.176,"d":"2026-04-10"}},"brand":"Carrefour","h24":true,"services":["Boutique alimentaire","Boutique non alimentaire","Vente de gaz domestique (Butane, Propane)","Automate CB 24/24"]},{"id":62330001,"lat":50.609,"lng":2.472,"addr":"Rue de l'Eglise Berguette","city":"ISBERGUES","cp":"62330","fuels":{"Gazole":{"p":2.2,"d":"2026-04-30"},"SP95":{"p":1.999,"d":"2026-04-30"},"SP98":{"p":2.1,"d":"2026-04-30"}},"brand":"Carrefour","services":["Laverie","Relais colis","Vente de gaz domestique (Butane, Propane)"]},{"id":62138005,"lat":50.540594649516,"lng":2.7973236932458,"addr":"Rue des anciens combattants d'Afrique du Nord","city":"VIOLAINES","cp":"62138","fuels":{"Gazole":{"p":2.156,"d":"2026-04-29"},"E85":{"p":0.717,"d":"2026-04-23"},"E10":{"p":1.999,"d":"2026-04-29"},"SP98":{"p":2.081,"d":"2026-04-30"}},"brand":"Leclerc","h24":true,"services":["Relais colis","Station de gonflage","Carburant additivé","Location de véhicule","Piste poids lourds","Automate CB 24/24","DAB (Distributeur automatique de billets)"]},{"id":62110004,"lat":50.45828,"lng":2.97598,"addr":"389 RUE DES HAUTS DE FRANCE/PLAT","city":"Hénin-Beaumont","cp":"62110","fuels":{"Gazole":{"p":2.09,"d":"2026-05-01"},"E10":{"p":1.99,"d":"2026-05-01"}},"brand":"TotalEnergies","services":["Toilettes publiques","Douches","Boutique alimentaire","Boutique non alimentaire","Restauration à emporter","Restauration sur place","Bar","Station de gonflage","Piste poids lourds","DAB (Distributeur automatique de billets)"]},{"id":62000006,"lat":50.283,"lng":2.739,"addr":"jean mermoz","city":"DAINVILLE","cp":"62000","fuels":{"Gazole":{"p":2.15,"d":"2026-04-29"},"E85":{"p":0.749,"d":"2026-04-27"},"GPLc":{"p":0.999,"d":"2026-04-14"},"E10":{"p":1.999,"d":"2026-04-30"},"SP98":{"p":2.079,"d":"2026-04-30"}},"brand":"Leclerc","h24":true,"services":["Toilettes publiques","Relais colis","Boutique alimentaire","Boutique non alimentaire","Restauration à emporter","Restauration sur place","Vente de pétrole lampant","Location de véhicule","Piste poids lourds","Lavage automatique","Lavage manuel","Services réparation / entretien","Vente de gaz domestique (Butane, Propane)","Bornes électriques","Vente d'additifs carburants","Wifi","Automate CB 24/24","DAB (Distributeur automatique de billets)"]},{"id":62130001,"lat":50.387,"lng":2.349,"addr":"184 Rue de Béthune","city":"SAINT-POL-SUR-TERNOISE","cp":"62130","fuels":{"Gazole":{"p":2.09,"d":"2026-05-01"},"E10":{"p":1.99,"d":"2026-04-23"}},"brand":"TotalEnergies","h24":true,"services":["Toilettes publiques","Carburant additivé","Location de véhicule","Piste poids lourds","Services réparation / entretien","Automate CB 24/24"]},{"id":62137002,"lat":50.925,"lng":1.905,"addr":"509 route de Saint-Omer","city":"Coulogne","cp":"62137","fuels":{"Gazole":{"p":2.199,"d":"2026-04-30"},"SP95":{"p":2.05,"d":"2026-04-30"},"E85":{"p":0.886,"d":"2026-04-30"},"E10":{"p":1.999,"d":"2026-04-30"}},"h24":true,"services":["Piste poids lourds","Automate CB 24/24"]},{"id":62176001,"lat":50.572,"lng":1.613,"addr":"Rue du vieux Moulin","city":"CAMIERS","cp":"62176","fuels":{"Gazole":{"p":2.194,"d":"2026-04-28"},"E10":{"p":1.992,"d":"2026-04-28"},"SP98":{"p":2.109,"d":"2026-04-28"}},"brand":"Intermarché","h24":true,"services":["Location de véhicule","Automate CB 24/24","DAB (Distributeur automatique de billets)"]},{"id":62220001,"lat":50.481100127621005,"lng":2.9372236434899004,"addr":"ROUTE NATIONALE 25","city":"Carvin","cp":"62220","fuels":{"Gazole":{"p":2.25,"d":"2026-04-30"},"E85":{"p":0.842,"d":"2026-04-30"},"GPLc":{"p":1.07,"d":"2026-04-30"},"E10":{"p":1.99,"d":"2026-04-30"},"SP98":{"p":1.99,"d":"2026-04-30"}},"brand":"TotalEnergies","h24":true,"services":["Toilettes publiques","Boutique alimentaire","Boutique non alimentaire","Carburant additivé","Piste poids lourds","Lavage automatique","Services réparation / entretien","Vente de gaz domestique (Butane, Propane)","Vente d'additifs carburants","Automate CB 24/24"]},{"id":62500001,"lat":50.755,"lng":2.24,"addr":"Avenue Joffre","city":"SAINT-MARTIN-AU-LAëRT","cp":"62500","fuels":{"Gazole":{"p":2.214,"d":"2026-04-30"},"E85":{"p":0.837,"d":"2026-04-30"},"GPLc":{"p":1.06,"d":"2026-04-30"},"E10":{"p":2.027,"d":"2026-04-30"},"SP98":{"p":2.161,"d":"2026-04-30"}},"brand":"Carrefour","h24":true,"services":["Toilettes publiques","Relais colis","Boutique alimentaire","Boutique non alimentaire","Restauration à emporter","Vente de fioul domestique","Vente de pétrole lampant","Station de gonflage","Carburant additivé","Location de véhicule","Vente de gaz domestique (Butane, Propane)","Bornes électriques","Wifi","Automate CB 24/24","DAB (Distributeur automatique de billets)"]},{"id":62130006,"lat":50.391,"lng":2.203,"addr":"16 RN 39","city":"HUMIERES","cp":"62130","fuels":{"Gazole":{"p":2.25,"d":"2026-04-17"},"SP95":{"p":1.99,"d":"2026-04-10"}},"brand":"Total Energies","h24":true,"services":["Automate CB 24/24"]},{"id":62160002,"lat":50.448,"lng":2.72,"addr":"18 rue Casimir Beugnet","city":"BULLY-LES-MINES","cp":"62160","fuels":{"Gazole":{"p":2.521,"d":"2026-04-08"},"SP95":{"p":2.092,"d":"2026-04-08"},"SP98":{"p":2.175,"d":"2026-04-08"}},"brand":"Carrefour","h24":true,"services":["Laverie","Location de véhicule","Piste poids lourds","Vente de gaz domestique (Butane, Propane)","Automate CB 24/24"]},{"id":62136001,"lat":50.618,"lng":2.686,"addr":"580 route de bethune","city":"Lestrem","cp":"62136","fuels":{"Gazole":{"p":2.09,"d":"2026-05-01"},"E85":{"p":0.839,"d":"2026-04-28"},"E10":{"p":1.99,"d":"2026-04-23"},"SP98":{"p":1.99,"d":"2026-04-28"}},"brand":"TotalEnergies","h24":true,"services":["Toilettes publiques","Relais colis","Boutique alimentaire","Station de gonflage","Carburant additivé","Piste poids lourds","Lavage automatique","Lavage manuel","Services réparation / entretien","Vente de gaz domestique (Butane, Propane)","Vente d'additifs carburants","Automate CB 24/24"]},{"id":62220002,"lat":50.498,"lng":2.945,"addr":"165 route de Meurchin","city":"CARVIN","cp":"62220","fuels":{"Gazole":{"p":2.189,"d":"2026-04-30"},"E85":{"p":0.749,"d":"2026-04-15"},"E10":{"p":1.999,"d":"2026-04-29"},"SP98":{"p":2.129,"d":"2026-04-30"}},"brand":"Leclerc","h24":true,"services":["Relais colis","Boutique alimentaire","Boutique non alimentaire","Restauration sur place","Bar","Station de gonflage","Location de véhicule","Piste poids lourds","Lavage automatique","Lavage manuel","Services réparation / entretien","Vente de gaz domestique (Butane, Propane)","Bornes électriques","Vente d'additifs carburants","Automate CB 24/24","DAB (Distributeur automatique de billets)"]},{"id":62450006,"lat":50.107243,"lng":2.84654,"addr":"RUE DES FRERES DAVION","city":"Bapaume","cp":"62450","fuels":{"Gazole":{"p":2.162,"d":"2026-04-29"},"SP95":{"p":2.02,"d":"2026-04-30"},"SP98":{"p":2.1,"d":"2026-04-30"}},"brand":"Carrefour","h24":true,"services":["Relais colis","Location de véhicule","Vente de gaz domestique (Butane, Propane)","Wifi","Automate CB 24/24","DAB (Distributeur automatique de billets)"]},{"id":62450005,"lat":50.116,"lng":2.851,"addr":"RN 17 - RUE DU TOUR DE VILLE","city":"BAPAUME","cp":"62450","fuels":{"E85":{"p":0.822,"d":"2026-05-01"},"E10":{"p":1.99,"d":"2026-05-01"}},"brand":"TotalEnergies","h24":true,"services":["Relais colis","Boutique alimentaire","Boutique non alimentaire","Station de gonflage","Carburant additivé","Piste poids lourds","Vente de gaz domestique (Butane, Propane)","Wifi","Automate CB 24/24"]},{"id":62460002,"lat":50.469,"lng":2.503,"addr":"16 RUE PIERRE BACHELET","city":"DIVION","cp":"62460","fuels":{"Gazole":{"p":2.159,"d":"2026-04-30"},"E85":{"p":0.839,"d":"2026-04-30"},"E10":{"p":1.979,"d":"2026-04-30"},"SP98":{"p":2.089,"d":"2026-04-30"}},"brand":"Carrefour","h24":true,"services":["Automate CB 24/24"]},{"id":62220003,"lat":50.483,"lng":2.965,"addr":"Rue du vieux Château","city":"CARVIN","cp":"62220","fuels":{"Gazole":{"p":2.169,"d":"2026-04-28"},"E85":{"p":0.818,"d":"2026-04-28"},"E10":{"p":1.99,"d":"2026-04-28"}},"brand":"Intermarché","services":["Piste poids lourds","Vente de gaz domestique (Butane, Propane)","DAB (Distributeur automatique de billets)"]},{"id":62123005,"lat":50.240930550775,"lng":2.6573450374759,"addr":"9 Rue nationale 25","city":"Beaumetz-lès-Loges","cp":"62123","fuels":{"Gazole":{"p":2.209,"d":"2026-04-29"},"SP95":{"p":2.079,"d":"2026-04-29"},"SP98":{"p":2.119,"d":"2026-04-29"}},"h24":true,"services":["Relais colis","Boutique alimentaire","Vente de pétrole lampant","Vente de gaz domestique (Butane, Propane)","Automate CB 24/24"]},{"id":62260004,"lat":50.507768533812,"lng":2.4784007934858,"addr":"14 RUE DE BAPAUME","city":"AUCHEL","cp":"62260","fuels":{"Gazole":{"p":2.169,"d":"2026-04-29"},"E85":{"p":0.749,"d":"2026-04-16"},"GPLc":{"p":1.05,"d":"2026-04-08"},"E10":{"p":1.999,"d":"2026-04-27"},"SP98":{"p":2.049,"d":"2026-04-27"}},"h24":true,"services":["Laverie","Relais colis","Boutique alimentaire","Boutique non alimentaire","Restauration à emporter","Location de véhicule","Piste poids lourds","GNV","Vente de gaz domestique (Butane, Propane)","Bornes électriques","Automate CB 24/24","DAB (Distributeur automatique de billets)"]},{"id":62128011,"lat":50.199276005712996,"lng":2.8826762228144003,"addr":"21 rue du pont","city":"croisilles","cp":"62128","fuels":{"Gazole":{"p":2.099,"d":"2026-04-22"},"SP95":{"p":2.059,"d":"2026-04-22"},"SP98":{"p":2.079,"d":"2026-04-22"}},"brand":"Carrefour","h24":true,"services":["Relais colis","Vente de gaz domestique (Butane, Propane)","Automate CB 24/24"]},{"id":62880005,"lat":50.459123,"lng":2.88458,"addr":"53 RUE JOSEPH MATTEI","city":"Annay sous Lens","cp":"62880","fuels":{"Gazole":{"p":2.165,"d":"2026-04-28"},"SP95":{"p":2.035,"d":"2026-04-28"},"SP98":{"p":2.11,"d":"2026-04-28"}},"h24":true,"services":["Laverie","Relais colis","Vente de pétrole lampant","Station de gonflage","Lavage automatique","Vente de gaz domestique (Butane, Propane)","Automate CB 24/24"]},{"id":62152006,"lat":50.632119,"lng":1.584391,"addr":"435 AVENUE FRANCOIS 1ER","city":"NEUFCHATEL-HARDELOT","cp":"62152","fuels":{"Gazole":{"p":2.399,"d":"2026-04-11"},"SP95":{"p":2.099,"d":"2026-04-11"},"SP98":{"p":2.199,"d":"2026-04-11"}},"h24":true,"services":["Automate CB 24/24"]},{"id":62600002,"lat":50.4050899239,"lng":1.59571571173,"addr":"940 AVENUE DE VERDUN","city":"BERCK","cp":"62600","fuels":{"Gazole":{"p":2.129,"d":"2026-04-30"},"SP95":{"p":2.009,"d":"2026-04-30"},"E10":{"p":1.949,"d":"2026-04-30"},"SP98":{"p":2.034,"d":"2026-04-24"}},"brand":"Carrefour","services":["Piste poids lourds","Vente de gaz domestique (Butane, Propane)","DAB (Distributeur automatique de billets)"]},{"id":62450004,"lat":50.104,"lng":2.85,"addr":"LIEU DIT LA FABRIQUE A SUCRE","city":"BAPAUME","cp":"62450","fuels":{"Gazole":{"p":2.208,"d":"2026-04-30"},"E85":{"p":0.82,"d":"2026-04-30"},"GPLc":{"p":1.09,"d":"2026-04-30"},"E10":{"p":1.995,"d":"2026-04-30"}},"brand":"Leclerc","h24":true,"services":["Toilettes publiques","Laverie","Relais colis","Boutique alimentaire","Boutique non alimentaire","Location de véhicule","Piste poids lourds","Vente de gaz domestique (Butane, Propane)","Bornes électriques","Wifi","Automate CB 24/24","DAB (Distributeur automatique de billets)"]},{"id":62143002,"lat":50.405,"lng":2.756,"addr":"Route de Souchez","city":"ANGRES","cp":"62143","fuels":{"Gazole":{"p":2.149,"d":"2026-04-28"},"E10":{"p":1.979,"d":"2026-04-28"},"SP98":{"p":2.048,"d":"2026-04-29"}},"brand":"Leclerc","services":["Lavage manuel","Vente de gaz domestique (Butane, Propane)"]},{"id":62800004,"lat":50.418,"lng":2.769,"addr":"69 RUE DE LATTRE DE TASSIGNY","city":"LIEVIN","cp":"62800","fuels":{"Gazole":{"p":2.09,"d":"2026-05-01"},"GPLc":{"p":1.019,"d":"2026-05-01"},"E10":{"p":1.99,"d":"2026-05-01"},"SP98":{"p":1.99,"d":"2026-05-01"}},"brand":"TotalEnergies","h24":true,"services":["Relais colis","Boutique alimentaire","Boutique non alimentaire","Station de gonflage","Carburant additivé","Lavage automatique","Vente de gaz domestique (Butane, Propane)","Automate CB 24/24"]},{"id":62100027,"lat":50.945,"lng":1.827,"addr":"150 AVENUE ROGER SALENGRO","city":"CALAIS","cp":"62100","fuels":{"Gazole":{"p":2.09,"d":"2026-05-01"},"E10":{"p":1.99,"d":"2026-05-01"}},"brand":"TotalEnergies","services":["Toilettes publiques","Boutique alimentaire","Station de gonflage","Carburant additivé","Services réparation / entretien","Vente de gaz domestique (Butane, Propane)","DAB (Distributeur automatique de billets)"]},{"id":62000013,"lat":50.291,"lng":2.784,"addr":"2 RUE DES ROSATI","city":"ARRAS","cp":"62000","fuels":{"Gazole":{"p":2.09,"d":"2026-05-01"},"E85":{"p":0.841,"d":"2026-05-01"},"GPLc":{"p":1.039,"d":"2026-05-01"},"E10":{"p":1.99,"d":"2026-05-01"},"SP98":{"p":1.99,"d":"2026-05-01"}},"brand":"TotalEnergies","h24":true,"services":["Relais colis","Boutique alimentaire","Boutique non alimentaire","Station de gonflage","Carburant additivé","Lavage automatique","Vente de gaz domestique (Butane, Propane)","Vente d'additifs carburants","Wifi","Automate CB 24/24"]},{"id":62660004,"lat":50.523,"lng":2.681,"addr":"195 ROUTE NATIONALE","city":"BEUVRY","cp":"62660","fuels":{"Gazole":{"p":2.09,"d":"2026-05-01"},"E85":{"p":0.842,"d":"2026-05-01"},"E10":{"p":1.99,"d":"2026-05-01"}},"brand":"TotalEnergies","services":["Relais colis","Boutique alimentaire","Station de gonflage","Carburant additivé","Vente de gaz domestique (Butane, Propane)","Wifi"]},{"id":62500005,"lat":50.744,"lng":2.26,"addr":"1, RUE DES MADELEINES","city":"Saint-Omer","cp":"62500","fuels":{"Gazole":{"p":2.09,"d":"2026-05-01"},"E85":{"p":0.882,"d":"2026-05-01"},"E10":{"p":1.99,"d":"2026-05-01"}},"brand":"TotalEnergies","services":["Boutique alimentaire","Boutique non alimentaire","Station de gonflage","Lavage automatique","Vente de gaz domestique (Butane, Propane)","DAB (Distributeur automatique de billets)"]}]