[{"id":66170002,"lat":42.692,"lng":2.691,"addr":"157 AVENUE JEAN JAURES","city":"MILLAS","cp":"66170","fuels":{"Gazole":{"p":2.299,"d":"2026-04-21"},"SP95":{"p":2.119,"d":"2026-04-21"},"SP98":{"p":2.199,"d":"2026-04-21"}},"brand":"Agnel & Fils","services":["Vente de fioul domestique","Lavage automatique","Services réparation / entretien","Vente de gaz domestique (Butane, Propane)","Vente d'additifs carburants"]},{"id":66700003,"lat":42.55,"lng":3.041,"addr":"Avenue du 8 mai 1945","city":"ARGELèS-SUR-MER","cp":"66700","fuels":{"Gazole":{"p":2.229,"d":"2026-04-24"},"SP95":{"p":2.099,"d":"2026-04-30"},"E85":{"p":0.889,"d":"2026-04-30"},"GPLc":{"p":1.119,"d":"2026-04-12"},"SP98":{"p":2.159,"d":"2026-04-30"}},"brand":"Dyneff","services":["Toilettes publiques","Relais colis","Boutique alimentaire","Boutique non alimentaire","Vente de fioul domestique","Vente de pétrole lampant","Station de gonflage","Location de véhicule","Piste poids lourds","Lavage automatique","Lavage manuel","Services réparation / entretien","Vente de gaz domestique (Butane, Propane)"]},{"id":66005001,"lat":42.686492490449,"lng":2.8827135110700004,"addr":"Avenue Victor Dalbiez","city":"Perpignan","cp":"66000","fuels":{"Gazole":{"p":2.169,"d":"2026-04-30"},"SP95":{"p":2.089,"d":"2026-04-30"},"E85":{"p":0.815,"d":"2026-04-30"},"SP98":{"p":2.109,"d":"2026-04-30"}},"brand":"Leclerc","h24":true,"services":["Toilettes publiques","Laverie","Relais colis","Boutique alimentaire","Boutique non alimentaire","Restauration à emporter","Restauration sur place","Vente de pétrole lampant","Station de gonflage","Location de véhicule","Lavage automatique","Lavage manuel","Espace bébé","Services réparation / entretien","Vente de gaz domestique (Butane, Propane)","Automate CB 24/24","DAB (Distributeur automatique de billets)"]},{"id":66028001,"lat":42.668,"lng":2.884,"addr":"AVENUE D'ESPAGNE","city":"PERPIGNAN","cp":"66000","fuels":{"Gazole":{"p":2.169,"d":"2026-04-29"},"E85":{"p":0.815,"d":"2026-04-27"},"GPLc":{"p":1.059,"d":"2026-04-16"},"E10":{"p":1.989,"d":"2026-04-27"},"SP98":{"p":2.109,"d":"2026-04-29"}},"brand":"Auchan","h24":true,"services":["Laverie","Restauration à emporter","Restauration sur place","Station de gonflage","Carburant additivé","Piste poids lourds","Lavage automatique","Lavage manuel","Services réparation / entretien","Vente de gaz domestique (Butane, Propane)","Bornes électriques","Automate CB 24/24","DAB (Distributeur automatique de billets)"]},{"id":66250001,"lat":42.773,"lng":3.011,"addr":"Route du Barcarès","city":"Saint-Laurent-de-la-Salanque","cp":"66250","fuels":{"Gazole":{"p":2.09,"d":"2026-05-01"},"E10":{"p":1.99,"d":"2026-04-22"},"SP98":{"p":1.99,"d":"2026-04-30"}},"brand":"TotalEnergies","h24":true,"services":["Boutique alimentaire","Boutique non alimentaire","Vente de fioul domestique","Station de gonflage","Carburant additivé","Piste poids lourds","Lavage automatique","Lavage manuel","Services réparation / entretien","Vente de gaz domestique (Butane, Propane)","Vente d'additifs carburants","Automate CB 24/24"]},{"id":66510001,"lat":42.46292,"lng":2.63868,"addr":"Route d'Amélie les Bains","city":"Arles-sur-Tech","cp":"66150","fuels":{"Gazole":{"p":2.09,"d":"2026-04-30"},"E85":{"p":1.059,"d":"2026-04-30"},"E10":{"p":1.99,"d":"2026-04-21"},"SP98":{"p":1.99,"d":"2026-04-21"}},"brand":"TotalEnergies","services":["Boutique alimentaire","Boutique non alimentaire","Vente de fioul domestique","Station de gonflage","Carburant additivé","Piste poids lourds","Lavage automatique","Lavage manuel","Services réparation / entretien","DAB (Distributeur automatique de billets)"]},{"id":66420003,"lat":42.824,"lng":3.035,"addr":"Avenue du Roussillon","city":"LE BARCARèS","cp":"66420","fuels":{"Gazole":{"p":2.259,"d":"2026-04-28"},"E85":{"p":0.876,"d":"2026-04-28"},"E10":{"p":2.033,"d":"2026-04-28"},"SP98":{"p":2.118,"d":"2026-04-28"}},"brand":"Montaner et Fils","h24":true,"services":["Laverie","Station de gonflage","Carburant additivé","Lavage automatique","Lavage manuel","Services réparation / entretien","Bornes électriques","Automate CB 24/24"]},{"id":66740003,"lat":42.548,"lng":2.941,"addr":"ROUTE D ARGELES","city":"Laroque-des-Albères","cp":"66740","fuels":{"Gazole":{"p":2.139,"d":"2026-04-29"},"SP95":{"p":2.035,"d":"2026-04-29"},"E10":{"p":1.975,"d":"2026-04-29"},"SP98":{"p":2.139,"d":"2026-04-29"}},"brand":"Carrefour","services":["DAB (Distributeur automatique de billets)"]},{"id":66200001,"lat":42.607,"lng":2.977,"addr":"10, Boulevard Jacques Albert","city":"ELNE","cp":"66200","fuels":{"Gazole":{"p":2.199,"d":"2026-04-27"},"E10":{"p":1.999,"d":"2026-04-27"},"SP98":{"p":2.139,"d":"2026-04-27"}},"brand":"Intermarché","services":["Laverie","Boutique alimentaire","Boutique non alimentaire","Station de gonflage","Lavage automatique","Lavage manuel","Vente de gaz domestique (Butane, Propane)","DAB (Distributeur automatique de billets)"]},{"id":66300013,"lat":42.578357582464,"lng":2.8474529225529004,"addr":"A9 - AIRE DES VILLAGES CATALANS","city":"Banyuls-dels-Aspres","cp":"66300","fuels":{"Gazole":{"p":2.459,"d":"2026-04-30"},"GPLc":{"p":1.161,"d":"2026-04-30"},"E10":{"p":2.179,"d":"2026-04-30"},"SP98":{"p":2.314,"d":"2026-04-30"}},"brand":"Rompetrol","services":["Toilettes publiques","Douches","Boutique alimentaire","Boutique non alimentaire","Station de gonflage","Carburant additivé","Aire de camping-cars","Piste poids lourds","Espace bébé","Vente d'additifs carburants","Wifi"]},{"id":66210005,"lat":42.507,"lng":2.123,"addr":"3 RD 66","city":"LA CABANASSE / MONT LOUIS","cp":"66210","fuels":{"Gazole":{"p":2.39,"d":"2026-04-03"},"SP95":{"p":2.2,"d":"2026-03-20"},"E85":{"p":0.892,"d":"2026-03-11"}},"brand":"Dyneff","h24":true,"services":["Boutique non alimentaire","Restauration à emporter","Restauration sur place","Bar","Piste poids lourds","Vente d'additifs carburants","Automate CB 24/24"]},{"id":66962001,"lat":42.701,"lng":2.944,"addr":"route de canet","city":"PERPIGNAN","cp":"66000","fuels":{"Gazole":{"p":2.111,"d":"2026-04-30"},"SP95":{"p":1.957,"d":"2026-04-30"},"E85":{"p":0.815,"d":"2026-04-30"},"E10":{"p":1.945,"d":"2026-04-30"},"SP98":{"p":2.052,"d":"2026-04-30"}},"brand":"Carrefour","h24":true,"services":["Automate CB 24/24"]},{"id":66530001,"lat":42.777,"lng":2.917,"addr":"Route du Barcares","city":"CLAIRA","cp":"66530","fuels":{"Gazole":{"p":2.169,"d":"2026-04-30"},"SP95":{"p":2.089,"d":"2026-04-30"},"GPLc":{"p":1.099,"d":"2026-04-25"},"E10":{"p":2.016,"d":"2026-04-30"},"SP98":{"p":2.109,"d":"2026-04-30"}},"brand":"Carrefour","h24":true,"services":["Piste poids lourds","Vente de gaz domestique (Butane, Propane)","Automate CB 24/24"]},{"id":66420001,"lat":42.78737,"lng":3.0349,"addr":"BOULEVARD DU 14 JUILLET","city":"LE BARCARèS","cp":"66420","fuels":{"Gazole":{"p":2.179,"d":"2026-04-29"},"E10":{"p":1.999,"d":"2026-04-29"},"SP98":{"p":2.099,"d":"2026-04-29"}},"brand":"Montaner et Fils","services":["Vente de gaz domestique (Butane, Propane)","DAB (Distributeur automatique de billets)"]},{"id":66270004,"lat":42.686090286948,"lng":2.8171065594274998,"addr":"ZA SAINTE EUGENIE","city":"LE SOLER","cp":"66270","fuels":{"Gazole":{"p":2.198,"d":"2026-04-29"},"E10":{"p":2.034,"d":"2026-04-29"},"SP98":{"p":2.193,"d":"2026-04-29"}},"brand":"Carrefour","services":["Relais colis","Vente de gaz domestique (Butane, Propane)"]},{"id":66420002,"lat":42.787,"lng":3.035,"addr":"Boulevard du 14 Juillet","city":"LE BARCARèS","cp":"66420","fuels":{"Gazole":{"p":2.299,"d":"2026-04-28"},"E10":{"p":1.978,"d":"2026-04-28"},"SP98":{"p":1.999,"d":"2026-04-28"}},"brand":"Système U","services":["Toilettes publiques","Boutique non alimentaire","Station de gonflage","Carburant additivé","Lavage automatique","Lavage manuel","Services réparation / entretien","Vente de gaz domestique (Butane, Propane)","DAB (Distributeur automatique de billets)"]},{"id":66330002,"lat":42.692,"lng":2.92,"addr":"4 Rue Louis Joseph Gay-Lussac","city":"Cabestany","cp":"66330","fuels":{"Gazole":{"p":2.127,"d":"2026-04-29"},"SP95":{"p":2.01,"d":"2026-04-29"},"E85":{"p":0.819,"d":"2026-04-17"},"E10":{"p":1.956,"d":"2026-04-29"}},"brand":"Intermarché","h24":true,"services":["Laverie","Relais colis","Restauration sur place","Vente de pétrole lampant","Station de gonflage","Location de véhicule","Lavage automatique","Lavage manuel","Vente de gaz domestique (Butane, Propane)","Automate CB 24/24","DAB (Distributeur automatique de billets)"]},{"id":66000003,"lat":42.684,"lng":2.865,"addr":"2060 Avenue Julien Panchot","city":"PERPIGNAN","cp":"66000","fuels":{"Gazole":{"p":2.239,"d":"2026-04-30"},"E10":{"p":2.039,"d":"2026-04-30"},"SP98":{"p":2.199,"d":"2026-04-30"}},"brand":"Dyneff","services":["Piste poids lourds","Lavage automatique","DAB (Distributeur automatique de billets)"]},{"id":66650002,"lat":42.48173,"lng":3.12928,"addr":"RN 114 ZAC DE LA RECTORIE","city":"BANYULS-SUR-MER","cp":"66650","fuels":{"Gazole":{"p":2.195,"d":"2026-04-28"},"E10":{"p":1.999,"d":"2026-04-28"},"SP98":{"p":2.139,"d":"2026-04-28"}},"brand":"Carrefour"},{"id":66210004,"lat":42.514676682713,"lng":2.0621731288780003,"addr":"D618, route de la forêt","city":"Bolquère","cp":"66210","fuels":{"Gazole":{"p":2.119,"d":"2026-04-21"},"E10":{"p":1.969,"d":"2026-04-21"},"SP98":{"p":2.079,"d":"2026-04-21"}},"brand":"Intermarché","h24":true,"services":["Relais colis","Boutique alimentaire","Boutique non alimentaire","Restauration à emporter","Restauration sur place","Station de gonflage","Vente de gaz domestique (Butane, Propane)","Automate CB 24/24","DAB (Distributeur automatique de billets)"]},{"id":66250003,"lat":42.774,"lng":2.998,"addr":"AVENUE DE LA COTE VERMEILLE","city":"SAINT-LAURENT-DE-LA-SALANQUE","cp":"66250","fuels":{"Gazole":{"p":2.37,"d":"2026-04-15"},"SP95":{"p":2.11,"d":"2026-04-15"}},"brand":"OIL!","services":["Toilettes publiques","Boutique non alimentaire","Station de gonflage","Location de véhicule","Services réparation / entretien","Vente de gaz domestique (Butane, Propane)"]},{"id":66120001,"lat":42.498,"lng":2.013,"addr":"ROND POINT D'EGAT","city":"ÉGAT","cp":"66120","fuels":{"Gazole":{"p":2.119,"d":"2026-04-21"},"E85":{"p":0.949,"d":"2026-04-09"},"E10":{"p":1.999,"d":"2026-04-09"},"SP98":{"p":2.079,"d":"2026-04-22"}},"brand":"SuperU","h24":true,"services":["Laverie","Vente de pétrole lampant","Station de gonflage","Location de véhicule","Lavage automatique","Lavage manuel","Vente de gaz domestique (Butane, Propane)","Bornes électriques","Vente d'additifs carburants","Wifi","Automate CB 24/24","DAB (Distributeur automatique de billets)"]},{"id":66600002,"lat":42.78,"lng":2.899,"addr":"2 RUE JEANNE BARRET-MASGARRIGUE SUD","city":"RIVESALTES","cp":"66600","fuels":{"Gazole":{"p":2.09,"d":"2026-05-01"},"E85":{"p":0.849,"d":"2026-05-01"},"E10":{"p":1.99,"d":"2026-05-01"},"SP98":{"p":1.99,"d":"2026-05-01"}},"brand":"TotalEnergies","services":["Boutique alimentaire","Boutique non alimentaire","Station de gonflage","Carburant additivé","Piste poids lourds","Lavage automatique","Lavage manuel","Bornes électriques"]},{"id":66300012,"lat":42.631,"lng":2.762,"addr":"1 AVENUE COTE VERMEILLE","city":"THUIR","cp":"66300","fuels":{"Gazole":{"p":2.109,"d":"2026-04-24"},"E10":{"p":1.999,"d":"2026-04-17"},"SP98":{"p":2.121,"d":"2026-04-08"}},"brand":"Netto","services":["Laverie","Boutique alimentaire","Boutique non alimentaire","Station de gonflage","Location de véhicule","Lavage automatique","Lavage manuel","Vente de gaz domestique (Butane, Propane)","DAB (Distributeur automatique de billets)"]},{"id":66700007,"lat":42.575,"lng":3.035,"addr":"5 ROUTE DU LITTORAL","city":"Argelès-sur-Mer","cp":"66700","fuels":{"Gazole":{"p":2.09,"d":"2026-04-30"},"E85":{"p":0.859,"d":"2026-04-30"},"E10":{"p":1.99,"d":"2026-04-22"}},"brand":"TotalEnergies","h24":true,"services":["Carburant additivé","Automate CB 24/24"]},{"id":66240001,"lat":42.717,"lng":2.839,"addr":"8 Boulevard du Canigou","city":"SAINT-ESTèVE","cp":"66240","fuels":{"Gazole":{"p":2.199,"d":"2026-04-21"},"SP95":{"p":2.089,"d":"2026-04-25"},"E10":{"p":2.029,"d":"2026-04-25"}},"brand":"Intermarché","h24":true,"services":["Toilettes publiques","Laverie","Boutique alimentaire","Station de gonflage","Location de véhicule","Lavage automatique","Vente de gaz domestique (Butane, Propane)","Automate CB 24/24","DAB (Distributeur automatique de billets)"]},{"id":66140003,"lat":42.700202999999995,"lng":3.020355,"addr":"Centre commercial les alizées","city":"Canet-en-Roussillon","cp":"66140","fuels":{"Gazole":{"p":2.199,"d":"2026-04-28"},"E85":{"p":0.818,"d":"2026-04-20"},"E10":{"p":1.99,"d":"2026-04-24"},"SP98":{"p":2.149,"d":"2026-04-28"}},"brand":"Intermarché","h24":true,"services":["Station de gonflage","Bornes électriques","Automate CB 24/24"]},{"id":66500001,"lat":42.625,"lng":2.428,"addr":"Grande Rocade","city":"Prades","cp":"66500","fuels":{"Gazole":{"p":2.179,"d":"2026-04-22"},"E85":{"p":0.729,"d":"2026-04-21"},"E10":{"p":2.029,"d":"2026-04-28"},"SP98":{"p":2.099,"d":"2026-04-28"}},"brand":"Système U","h24":true,"services":["Toilettes publiques","Laverie","Relais colis","Boutique alimentaire","Boutique non alimentaire","Restauration à emporter","Restauration sur place","Bar","Vente de pétrole lampant","Station de gonflage","Location de véhicule","Piste poids lourds","Lavage automatique","Lavage manuel","Services réparation / entretien","Vente de gaz domestique (Butane, Propane)","Automate CB 24/24","DAB (Distributeur automatique de billets)"]},{"id":66170001,"lat":42.693,"lng":2.687,"addr":"Route de Prades","city":"Millas","cp":"66170","fuels":{"Gazole":{"p":2.199,"d":"2026-04-30"},"E85":{"p":0.818,"d":"2026-04-30"},"E10":{"p":2.027,"d":"2026-04-30"},"SP98":{"p":2.137,"d":"2026-04-30"}},"brand":"Groupement des Mousquetaires","h24":true,"services":["Relais colis","Restauration à emporter","Vente de gaz domestique (Butane, Propane)","Automate CB 24/24"]},{"id":66600001,"lat":42.7577057024,"lng":2.8656329183900002,"addr":"Avenue de l'aéroport","city":"RIVESALTES","cp":"66600","fuels":{"Gazole":{"p":2.139,"d":"2026-04-30"},"E85":{"p":0.818,"d":"2026-04-30"},"E10":{"p":1.989,"d":"2026-04-30"}},"brand":"Intermarché","services":["Lavage manuel","Vente de gaz domestique (Butane, Propane)","DAB (Distributeur automatique de billets)"]},{"id":66130002,"lat":42.677,"lng":2.634,"addr":"C.COMMERCIAL DU RIBERAL","city":"ILLE-SUR-TêT","cp":"66130","fuels":{"Gazole":{"p":2.19,"d":"2026-04-23"},"E85":{"p":0.729,"d":"2026-04-29"},"GPLc":{"p":1.099,"d":"2026-04-18"},"E10":{"p":1.999,"d":"2026-04-29"},"SP98":{"p":2.07,"d":"2026-04-23"}},"brand":"Système U","h24":true,"services":["Toilettes publiques","Laverie","Relais colis","Vente de pétrole lampant","Station de gonflage","Carburant additivé","Aire de camping-cars","Location de véhicule","Piste poids lourds","Lavage automatique","Lavage manuel","Vente de gaz domestique (Butane, Propane)","Bornes électriques","Vente d'additifs carburants","Automate CB 24/24","DAB (Distributeur automatique de billets)"]},{"id":66160004,"lat":42.5331814,"lng":2.8392185999999997,"addr":"9 Carrer d'en cavailles","city":"Le Boulou","cp":"66160","fuels":{"Gazole":{"p":2.09,"d":"2026-04-30"},"E10":{"p":1.99,"d":"2026-04-27"},"SP98":{"p":1.99,"d":"2026-04-08"}},"brand":"TotalEnergies","h24":true,"services":["Station de gonflage","Piste poids lourds","Lavage automatique","Lavage manuel","Automate CB 24/24"]},{"id":66000018,"lat":42.677771792859,"lng":2.8906260773837995,"addr":"ROUTE D ESPAGNE","city":"PERPIGNAN","cp":"66000","fuels":{"Gazole":{"p":2.09,"d":"2026-05-01"},"E85":{"p":0.853,"d":"2026-05-01"},"GPLc":{"p":1.069,"d":"2026-05-01"},"E10":{"p":1.99,"d":"2026-05-01"}},"brand":"TotalEnergies","h24":true,"services":["Boutique alimentaire","Boutique non alimentaire","Station de gonflage","Carburant additivé","Lavage automatique","Vente d'additifs carburants","Wifi","Automate CB 24/24"]},{"id":66330001,"lat":42.658,"lng":2.952,"addr":"Avenue de Perpignan","city":"SALEILLES","cp":"66280","fuels":{"Gazole":{"p":2.09,"d":"2026-05-01"},"E10":{"p":1.99,"d":"2026-04-21"},"SP98":{"p":1.99,"d":"2026-04-21"}},"brand":"TotalEnergies","h24":true,"services":["Vente de fioul domestique","Station de gonflage","Carburant additivé","Piste poids lourds","Lavage automatique","Services réparation / entretien","Vente de gaz domestique (Butane, Propane)","Automate CB 24/24","DAB (Distributeur automatique de billets)"]},{"id":66200002,"lat":42.607883503923,"lng":2.9237131744831997,"addr":"RD 612 - le pain de sucre","city":"MONTESCOT","cp":"66200","fuels":{"Gazole":{"p":2.219,"d":"2026-04-27"},"E85":{"p":0.819,"d":"2026-04-27"},"E10":{"p":2.049,"d":"2026-04-27"},"SP98":{"p":2.169,"d":"2026-04-27"}},"brand":"Intermarché","services":["Station de gonflage","Location de véhicule","Lavage automatique","Lavage manuel","Vente de gaz domestique (Butane, Propane)","DAB (Distributeur automatique de billets)"]},{"id":66660002,"lat":42.514,"lng":3.104,"addr":"ROUTE DE LA GARE","city":"Port-Vendres","cp":"66660","fuels":{"Gazole":{"p":2.406,"d":"2026-04-28"},"E85":{"p":0.758,"d":"2026-04-28"},"E10":{"p":2.069,"d":"2026-04-28"},"SP98":{"p":2.179,"d":"2026-04-28"}},"brand":"U","h24":true,"services":["Laverie","Station de gonflage","Lavage automatique","Vente de gaz domestique (Butane, Propane)","Automate CB 24/24"]},{"id":66270001,"lat":42.686,"lng":2.813,"addr":"Avenue Jean Jaurès","city":"Le Soler","cp":"66270","fuels":{"Gazole":{"p":2.181,"d":"2026-04-27"},"E10":{"p":2.027,"d":"2026-04-25"}},"brand":"Intermarché","h24":true,"services":["Station de gonflage","Lavage automatique","Vente de gaz domestique (Butane, Propane)","Automate CB 24/24"]},{"id":66750004,"lat":42.636,"lng":3.034,"addr":"74 BOULEVARD DESNOYER","city":"Saint-Cyprien","cp":"66750","fuels":{"Gazole":{"p":2.09,"d":"2026-05-01"},"E85":{"p":0.849,"d":"2026-05-01"},"E10":{"p":1.99,"d":"2026-05-01"},"SP98":{"p":1.99,"d":"2026-05-01"}},"brand":"TotalEnergies","services":["Boutique alimentaire","Boutique non alimentaire","Restauration à emporter","Station de gonflage","Carburant additivé","Lavage automatique","Vente de gaz domestique (Butane, Propane)"]},{"id":66000010,"lat":42.689,"lng":2.894,"addr":"43 Avenue du Général Guillaut","city":"Perpignan","cp":"66000","fuels":{"Gazole":{"p":2.201,"d":"2026-05-01"},"E85":{"p":0.945,"d":"2026-05-01"},"E10":{"p":1.999,"d":"2026-05-01"},"SP98":{"p":2.079,"d":"2026-05-01"}},"brand":"Esso"},{"id":66380001,"lat":42.749,"lng":2.895,"addr":"KM 6 ROUTE NATIONALE 9","city":"Pia","cp":"66380","fuels":{"Gazole":{"p":2.25,"d":"2026-04-30"},"E10":{"p":1.99,"d":"2026-04-30"},"SP98":{"p":2.07,"d":"2026-04-30"}},"brand":"Esso"},{"id":66000020,"lat":42.726622344591,"lng":2.8992196288361,"addr":"Impasse Jacques de Noëll","city":"PERPIGNAN","cp":"66000","fuels":{"Gazole":{"p":2.18,"d":"2026-04-29"},"E85":{"p":0.879,"d":"2026-04-14"},"E10":{"p":1.99,"d":"2026-04-28"},"SP98":{"p":1.99,"d":"2026-04-14"}},"brand":"TotalEnergies","h24":true,"services":["Station de gonflage","Carburant additivé","Piste poids lourds","Lavage automatique","Lavage manuel","Automate CB 24/24","DAB (Distributeur automatique de billets)"]},{"id":66300015,"lat":42.626,"lng":2.767,"addr":"DEP 612 - LIEU DIT LE SALAOU","city":"LLUPIA","cp":"66300","fuels":{"Gazole":{"p":2.183,"d":"2026-04-27"},"E85":{"p":0.818,"d":"2026-04-27"},"E10":{"p":1.999,"d":"2026-04-27"},"SP98":{"p":2.121,"d":"2026-04-16"}},"brand":"Intermarché","h24":true,"services":["Toilettes publiques","Laverie","Boutique alimentaire","Restauration sur place","Station de gonflage","Location de véhicule","Piste poids lourds","Lavage automatique","Lavage manuel","Vente de gaz domestique (Butane, Propane)","Automate CB 24/24","DAB (Distributeur automatique de billets)"]},{"id":66000012,"lat":42.689,"lng":2.878,"addr":"855 Avenue Julien Panchot","city":"PERPIGNAN","cp":"66000","fuels":{"Gazole":{"p":2.264,"d":"2026-04-30"},"SP95":{"p":2.11,"d":"2026-04-30"},"E10":{"p":2.068,"d":"2026-04-30"}},"brand":"Petrop","services":["Boutique alimentaire","Boutique non alimentaire","Restauration à emporter","Vente de pétrole lampant","Station de gonflage","Piste poids lourds","Lavage automatique","Lavage manuel","Vente de gaz domestique (Butane, Propane)","Vente d'additifs carburants"]},{"id":66690001,"lat":42.553,"lng":2.977,"addr":"CD 618 LIEU DIT COULOUMES","city":"Saint-André","cp":"66690","fuels":{"Gazole":{"p":2.219,"d":"2026-04-28"},"E85":{"p":0.818,"d":"2026-04-17"},"E10":{"p":2.039,"d":"2026-04-27"},"SP98":{"p":2.159,"d":"2026-04-28"}},"brand":"Intermarché","h24":true,"services":["Laverie","Relais colis","Boutique alimentaire","Boutique non alimentaire","Station de gonflage","Lavage automatique","Vente de gaz domestique (Butane, Propane)","Bornes électriques","Wifi","Automate CB 24/24","DAB (Distributeur automatique de billets)"]},{"id":66220001,"lat":42.809,"lng":2.5,"addr":"Lotissement le Pla","city":"SAINT-PAUL-DE-FENOUILLET","cp":"66220","fuels":{"Gazole":{"p":2.159,"d":"2026-04-30"},"E10":{"p":1.999,"d":"2026-04-30"},"SP98":{"p":2.119,"d":"2026-04-30"}},"brand":"Carrefour","services":["Vente de gaz domestique (Butane, Propane)","DAB (Distributeur automatique de billets)"]},{"id":66624001,"lat":42.716,"lng":2.844,"addr":"14 rue des grillons","city":"Saint-Estève","cp":"66240","fuels":{"Gazole":{"p":2.35,"d":"2026-04-30"},"SP95":{"p":2.2,"d":"2026-04-30"},"E85":{"p":0.89,"d":"2026-04-30"},"SP98":{"p":2.26,"d":"2026-04-30"}},"brand":"Dyneff","services":["Boutique non alimentaire","Station de gonflage","Lavage automatique","Lavage manuel","DAB (Distributeur automatique de billets)"]},{"id":66530002,"lat":42.777,"lng":2.951,"addr":"RD 83 borne 12","city":"CLAIRA","cp":"66530","fuels":{"Gazole":{"p":2.166,"d":"2026-04-21"},"E85":{"p":0.899,"d":"2026-04-09"},"E10":{"p":1.989,"d":"2026-04-30"}},"brand":"Esso","h24":true,"services":["Carburant additivé","Piste poids lourds","Automate CB 24/24"]},{"id":66201001,"lat":42.611,"lng":2.962,"addr":"72 ROUTE DE PERPIGNAN","city":"Elne","cp":"66200","fuels":{"Gazole":{"p":2.25,"d":"2026-04-30"},"SP95":{"p":2.15,"d":"2026-04-03"},"E10":{"p":2.062,"d":"2026-03-24"}},"brand":"Dyneff","h24":true,"services":["Toilettes publiques","Boutique alimentaire","Boutique non alimentaire","Vente de pétrole lampant","Station de gonflage","Piste poids lourds","Automate CB 24/24"]},{"id":66160001,"lat":42.532,"lng":2.84,"addr":"Route de Perpignan","city":"LE BOULOU","cp":"66160","fuels":{"Gazole":{"p":2.139,"d":"2026-04-30"},"E85":{"p":0.815,"d":"2026-04-30"},"E10":{"p":2.017,"d":"2026-04-30"},"SP98":{"p":2.048,"d":"2026-04-30"}},"brand":"Leclerc","h24":true,"services":["Toilettes publiques","Laverie","Station de gonflage","Piste poids lourds","Vente de gaz domestique (Butane, Propane)","Automate CB 24/24","DAB (Distributeur automatique de billets)"]},{"id":66000005,"lat":42.71,"lng":2.885,"addr":"21 Boulevard Docteur Joseph Dénoyes","city":"PERPIGNAN","cp":"66000","fuels":{"Gazole":{"p":2.179,"d":"2026-04-30"},"SP95":{"p":2.099,"d":"2026-04-30"},"E10":{"p":2.059,"d":"2026-04-30"},"SP98":{"p":2.139,"d":"2026-04-30"}},"brand":"Système U","h24":true,"services":["Carburant additivé","Automate CB 24/24"]},{"id":66450001,"lat":42.641,"lng":2.877,"addr":"Lieu dit La Devèze","city":"POLLESTRES","cp":"66450","fuels":{"Gazole":{"p":2.199,"d":"2026-04-22"},"SP95":{"p":2.099,"d":"2026-04-17"},"E85":{"p":0.819,"d":"2026-04-28"},"E10":{"p":2.049,"d":"2026-04-30"}},"brand":"Intermarché","h24":true,"services":["Laverie","Relais colis","Restauration à emporter","Restauration sur place","Station de gonflage","Location de véhicule","Piste poids lourds","Lavage automatique","Lavage manuel","Vente de gaz domestique (Butane, Propane)","Automate CB 24/24","DAB (Distributeur automatique de billets)"]},{"id":66430002,"lat":42.721427735008,"lng":2.9340018281029003,"addr":"ROUTE DE TORREILLES","city":"BOMPAS","cp":"66430","fuels":{"Gazole":{"p":2.189,"d":"2026-04-27"},"SP95":{"p":2.089,"d":"2026-04-29"},"SP98":{"p":2.139,"d":"2026-04-29"}},"brand":"Système U","services":["Vente de gaz domestique (Butane, Propane)"]},{"id":66250002,"lat":42.774,"lng":3.014,"addr":"Route du Barcarès","city":"Saint-Laurent-de-la-Salanque","cp":"66250","fuels":{"Gazole":{"p":2.139,"d":"2026-04-30"},"E85":{"p":0.818,"d":"2026-04-30"},"E10":{"p":1.989,"d":"2026-04-30"}},"brand":"Intermarché","h24":true,"services":["Toilettes publiques","Laverie","Boutique alimentaire","Restauration à emporter","Station de gonflage","Location de véhicule","Piste poids lourds","Lavage automatique","Lavage manuel","Vente de gaz domestique (Butane, Propane)","Bornes électriques","Wifi","Automate CB 24/24","DAB (Distributeur automatique de billets)"]},{"id":66200003,"lat":42.609517496565005,"lng":3.0095001852417,"addr":"avenue de Saint Cyprien","city":"Latour-Bas-Elne","cp":"66200","fuels":{"Gazole":{"p":2.209,"d":"2026-04-29"},"E85":{"p":0.818,"d":"2026-04-29"},"E10":{"p":2.029,"d":"2026-04-29"},"SP98":{"p":2.149,"d":"2026-04-29"}},"brand":"Intermarché","services":["Laverie","Boutique alimentaire","Boutique non alimentaire","Location de véhicule","Vente de gaz domestique (Butane, Propane)","DAB (Distributeur automatique de billets)"]},{"id":66000021,"lat":42.666794065493,"lng":2.8953289633491,"addr":"AVENUE ANDRE TOURNE","city":"PERPIGNAN","cp":"66000","fuels":{"Gazole":{"p":2.09,"d":"2026-04-30"},"E10":{"p":1.99,"d":"2026-04-27"},"SP98":{"p":1.99,"d":"2026-04-14"}},"brand":"TotalEnergies","h24":true,"services":["Automate CB 24/24"]},{"id":66300014,"lat":42.64,"lng":2.757,"addr":"chemin de Camalens av de la padrouze","city":"THUIR","cp":"66300","fuels":{"Gazole":{"p":2.195,"d":"2026-04-29"},"E85":{"p":0.799,"d":"2026-04-29"},"E10":{"p":2.027,"d":"2026-04-29"},"SP98":{"p":2.109,"d":"2026-04-29"}},"brand":"Système U","h24":true,"services":["Laverie","Relais colis","Boutique alimentaire","Boutique non alimentaire","Restauration à emporter","Restauration sur place","Bar","Station de gonflage","Location de véhicule","Piste poids lourds","Lavage automatique","Lavage manuel","Services réparation / entretien","Vente de gaz domestique (Butane, Propane)","Vente d'additifs carburants","Automate CB 24/24","DAB (Distributeur automatique de billets)"]},{"id":66680001,"lat":42.663,"lng":2.846,"addr":"Rue Couloumine","city":"Canohès","cp":"66680","fuels":{"Gazole":{"p":2.229,"d":"2026-04-28"},"E85":{"p":0.818,"d":"2026-04-28"},"E10":{"p":2.059,"d":"2026-04-28"},"SP98":{"p":2.179,"d":"2026-04-28"}},"brand":"Intermarché","h24":true,"services":["Toilettes publiques","Laverie","Relais colis","Restauration à emporter","Restauration sur place","Lavage automatique","Vente de gaz domestique (Butane, Propane)","Bornes électriques","Wifi","Automate CB 24/24","DAB (Distributeur automatique de billets)"]},{"id":66000016,"lat":42.679,"lng":2.852,"addr":"3170, Avenue Julien Panchot","city":"Perpignan","cp":"66000","fuels":{"Gazole":{"p":2.185,"d":"2026-04-29"},"E85":{"p":0.879,"d":"2026-04-14"},"E10":{"p":1.99,"d":"2026-04-28"},"SP98":{"p":1.99,"d":"2026-04-14"}},"brand":"TotalEnergies","services":["Boutique alimentaire","Restauration à emporter","Restauration sur place","Station de gonflage","Carburant additivé","Piste poids lourds","DAB (Distributeur automatique de billets)"]},{"id":66300017,"lat":42.591422,"lng":2.842523,"addr":"1 RUE DE LA COMMANDERIE","city":"VILLEMOLAQUE","cp":"66300","fuels":{"Gazole":{"p":2.255,"d":"2026-05-01"},"E10":{"p":2.059,"d":"2026-05-01"}},"brand":"Carrefour"},{"id":66200005,"lat":42.609543969102,"lng":2.9985217187759,"addr":"Zac des Aspres - Av. Lou Torrent","city":"Latour-Bas-Elne","cp":"66200","fuels":{"Gazole":{"p":2.243,"d":"2026-04-29"},"E10":{"p":2.029,"d":"2026-04-29"},"SP98":{"p":2.149,"d":"2026-04-29"}},"brand":"Auchan","h24":true,"services":["Station de gonflage","Aire de camping-cars","Vente de gaz domestique (Butane, Propane)","Automate CB 24/24","DAB (Distributeur automatique de billets)"]},{"id":66400004,"lat":42.501,"lng":2.758,"addr":"3 rue Batère","city":"CéRET","cp":"66400","fuels":{"Gazole":{"p":2.129,"d":"2026-04-30"},"E85":{"p":0.818,"d":"2026-04-28"},"E10":{"p":1.983,"d":"2026-04-30"},"SP98":{"p":2.047,"d":"2026-04-30"}},"brand":"Intermarché","h24":true,"services":["Toilettes publiques","Laverie","Relais colis","Station de gonflage","Location de véhicule","Piste poids lourds","Lavage automatique","Lavage manuel","Vente de gaz domestique (Butane, Propane)","Wifi","Automate CB 24/24","DAB (Distributeur automatique de billets)"]},{"id":66140002,"lat":42.707,"lng":3.015,"addr":"2 Boulevard Las Bigues","city":"Canet-en-Roussillon","cp":"66140","fuels":{"Gazole":{"p":2.199,"d":"2026-04-28"},"E85":{"p":0.818,"d":"2026-04-20"},"E10":{"p":1.99,"d":"2026-04-28"},"SP98":{"p":2.149,"d":"2026-04-28"}},"brand":"Intermarché","h24":true,"services":["Lavage automatique","Vente de gaz domestique (Butane, Propane)","Automate CB 24/24","DAB (Distributeur automatique de billets)"]},{"id":66700001,"lat":42.557,"lng":3.01,"addr":"ROUTE DE PERPIGNAN","city":"ARGELèS-SUR-MER","cp":"66700","fuels":{"Gazole":{"p":2.139,"d":"2026-04-29"},"SP95":{"p":2.035,"d":"2026-04-29"},"E10":{"p":1.975,"d":"2026-04-29"}},"brand":"Intermarché","services":["Toilettes publiques","Boutique alimentaire","Boutique non alimentaire","Restauration à emporter","Restauration sur place","Station de gonflage","Location de véhicule","Vente de gaz domestique (Butane, Propane)","DAB (Distributeur automatique de billets)"]},{"id":66000006,"lat":42.692,"lng":2.842,"addr":"3387 Avenue de Prades","city":"Perpignan","cp":"66000","fuels":{"Gazole":{"p":2.25,"d":"2026-04-08"},"E10":{"p":1.99,"d":"2026-03-20"},"SP98":{"p":1.99,"d":"2026-03-20"}},"brand":"TotalEnergies","services":["Boutique alimentaire","Boutique non alimentaire","Carburant additivé","Piste poids lourds","Vente de gaz domestique (Butane, Propane)"]},{"id":66962002,"lat":42.742,"lng":2.892,"addr":"2130 avenue du Languedoc","city":"Perpignan","cp":"66962","fuels":{"Gazole":{"p":2.169,"d":"2026-04-29"},"SP95":{"p":2.089,"d":"2026-04-29"},"E85":{"p":0.849,"d":"2026-04-13"},"GPLc":{"p":1.099,"d":"2026-04-08"},"SP98":{"p":2.109,"d":"2026-04-29"}},"brand":"Leclerc","h24":true,"services":["Laverie","Vente de pétrole lampant","Station de gonflage","Piste poids lourds","Vente de gaz domestique (Butane, Propane)","Automate CB 24/24","DAB (Distributeur automatique de billets)"]},{"id":66820001,"lat":42.557,"lng":2.384,"addr":"Avenue Clemenceau","city":"VERNET-LES-BAINS","cp":"66820","fuels":{"Gazole":{"p":2.198,"d":"2026-04-27"},"E10":{"p":2.029,"d":"2026-05-01"},"SP98":{"p":2.098,"d":"2026-04-27"}},"brand":"Groupement des Mousquetaires","h24":true,"services":["Laverie","Relais colis","Boutique alimentaire","Boutique non alimentaire","Vente de pétrole lampant","Station de gonflage","Aire de camping-cars","Location de véhicule","Lavage automatique","Lavage manuel","Vente de gaz domestique (Butane, Propane)","Bornes électriques","Wifi","Automate CB 24/24","DAB (Distributeur automatique de billets)"]},{"id":66360001,"lat":42.553539623093,"lng":2.2678783322119,"addr":"109 avenue du général de gaulle","city":"Olette","cp":"66360","fuels":{"Gazole":{"p":2.369,"d":"2026-04-30"},"E10":{"p":2.079,"d":"2026-04-30"}},"brand":"Dineff"},{"id":66470002,"lat":42.732195074947,"lng":3.0252647534558004,"addr":"12 RUE GUSTAVE EIFFEL","city":"SAINTE MARIE LA MER","cp":"66470","fuels":{"Gazole":{"p":2.259,"d":"2026-04-29"},"E85":{"p":0.849,"d":"2026-04-29"},"E10":{"p":2.065,"d":"2026-04-29"},"SP98":{"p":2.185,"d":"2026-04-29"}},"h24":true,"services":["Vente de gaz domestique (Butane, Propane)","Automate CB 24/24"]},{"id":66400006,"lat":42.49,"lng":2.751,"addr":"place de la resistance","city":"ceret","cp":"66400","fuels":{"Gazole":{"p":2.159,"d":"2026-04-30"},"SP95":{"p":2.049,"d":"2026-04-30"},"SP98":{"p":2.119,"d":"2026-04-30"}},"brand":"Carrefour","h24":true,"services":["Automate CB 24/24"]},{"id":66310002,"lat":42.774847,"lng":2.712237,"addr":"1 Rue Marbigo","city":"ESTAGEL","cp":"66310","fuels":{"Gazole":{"p":2.199,"d":"2026-04-20"},"E85":{"p":0.849,"d":"2026-05-01"},"E10":{"p":1.999,"d":"2026-04-28"},"SP98":{"p":2.109,"d":"2026-05-01"}},"brand":"Carrefour","services":["Relais colis","Boutique alimentaire","Station de gonflage","Piste poids lourds","Vente de gaz domestique (Butane, Propane)","Automate CB 24/24"]},{"id":66100002,"lat":42.682,"lng":2.911,"addr":"294, AVENUE D'ARGELES SUR MER","city":"PERPIGNAN","cp":"66100","fuels":{"Gazole":{"p":2.09,"d":"2026-05-01"},"E85":{"p":0.879,"d":"2026-05-01"},"E10":{"p":1.99,"d":"2026-05-01"},"SP98":{"p":1.99,"d":"2026-05-01"}},"brand":"TotalEnergies","services":["Boutique alimentaire","Station de gonflage","Lavage automatique","Vente de gaz domestique (Butane, Propane)"]}]