[{"id":67500013,"lat":48.827314,"lng":7.792444000000001,"addr":"2 RUE DU POSTILLON","city":"HAGUENAU","cp":"67500","fuels":{"Gazole":{"p":2.168,"d":"2026-04-30"},"E85":{"p":0.819,"d":"2026-04-30"},"E10":{"p":1.978,"d":"2026-04-30"},"SP98":{"p":2.068,"d":"2026-04-30"}},"brand":"Intermarché","services":["Relais colis","Carburant additivé","Vente de gaz domestique (Butane, Propane)","Automate CB 24/24"]},{"id":67310003,"lat":48.646,"lng":7.453,"addr":"58 Route de Hohengoeft","city":"Wasselonne","cp":"67310","fuels":{"Gazole":{"p":2.135,"d":"2026-04-30"},"E10":{"p":1.995,"d":"2026-04-30"},"SP98":{"p":2.067,"d":"2026-04-30"}},"brand":"Leclerc","h24":true,"services":["Piste poids lourds","Automate CB 24/24"]},{"id":67370003,"lat":48.644,"lng":7.598,"addr":"5 ALLEE DE L&#8217;ECONOMIE","city":"WIWERSHEIM","cp":"67370","fuels":{"Gazole":{"p":2.142,"d":"2026-04-30"},"E85":{"p":0.736,"d":"2026-04-30"},"E10":{"p":1.994,"d":"2026-04-30"}},"h24":true,"services":["Vente d'additifs carburants","Automate CB 24/24"]},{"id":67452001,"lat":48.655,"lng":7.724,"addr":"1 Boulevard des Enseignes","city":"Mundolsheim","cp":"67450","fuels":{"Gazole":{"p":2.186,"d":"2026-04-30"},"GPLc":{"p":1.082,"d":"2026-04-30"},"E10":{"p":2.024,"d":"2026-04-30"},"SP98":{"p":2.092,"d":"2026-04-30"}},"brand":"Carrefour","h24":true,"services":["Station de gonflage","Carburant additivé","Vente de gaz domestique (Butane, Propane)","Automate CB 24/24"]},{"id":67120002,"lat":48.529266519707,"lng":7.4974740576593994,"addr":"RN 422","city":"MOLSHEIM","cp":"67120","fuels":{"Gazole":{"p":2.25,"d":"2026-04-30"},"E10":{"p":1.99,"d":"2026-04-25"}},"brand":"TotalEnergies","services":["Toilettes publiques","Boutique non alimentaire","Station de gonflage","Carburant additivé","Piste poids lourds","Lavage automatique"]},{"id":67210004,"lat":48.45959,"lng":7.49509,"addr":"8 RUE DU MARECHAL JUIN","city":"OBERNAI","cp":"67210","fuels":{"Gazole":{"p":2.09,"d":"2026-05-01"},"E85":{"p":0.831,"d":"2026-05-01"},"E10":{"p":1.99,"d":"2026-05-01"},"SP98":{"p":1.99,"d":"2026-05-01"}},"brand":"TotalEnergies"},{"id":67800011,"lat":48.6209477678,"lng":7.731215951959999,"addr":"20 ROUTE DE BRUMATH","city":"HOENHEIM","cp":"67800","fuels":{"Gazole":{"p":2.09,"d":"2026-05-01"},"E85":{"p":0.836,"d":"2026-05-01"},"E10":{"p":1.99,"d":"2026-05-01"},"SP98":{"p":1.99,"d":"2026-05-01"}},"brand":"TotalEnergies"},{"id":67033001,"lat":48.591,"lng":7.694,"addr":"place André Maurois","city":"STRASBOURG","cp":"67200","fuels":{"Gazole":{"p":2.159,"d":"2026-04-30"},"E85":{"p":0.818,"d":"2026-04-30"},"GPLc":{"p":0.939,"d":"2026-04-30"},"E10":{"p":2.029,"d":"2026-04-30"},"SP98":{"p":2.089,"d":"2026-04-30"}},"brand":"Auchan","h24":true,"services":["Station de gonflage","Carburant additivé","Piste poids lourds","Vente de gaz domestique (Butane, Propane)","Bornes électriques","Automate CB 24/24","DAB (Distributeur automatique de billets)"]},{"id":67590002,"lat":48.815,"lng":7.74,"addr":"Route de Strasbourg (RD85)","city":"Schweighouse-sur-Moder","cp":"67590","fuels":{"Gazole":{"p":2.09,"d":"2026-05-01"},"E10":{"p":1.99,"d":"2026-05-01"},"SP98":{"p":1.99,"d":"2026-05-01"}},"brand":"TotalEnergies","h24":true,"services":["Toilettes publiques","Boutique alimentaire","Boutique non alimentaire","Station de gonflage","Carburant additivé","Location de véhicule","Piste poids lourds","Lavage automatique","Lavage manuel","Services réparation / entretien","Vente de gaz domestique (Butane, Propane)","Vente d'additifs carburants","Wifi","Automate CB 24/24"]},{"id":67170010,"lat":48.724,"lng":7.691,"addr":"Aire de Brumath Ouest - Autoroute A4","city":"Brumath","cp":"67170","fuels":{"Gazole":{"p":2.239,"d":"2026-04-30"},"E85":{"p":1.009,"d":"2026-04-30"},"GPLc":{"p":1.211,"d":"2026-04-30"},"E10":{"p":2.054,"d":"2026-04-30"},"SP98":{"p":2.159,"d":"2026-04-30"}},"brand":"BP","h24":true,"services":["Toilettes publiques","Douches","Boutique alimentaire","Boutique non alimentaire","Restauration à emporter","Restauration sur place","Station de gonflage","Aire de camping-cars","Piste poids lourds","Espace bébé","GNV","Bornes électriques","Vente d'additifs carburants","Wifi","Automate CB 24/24"]},{"id":67600004,"lat":48.264,"lng":7.441,"addr":"ALLEE DE LA LOHMULE","city":"Sélestat","cp":"67600","fuels":{"Gazole":{"p":2.146,"d":"2026-04-30"},"SP95":{"p":2.041,"d":"2026-04-30"},"E10":{"p":1.993,"d":"2026-04-30"}},"brand":"Leclerc","h24":true,"services":["Automate CB 24/24"]},{"id":67700012,"lat":48.7599576,"lng":7.36226799,"addr":"A4 - Aire de Saverne - Monswiller","city":"Eckartswiller","cp":"67700","fuels":{"Gazole":{"p":2.09,"d":"2026-05-01"},"E85":{"p":0.999,"d":"2026-05-01"},"GPLc":{"p":1.149,"d":"2026-05-01"},"E10":{"p":1.99,"d":"2026-05-01"},"SP98":{"p":1.99,"d":"2026-05-01"}},"brand":"TotalEnergies"},{"id":67260007,"lat":48.97188,"lng":7.06906,"addr":"AUTOROUTE A4 - AIRE DE KESKASTEL EST","city":"KESKASTEL","cp":"67260","fuels":{"Gazole":{"p":2.09,"d":"2026-05-01"},"GPLc":{"p":1.139,"d":"2026-05-01"},"E10":{"p":1.99,"d":"2026-05-01"},"SP98":{"p":1.99,"d":"2026-05-01"}},"brand":"TotalEnergies","services":["Toilettes publiques","Douches","Boutique alimentaire","Restauration à emporter","Restauration sur place","Station de gonflage","Piste poids lourds","Espace bébé","Bornes électriques"]},{"id":67860001,"lat":48.329,"lng":7.691,"addr":"Route de Rhinau","city":"Boofzheim","cp":"67860","fuels":{"Gazole":{"p":2.134,"d":"2026-04-25"},"SP95":{"p":2.034,"d":"2026-04-25"},"E10":{"p":1.999,"d":"2026-04-25"},"SP98":{"p":2.069,"d":"2026-04-25"}},"brand":"Système U","h24":true,"services":["Relais colis","Boutique alimentaire","Boutique non alimentaire","Restauration à emporter","Station de gonflage","Location de véhicule","Lavage automatique","Lavage manuel","Vente de gaz domestique (Butane, Propane)","Bornes électriques","Vente d'additifs carburants","Wifi","Automate CB 24/24"]},{"id":67230006,"lat":48.362,"lng":7.573,"addr":"ROUTE DE LYON - RD-1083","city":"HUTTENHEIM","cp":"67230","fuels":{"Gazole":{"p":2.09,"d":"2026-05-01"},"E10":{"p":1.99,"d":"2026-05-01"},"SP98":{"p":1.99,"d":"2026-05-01"}},"brand":"TotalEnergies","h24":true,"services":["Relais colis","Boutique alimentaire","Boutique non alimentaire","Restauration à emporter","Restauration sur place","Bar","Station de gonflage","Carburant additivé","Piste poids lourds","Lavage automatique","Vente de gaz domestique (Butane, Propane)","Vente d'additifs carburants","Wifi","Automate CB 24/24"]},{"id":67110001,"lat":48.93342,"lng":7.66915,"addr":"15 Rue des Cuirassiers","city":"REICHSHOFFEN","cp":"67110","fuels":{"Gazole":{"p":2.169,"d":"2026-04-30"}}},{"id":67270003,"lat":48.755,"lng":7.591,"addr":"ROUTE DE STRASBOURG","city":"HOCHFELDEN","cp":"67270","fuels":{"Gazole":{"p":2.175,"d":"2026-04-30"},"E85":{"p":0.819,"d":"2026-04-16"},"E10":{"p":1.999,"d":"2026-04-30"},"SP98":{"p":2.045,"d":"2026-04-30"}},"brand":"Intermarché","h24":true,"services":["Laverie","Boutique alimentaire","Boutique non alimentaire","Station de gonflage","Lavage automatique","Lavage manuel","Vente de gaz domestique (Butane, Propane)","Automate CB 24/24"]},{"id":67410002,"lat":48.76,"lng":7.954,"addr":"1 rue du collège","city":"Drusenheim","cp":"67410","fuels":{"Gazole":{"p":2.259,"d":"2026-04-30"},"E10":{"p":2.119,"d":"2026-04-30"},"SP98":{"p":2.199,"d":"2026-04-30"}},"h24":true,"services":["Automate CB 24/24"]},{"id":67160001,"lat":49.0268909254,"lng":7.946439519559999,"addr":"33 rue de la Pépiniére","city":"WISSEMBOURG","cp":"67160","fuels":{"Gazole":{"p":2.199,"d":"2026-04-22"},"E10":{"p":1.979,"d":"2026-04-21"}},"brand":"Match"},{"id":67260009,"lat":48.94,"lng":7.085,"addr":"4C rue du Maréchal Foch","city":"Sarre-Union","cp":"67260","fuels":{"Gazole":{"p":2.51,"d":"2026-04-08"},"SP95":{"p":2.079,"d":"2026-04-08"},"SP98":{"p":2.165,"d":"2026-04-08"}},"brand":"Carrefour","services":["Laverie","Relais colis","Boutique alimentaire","Boutique non alimentaire","Restauration à emporter","Vente de pétrole lampant","Vente de gaz domestique (Butane, Propane)","Vente d'additifs carburants","Wifi"]},{"id":67920001,"lat":48.25235,"lng":7.59527,"addr":"2 Rue de Wittisheim","city":"Sundhouse","cp":"67920","fuels":{"Gazole":{"p":2.179,"d":"2026-04-30"},"SP95":{"p":2.049,"d":"2026-04-30"}},"brand":"Système U","h24":true,"services":["Vente de gaz domestique (Butane, Propane)","Automate CB 24/24","DAB (Distributeur automatique de billets)"]},{"id":67116003,"lat":48.656552351845,"lng":7.7562861753134,"addr":"ROUTE D37","city":"REICHSTETT","cp":"67116","fuels":{"Gazole":{"p":2.458,"d":"2026-04-30"}},"brand":"Shell","services":["Piste poids lourds","Vente d'additifs carburants"]},{"id":67260003,"lat":49.009,"lng":7.077,"addr":"55 rue de Keskastel","city":"Herbitzheim","cp":"67260","fuels":{"Gazole":{"p":2.29,"d":"2026-04-21"},"SP95":{"p":2.059,"d":"2026-04-21"},"SP98":{"p":2.099,"d":"2026-04-21"}},"brand":"Marché U","h24":true,"services":["Station de gonflage","Lavage automatique","Lavage manuel","Vente de gaz domestique (Butane, Propane)","Wifi","Automate CB 24/24"]},{"id":67660003,"lat":48.898,"lng":7.912,"addr":"19 Rue de l'Avenir","city":"BETSCHDORF","cp":"67660","fuels":{"Gazole":{"p":2.249,"d":"2026-04-30"},"E10":{"p":2.039,"d":"2026-04-30"},"SP98":{"p":2.149,"d":"2026-04-30"}},"brand":"Intermarché","h24":true,"services":["Laverie","Vente de gaz domestique (Butane, Propane)","Automate CB 24/24","DAB (Distributeur automatique de billets)"]},{"id":67120003,"lat":48.541549,"lng":7.5027515000000005,"addr":"33a Route de Dachstein","city":"Molsheim","cp":"67120","fuels":{"Gazole":{"p":2.169,"d":"2026-04-30"},"E10":{"p":2.019,"d":"2026-04-30"},"SP98":{"p":2.059,"d":"2026-04-30"}},"brand":"Système U"},{"id":67140003,"lat":48.41,"lng":7.455,"addr":"15 Quai de l'Abattoir","city":"BARR","cp":"67140","fuels":{"Gazole":{"p":2.24,"d":"2026-04-30"},"SP95":{"p":2.17,"d":"2026-04-30"},"SP98":{"p":2.19,"d":"2026-04-30"}},"h24":true,"services":["Location de véhicule","Lavage automatique","Lavage manuel","Services réparation / entretien","Automate CB 24/24"]},{"id":67580001,"lat":48.868,"lng":7.688,"addr":"18 ROUTE DE BITCHE","city":"Mertzwiller","cp":"67580","fuels":{"Gazole":{"p":2.09,"d":"2026-05-01"}},"brand":"TotalEnergies","h24":true,"services":["Piste poids lourds","Lavage automatique","Lavage manuel","Automate CB 24/24"]},{"id":67390001,"lat":48.165,"lng":7.556,"addr":"14 Avenue de l'Europe","city":"MARCKOLSHEIM","cp":"67390","fuels":{"Gazole":{"p":2.189,"d":"2026-04-26"},"E10":{"p":2.029,"d":"2026-04-26"},"SP98":{"p":2.099,"d":"2026-04-26"}},"brand":"Système U","h24":true,"services":["Toilettes publiques","Laverie","Relais colis","Boutique alimentaire","Boutique non alimentaire","Restauration à emporter","Restauration sur place","Bar","Station de gonflage","Location de véhicule","Piste poids lourds","Lavage automatique","Lavage manuel","Espace bébé","Vente de gaz domestique (Butane, Propane)","Vente d'additifs carburants","Wifi","Automate CB 24/24","DAB (Distributeur automatique de billets)"]},{"id":67110003,"lat":48.934,"lng":7.659,"addr":"3 Rue Gaston Fleischel","city":"Reichshoffen","cp":"67110","fuels":{"Gazole":{"p":2.169,"d":"2026-04-29"},"E85":{"p":0.818,"d":"2026-04-29"},"GPLc":{"p":1.149,"d":"2026-04-29"},"E10":{"p":1.969,"d":"2026-04-29"},"SP98":{"p":2.069,"d":"2026-04-29"}},"brand":"Intermarché","h24":true,"services":["Laverie","Station de gonflage","Piste poids lourds","Vente de gaz domestique (Butane, Propane)","Bornes électriques","Automate CB 24/24","DAB (Distributeur automatique de billets)"]},{"id":67240002,"lat":48.769,"lng":7.867,"addr":"17 Route d'Oberhoffen","city":"BISCHWILLER","cp":"67240","fuels":{"Gazole":{"p":2.229,"d":"2026-04-28"},"SP95":{"p":2.089,"d":"2026-04-28"},"E10":{"p":2.069,"d":"2026-04-28"},"SP98":{"p":2.145,"d":"2026-04-28"}},"brand":"Système U","h24":true,"services":["Vente de gaz domestique (Butane, Propane)","Automate CB 24/24","DAB (Distributeur automatique de billets)"]},{"id":67320001,"lat":48.86425,"lng":7.18661,"addr":"Rue de Weyer","city":"DRULINGEN","cp":"67320","fuels":{"Gazole":{"p":2.169,"d":"2026-04-29"},"E10":{"p":1.999,"d":"2026-04-29"},"SP98":{"p":2.089,"d":"2026-04-28"}},"brand":"Intermarché"},{"id":67560002,"lat":48.503,"lng":7.487,"addr":"33C Avenue de la Gare","city":"ROSHEIM","cp":"67560","fuels":{"Gazole":{"p":2.158,"d":"2026-04-30"},"E85":{"p":0.809,"d":"2026-04-14"},"E10":{"p":1.999,"d":"2026-04-29"},"SP98":{"p":2.075,"d":"2026-04-30"}},"brand":"Auchan","services":["Station de gonflage","Piste poids lourds","Lavage automatique","Lavage manuel","Vente de gaz domestique (Butane, Propane)","DAB (Distributeur automatique de billets)"]},{"id":67330001,"lat":48.831,"lng":7.493,"addr":"Rue d'Obermodern","city":"Bouxwiller","cp":"67330","fuels":{"Gazole":{"p":2.175,"d":"2026-04-30"},"E10":{"p":1.999,"d":"2026-04-30"},"SP98":{"p":2.077,"d":"2026-04-30"}},"h24":true,"services":["Station de gonflage","Piste poids lourds","Vente de gaz domestique (Butane, Propane)","Automate CB 24/24","DAB (Distributeur automatique de billets)"]},{"id":67570001,"lat":48.461,"lng":7.211,"addr":"RN 1420","city":"ROTHAU","cp":"67570","fuels":{"Gazole":{"p":2.289,"d":"2026-05-01"},"E85":{"p":0.899,"d":"2026-05-01"},"E10":{"p":2.079,"d":"2026-05-01"},"SP98":{"p":2.179,"d":"2026-05-01"}},"brand":"Eni","h24":true,"services":["Boutique alimentaire","Boutique non alimentaire","Station de gonflage","Carburant additivé","Piste poids lourds","Lavage manuel","Services réparation / entretien","Vente de gaz domestique (Butane, Propane)","Vente d'additifs carburants","Automate CB 24/24"]},{"id":67600003,"lat":48.232,"lng":7.405,"addr":"AIRE DU HAUT KOENISGBOURG A35","city":"Orschwiller","cp":"67600","fuels":{"Gazole":{"p":2.25,"d":"2026-04-29"},"E85":{"p":0.999,"d":"2026-04-22"},"GPLc":{"p":1.099,"d":"2026-04-22"},"E10":{"p":2.06,"d":"2026-04-29"},"SP98":{"p":2.15,"d":"2026-04-29"}},"brand":"Leclerc","h24":true,"services":["Toilettes publiques","Douches","Boutique alimentaire","Boutique non alimentaire","Station de gonflage","Aire de camping-cars","Piste poids lourds","Espace bébé","Wifi","Automate CB 24/24","DAB (Distributeur automatique de billets)"]},{"id":67250001,"lat":48.93585,"lng":7.88082,"addr":"5 place Charls de Gaulles","city":"SOULTZ-SOUS-FORêTS","cp":"67250","fuels":{"Gazole":{"p":2.229,"d":"2026-04-22"},"E10":{"p":1.979,"d":"2026-04-22"},"SP98":{"p":2.089,"d":"2026-04-22"}},"brand":"Match","services":["Toilettes publiques","Station de gonflage","Vente de gaz domestique (Butane, Propane)"]},{"id":67151001,"lat":48.429,"lng":7.659,"addr":"45 Rue du Printemps","city":"ERSTEIN","cp":"67150","fuels":{"Gazole":{"p":2.146,"d":"2026-04-30"},"E85":{"p":0.809,"d":"2026-04-30"},"GPLc":{"p":1.059,"d":"2026-04-30"},"E10":{"p":1.99,"d":"2026-04-30"},"SP98":{"p":2.06,"d":"2026-04-30"}},"brand":"Leclerc","h24":true,"services":["Vente d'additifs carburants","Automate CB 24/24"]},{"id":67202003,"lat":48.600997836937,"lng":7.6522720918629,"addr":"RN 4 - ROUTE DE SAVERNE","city":"WOLFISHEIM","cp":"67202","fuels":{"Gazole":{"p":2.09,"d":"2026-05-01"},"E85":{"p":0.818,"d":"2026-05-01"},"E10":{"p":1.99,"d":"2026-05-01"}},"brand":"TotalEnergies","services":["Relais colis","Boutique alimentaire","Boutique non alimentaire","Carburant additivé","Piste poids lourds","Vente de gaz domestique (Butane, Propane)","DAB (Distributeur automatique de billets)"]},{"id":67000002,"lat":48.611993985705006,"lng":7.7822163708573,"addr":"Route de la Wantzenau","city":"STRASBOURG","cp":"67000","fuels":{"Gazole":{"p":2.154,"d":"2026-04-29"},"E10":{"p":1.966,"d":"2026-04-29"},"SP98":{"p":2.071,"d":"2026-04-29"}},"services":["Vente de gaz domestique (Butane, Propane)"]},{"id":67500005,"lat":48.82034,"lng":7.77808,"addr":"4 Route de Bitche","city":"HAGUENAU","cp":"67500","fuels":{"Gazole":{"p":2.09,"d":"2026-04-30"},"SP95":{"p":1.99,"d":"2026-03-09"}},"brand":"TotalEnergies","services":["Relais colis","Boutique alimentaire","Boutique non alimentaire","Station de gonflage","Carburant additivé","Piste poids lourds","Services réparation / entretien","Vente de gaz domestique (Butane, Propane)"]},{"id":67730001,"lat":48.28,"lng":7.389,"addr":"43 RTE DE STE MARIE AUX MINES","city":"Châtenois","cp":"67730","fuels":{"Gazole":{"p":2.09,"d":"2026-05-01"},"E10":{"p":1.99,"d":"2026-05-01"},"SP98":{"p":1.99,"d":"2026-05-01"}},"brand":"Leclerc","services":["Boutique alimentaire","Station de gonflage","Carburant additivé","DAB (Distributeur automatique de billets)"]},{"id":67370001,"lat":48.657,"lng":7.605,"addr":"29 RUE DE LA GARE","city":"TRUCHTERSHEIM","cp":"67370","fuels":{"Gazole":{"p":2.149,"d":"2026-04-28"},"SP95":{"p":2.037,"d":"2026-04-30"},"E10":{"p":1.998,"d":"2026-04-30"},"SP98":{"p":2.059,"d":"2026-04-30"}},"brand":"Système U","h24":true,"services":["Station de gonflage","Lavage automatique","Vente de gaz domestique (Butane, Propane)","Automate CB 24/24","DAB (Distributeur automatique de billets)"]},{"id":67500003,"lat":48.803,"lng":7.812,"addr":"88 Route de Bischwiller","city":"HAGUENAU","cp":"67500","fuels":{"Gazole":{"p":2.168,"d":"2026-04-30"},"E85":{"p":0.819,"d":"2026-04-30"},"E10":{"p":1.978,"d":"2026-04-30"},"SP98":{"p":2.068,"d":"2026-04-30"}},"brand":"Auchan","services":["DAB (Distributeur automatique de billets)"]},{"id":67202002,"lat":48.589,"lng":7.671,"addr":"1A RUE HANS ARP","city":"WOLFISHEIM","cp":"67202","fuels":{"Gazole":{"p":2.187,"d":"2026-04-30"},"SP95":{"p":2.078,"d":"2026-04-30"},"E10":{"p":2.041,"d":"2026-04-30"},"SP98":{"p":2.114,"d":"2026-04-30"}},"brand":"Système U","h24":true,"services":["Toilettes publiques","Relais colis","Boutique alimentaire","Restauration à emporter","Vente de fioul domestique","Vente de pétrole lampant","Station de gonflage","Location de véhicule","Lavage manuel","Vente de gaz domestique (Butane, Propane)","Automate CB 24/24","DAB (Distributeur automatique de billets)"]},{"id":67700001,"lat":48.736,"lng":7.364,"addr":"3 Rue Sainte-Marie","city":"SAVERNE","cp":"67700","fuels":{"Gazole":{"p":2.159,"d":"2026-04-28"},"E10":{"p":1.979,"d":"2026-04-24"},"SP98":{"p":2.059,"d":"2026-04-28"}},"brand":"Match","services":["DAB (Distributeur automatique de billets)"]},{"id":67205001,"lat":48.604,"lng":7.706,"addr":"256 route de Mittelhausbergen","city":"Oberhausbergen","cp":"67200","fuels":{"Gazole":{"p":2.169,"d":"2026-04-30"},"E85":{"p":0.818,"d":"2026-04-30"},"E10":{"p":1.999,"d":"2026-04-30"},"SP98":{"p":2.069,"d":"2026-04-30"}},"brand":"Intermarché","services":["Restauration sur place","Vente de fioul domestique","Location de véhicule","Lavage manuel","Vente de gaz domestique (Butane, Propane)","DAB (Distributeur automatique de billets)"]},{"id":67130004,"lat":48.482,"lng":7.22,"addr":"Rue de l'Ancien Sanatorium","city":"SCHIRMECK","cp":"67130","fuels":{"Gazole":{"p":2.159,"d":"2026-04-28"},"E10":{"p":1.959,"d":"2026-03-31"},"SP98":{"p":2.076,"d":"2026-04-28"}},"brand":"Match","h24":true,"services":["Station de gonflage","Vente de gaz domestique (Butane, Propane)","Automate CB 24/24"]},{"id":67290002,"lat":48.92,"lng":7.375,"addr":"Rue Principale","city":"Wingen-sur-Moder","cp":"67290","fuels":{"Gazole":{"p":2.169,"d":"2026-04-27"},"SP95":{"p":2.059,"d":"2026-04-29"},"SP98":{"p":2.099,"d":"2026-04-28"}},"brand":"Carrefour","h24":true,"services":["Boutique alimentaire","Boutique non alimentaire","Restauration à emporter","Station de gonflage","Lavage manuel","Vente de gaz domestique (Butane, Propane)","Automate CB 24/24","DAB (Distributeur automatique de billets)"]},{"id":67600001,"lat":48.24889,"lng":7.43635,"addr":"38 Route de Colmar","city":"Sélestat","cp":"67600","fuels":{"Gazole":{"p":2.142,"d":"2026-04-30"},"E10":{"p":1.969,"d":"2026-04-30"},"SP98":{"p":2.087,"d":"2026-04-30"}}},{"id":67960001,"lat":48.539,"lng":7.649,"addr":"5, Allée des Forgerons","city":"ENTZHEIM","cp":"67960","fuels":{"Gazole":{"p":2.189,"d":"2026-04-30"},"SP95":{"p":2.039,"d":"2026-04-27"},"SP98":{"p":2.069,"d":"2026-04-28"}},"brand":"Carrefour","services":["Boutique alimentaire","Boutique non alimentaire","Piste poids lourds","Lavage automatique","Lavage manuel","Vente de gaz domestique (Butane, Propane)","DAB (Distributeur automatique de billets)"]},{"id":67420001,"lat":48.406,"lng":7.163,"addr":"12 Rue Principale","city":"SAINT-BLAISE-LA-ROCHE","cp":"67420","fuels":{"Gazole":{"p":2.09,"d":"2026-04-30"},"E10":{"p":1.99,"d":"2026-04-30"},"SP98":{"p":1.99,"d":"2026-04-30"}},"brand":"TotalEnergies","h24":true,"services":["Boutique alimentaire","Boutique non alimentaire","Station de gonflage","Carburant additivé","Piste poids lourds","Services réparation / entretien","Vente de gaz domestique (Butane, Propane)","Automate CB 24/24","DAB (Distributeur automatique de billets)"]},{"id":67680001,"lat":48.362365997199,"lng":7.467648575567,"addr":"Lieudit Stotzenweg","city":"EPFIG","cp":"67680","fuels":{"Gazole":{"p":2.159,"d":"2026-04-28"},"SP95":{"p":2.029,"d":"2026-04-30"},"SP98":{"p":2.109,"d":"2026-04-30"}},"brand":"Carrefour","h24":true,"services":["Boutique alimentaire","Boutique non alimentaire","Restauration à emporter","Piste poids lourds","Lavage automatique","Lavage manuel","Vente de gaz domestique (Butane, Propane)","Automate CB 24/24","DAB (Distributeur automatique de billets)"]},{"id":67100007,"lat":48.571,"lng":7.764,"addr":"10 Rue du Landsberg","city":"STRASBOURG","cp":"67100","fuels":{"Gazole":{"p":2.299,"d":"2026-04-30"},"E85":{"p":0.999,"d":"2026-04-30"},"GPLc":{"p":1.099,"d":"2026-04-30"},"E10":{"p":2.149,"d":"2026-04-30"},"SP98":{"p":2.229,"d":"2026-04-30"}},"brand":"Avia","h24":true,"services":["Relais colis","Boutique alimentaire","Boutique non alimentaire","Restauration à emporter","Station de gonflage","Carburant additivé","Piste poids lourds","Lavage automatique","Vente de gaz domestique (Butane, Propane)","Vente d'additifs carburants","Automate CB 24/24"]},{"id":67210001,"lat":48.46507825448,"lng":7.4909254907966,"addr":"14 Rue du Général Leclerc","city":"Obernai","cp":"67210","fuels":{"Gazole":{"p":2.159,"d":"2026-04-29"},"E10":{"p":1.999,"d":"2026-04-27"},"SP98":{"p":2.069,"d":"2026-04-28"}},"brand":"Auchan","services":["Toilettes publiques","Boutique alimentaire","Boutique non alimentaire","Restauration à emporter","Vente de pétrole lampant","Vente de gaz domestique (Butane, Propane)","DAB (Distributeur automatique de billets)"]},{"id":67840002,"lat":48.677,"lng":7.849,"addr":"CHEMIN DEPARTEMENTAL 468","city":"KILSTETT","cp":"67840","fuels":{"Gazole":{"p":2.25,"d":"2026-04-29"},"E10":{"p":1.99,"d":"2026-04-29"}},"brand":"TotalEnergies","h24":true,"services":["Toilettes publiques","Boutique alimentaire","Station de gonflage","Location de véhicule","Piste poids lourds","Services réparation / entretien","Vente d'additifs carburants","Wifi","Automate CB 24/24"]},{"id":67380001,"lat":48.563,"lng":7.69,"addr":"Rue d'Eckbolsheim","city":"LINGOLSHEIM","cp":"67380","fuels":{"Gazole":{"p":2.189,"d":"2026-04-30"},"SP95":{"p":2.039,"d":"2026-04-28"},"E10":{"p":2.029,"d":"2026-04-28"},"SP98":{"p":2.089,"d":"2026-04-28"}},"brand":"Système U","services":["Toilettes publiques","Boutique alimentaire","Boutique non alimentaire","Restauration à emporter","Restauration sur place","Bar","Station de gonflage","Carburant additivé","Location de véhicule","Piste poids lourds","Lavage automatique","Lavage manuel","Vente de gaz domestique (Butane, Propane)","DAB (Distributeur automatique de billets)"]},{"id":67630001,"lat":48.974646119999996,"lng":8.1574104,"addr":"RD 468","city":"SCHEIBENHARD","cp":"67630","fuels":{"Gazole":{"p":2.167,"d":"2026-04-30"},"SP95":{"p":2.043,"d":"2026-04-30"},"E85":{"p":0.931,"d":"2026-04-30"},"SP98":{"p":2.121,"d":"2026-04-30"}},"brand":"Carrefour","services":["Piste poids lourds","Vente de gaz domestique (Butane, Propane)","DAB (Distributeur automatique de billets)"]},{"id":67000005,"lat":48.579,"lng":7.731,"addr":"41 Boulevard de Lyon","city":"STRASBOURG","cp":"67000","fuels":{"Gazole":{"p":2.299,"d":"2026-04-30"},"E10":{"p":2.149,"d":"2026-04-30"},"SP98":{"p":2.229,"d":"2026-04-30"}},"brand":"Avia","h24":true,"services":["Relais colis","Boutique alimentaire","Boutique non alimentaire","Restauration à emporter","Station de gonflage","Carburant additivé","Lavage automatique","Lavage manuel","Vente de gaz domestique (Butane, Propane)","Vente d'additifs carburants","Automate CB 24/24"]},{"id":67170008,"lat":48.708,"lng":7.71,"addr":"209 AVENUE DE STRASBOURG","city":"BRUMATH","cp":"67170","fuels":{"Gazole":{"p":2.09,"d":"2026-05-01"},"E85":{"p":0.815,"d":"2026-05-01"},"E10":{"p":1.99,"d":"2026-05-01"}},"brand":"TotalEnergies","services":["Toilettes publiques","Relais colis","Boutique alimentaire","Boutique non alimentaire","Station de gonflage","Carburant additivé","Piste poids lourds","Lavage automatique","Vente de gaz domestique (Butane, Propane)","DAB (Distributeur automatique de billets)"]},{"id":67480001,"lat":48.824,"lng":8.032,"addr":"1 Rue Principale","city":"Roeschwoog","cp":"67480","fuels":{"Gazole":{"p":2.09,"d":"2026-05-01"},"E10":{"p":1.99,"d":"2026-04-30"},"SP98":{"p":1.99,"d":"2026-04-30"}},"brand":"TotalEnergies","services":["Toilettes publiques","Boutique non alimentaire","Carburant additivé","Piste poids lourds","DAB (Distributeur automatique de billets)"]},{"id":67800014,"lat":48.618,"lng":7.754,"addr":"79 ROUTE DE BISCHWILLER","city":"BISCHHEIM","cp":"67800","fuels":{"Gazole":{"p":2.299,"d":"2026-05-01"},"E10":{"p":2.099,"d":"2026-05-01"},"SP98":{"p":2.199,"d":"2026-05-01"}},"brand":"Eni","services":["Relais colis","Boutique alimentaire","Boutique non alimentaire","Restauration à emporter","Station de gonflage","Carburant additivé","Vente de gaz domestique (Butane, Propane)","Vente d'additifs carburants"]},{"id":67100009,"lat":48.543681457439995,"lng":7.765314769311599,"addr":"4 ROUTE D'ALTENHEIM","city":"STRASBOURG","cp":"67100","fuels":{"Gazole":{"p":2.28,"d":"2026-05-01"},"E10":{"p":2.06,"d":"2026-05-01"},"SP98":{"p":2.16,"d":"2026-05-01"}},"brand":"Eni","services":["Toilettes publiques","Boutique alimentaire","Station de gonflage","Carburant additivé","Vente de gaz domestique (Butane, Propane)"]},{"id":67100002,"lat":48.553,"lng":7.744,"addr":"250 Avenue de Colmar","city":"Strasbourg","cp":"67100","fuels":{"Gazole":{"p":2.208,"d":"2026-05-01"},"E85":{"p":0.943,"d":"2026-05-01"},"E10":{"p":2.048,"d":"2026-05-01"},"SP98":{"p":2.078,"d":"2026-05-01"}},"brand":"Esso"},{"id":67000027,"lat":48.524349926212004,"lng":7.7838726035692,"addr":"CENTRE ROUTIER DE RHEINFELD","city":"STRASBOURG","cp":"67000","fuels":{"Gazole":{"p":2.09,"d":"2026-05-01"},"E85":{"p":0.839,"d":"2026-05-01"},"E10":{"p":1.99,"d":"2026-05-01"},"SP98":{"p":1.99,"d":"2026-05-01"}},"brand":"TotalEnergies","services":["Toilettes publiques","Boutique alimentaire","Boutique non alimentaire","Vente de fioul domestique","Station de gonflage","Carburant additivé","Piste poids lourds","Vente de gaz domestique (Butane, Propane)","DAB (Distributeur automatique de billets)"]},{"id":67400005,"lat":48.53138,"lng":7.71443,"addr":"145 ROUTE DE LYON","city":"Illkirch-Graffenstaden","cp":"67400","fuels":{"Gazole":{"p":2.09,"d":"2026-05-01"},"E10":{"p":1.99,"d":"2026-05-01"}},"brand":"TotalEnergies"},{"id":67500011,"lat":48.809,"lng":7.778,"addr":"22 ROUTE DE STRASBOURG","city":"HAGUENAU","cp":"67500","fuels":{"Gazole":{"p":2.09,"d":"2026-05-01"},"E85":{"p":0.819,"d":"2026-05-01"},"E10":{"p":1.99,"d":"2026-05-01"},"SP98":{"p":1.99,"d":"2026-05-01"}},"brand":"TotalEnergies","h24":true,"services":["Boutique alimentaire","Boutique non alimentaire","Restauration à emporter","Station de gonflage","Carburant additivé","Piste poids lourds","Lavage automatique","Vente de gaz domestique (Butane, Propane)","Vente d'additifs carburants","Wifi","Automate CB 24/24"]},{"id":67550003,"lat":48.66705,"lng":7.71943,"addr":"10 BIS ROUTE DE STRASBOURG","city":"VENDENHEIM","cp":"67550","fuels":{"Gazole":{"p":2.09,"d":"2026-05-01"},"E10":{"p":1.99,"d":"2026-05-01"},"SP98":{"p":1.99,"d":"2026-05-01"}},"brand":"TotalEnergies"},{"id":67660002,"lat":48.89911,"lng":7.90872,"addr":"71 RUE DU DOCTEUR DEUTSCH","city":"Betschdorf","cp":"67660","fuels":{"Gazole":{"p":2.09,"d":"2026-05-01"},"E10":{"p":1.99,"d":"2026-05-01"}},"brand":"TotalEnergies","services":["Piste poids lourds","Vente de gaz domestique (Butane, Propane)"]},{"id":67640005,"lat":48.485373326754,"lng":7.6737249943185,"addr":"RD1083 - Rue de Lyon","city":"ICHTRATZHEIM","cp":"67640","fuels":{"Gazole":{"p":2.09,"d":"2026-05-01"},"E85":{"p":0.819,"d":"2026-05-01"},"GPLc":{"p":1.059,"d":"2026-05-01"},"E10":{"p":1.99,"d":"2026-05-01"}},"brand":"TotalEnergies","services":["Boutique alimentaire","Boutique non alimentaire","Station de gonflage","Carburant additivé","Piste poids lourds","Lavage automatique","Vente de gaz domestique (Butane, Propane)","DAB (Distributeur automatique de billets)"]},{"id":67118002,"lat":48.521,"lng":7.695,"addr":"RUE DU FORT","city":"GEISPOLSHEIM","cp":"67118","fuels":{"Gazole":{"p":2.187,"d":"2026-04-30"},"SP95":{"p":2.039,"d":"2026-04-30"},"E85":{"p":0.809,"d":"2026-04-30"},"GPLc":{"p":1.059,"d":"2026-04-30"},"SP98":{"p":2.058,"d":"2026-04-30"}},"brand":"Leclerc","h24":true,"services":["Piste poids lourds","Vente d'additifs carburants","Automate CB 24/24"]},{"id":67220003,"lat":48.339,"lng":7.315,"addr":"zac de l ungersberg","city":"Villé","cp":"67220","fuels":{"Gazole":{"p":2.149,"d":"2026-04-29"},"E85":{"p":0.755,"d":"2026-04-21"},"E10":{"p":2.015,"d":"2026-04-30"},"SP98":{"p":2.063,"d":"2026-04-30"}},"brand":"Système U","h24":true,"services":["Laverie","Location de véhicule","Lavage automatique","Lavage manuel","Automate CB 24/24","DAB (Distributeur automatique de billets)"]},{"id":67120006,"lat":48.538953600000006,"lng":7.5804767,"addr":"Aire de la Bruche","city":"Duttlenheim","cp":"67120","fuels":{"Gazole":{"p":2.244,"d":"2026-04-28"},"E85":{"p":0.999,"d":"2026-04-10"},"GPLc":{"p":1.099,"d":"2026-02-10"},"E10":{"p":2.055,"d":"2026-04-28"},"SP98":{"p":2.13,"d":"2026-04-28"}},"brand":"Leclerc","h24":true,"services":["Toilettes publiques","Douches","Laverie","Boutique alimentaire","Restauration à emporter","Restauration sur place","Station de gonflage","Carburant additivé","Piste poids lourds","Espace bébé","Bornes électriques","Wifi","Automate CB 24/24"]},{"id":67430002,"lat":48.94,"lng":7.188,"addr":"1 rue Paul Paray","city":"DIEMERINGEN","cp":"67430","fuels":{"Gazole":{"p":2.209,"d":"2026-04-30"},"E10":{"p":2.039,"d":"2026-04-30"},"SP98":{"p":2.119,"d":"2026-04-30"}},"brand":"Système U","services":["Laverie","Relais colis","Station de gonflage","Location de véhicule","Piste poids lourds","Lavage automatique","Lavage manuel","Vente de gaz domestique (Butane, Propane)","DAB (Distributeur automatique de billets)"]},{"id":67600006,"lat":48.27608,"lng":7.4652,"addr":"Route de Strasbourg","city":"Sélestat","cp":"67600","fuels":{"Gazole":{"p":2.149,"d":"2026-04-30"},"E85":{"p":0.819,"d":"2026-04-16"},"E10":{"p":1.969,"d":"2026-04-29"},"SP98":{"p":2.049,"d":"2026-04-30"}},"brand":"Intermarché","services":["Vente de fioul domestique","Vente de gaz domestique (Butane, Propane)","DAB (Distributeur automatique de billets)"]},{"id":67600010,"lat":48.27267,"lng":7.46047,"addr":"50 ROUTE DE STRASBOURG","city":"SELESTAT","cp":"67600","fuels":{"Gazole":{"p":2.09,"d":"2026-05-01"},"E85":{"p":0.819,"d":"2026-05-01"},"E10":{"p":1.99,"d":"2026-05-01"}},"brand":"TotalEnergies","services":["Toilettes publiques","Relais colis","Boutique alimentaire","Boutique non alimentaire","Restauration à emporter","Station de gonflage","Carburant additivé","Piste poids lourds","Lavage automatique","Vente de gaz domestique (Butane, Propane)"]},{"id":67360002,"lat":48.933,"lng":7.748,"addr":"Route de Haguenau","city":"WOERTH","cp":"67360","fuels":{"Gazole":{"p":2.179,"d":"2026-04-30"},"E85":{"p":0.829,"d":"2026-04-20"},"E10":{"p":2.019,"d":"2026-04-30"},"SP98":{"p":2.089,"d":"2026-04-30"}},"brand":"Système U","h24":true,"services":["Laverie","Lavage automatique","Lavage manuel","Vente de gaz domestique (Butane, Propane)","Automate CB 24/24","DAB (Distributeur automatique de billets)"]},{"id":67800004,"lat":48.6305554602,"lng":7.7639628648,"addr":"13 Route de la Wantzenau","city":"HOENHEIM","cp":"67800","fuels":{"Gazole":{"p":2.205,"d":"2026-04-28"},"E10":{"p":2.045,"d":"2026-04-28"},"SP98":{"p":2.116,"d":"2026-04-28"}},"brand":"Système U","h24":true,"services":["Toilettes publiques","Laverie","Relais colis","Boutique alimentaire","Boutique non alimentaire","Restauration à emporter","Restauration sur place","Bar","Vente de pétrole lampant","Station de gonflage","Carburant additivé","Location de véhicule","Piste poids lourds","Lavage automatique","Lavage manuel","Vente de gaz domestique (Butane, Propane)","Wifi","Automate CB 24/24","DAB (Distributeur automatique de billets)"]},{"id":67120005,"lat":48.527,"lng":7.568,"addr":"15 rue de la Gare","city":"DUTTLENHEIM","cp":"67120","fuels":{"Gazole":{"p":2.159,"d":"2026-04-30"},"E10":{"p":1.99,"d":"2026-04-30"},"SP98":{"p":2.052,"d":"2026-04-30"}},"brand":"Leclerc","h24":true,"services":["Automate CB 24/24"]},{"id":67700013,"lat":48.74,"lng":7.369,"addr":"20 RUE DES CLES","city":"SAVERNE","cp":"67700","fuels":{"Gazole":{"p":2.25,"d":"2026-04-30"},"E10":{"p":1.99,"d":"2026-04-28"},"SP98":{"p":1.99,"d":"2026-04-28"}},"brand":"TotalEnergies","services":["Boutique non alimentaire","Station de gonflage","Carburant additivé","Services réparation / entretien","Vente d'additifs carburants"]},{"id":67480002,"lat":48.823,"lng":8.031,"addr":"1, PARC ACTIVITE UFRIED nord","city":"ROESCHWOOG","cp":"67480","fuels":{"Gazole":{"p":2.169,"d":"2026-04-30"},"E10":{"p":2.019,"d":"2026-04-30"}},"brand":"Leclerc","h24":true,"services":["Toilettes publiques","Boutique alimentaire","Boutique non alimentaire","Vente de gaz domestique (Butane, Propane)","Automate CB 24/24","DAB (Distributeur automatique de billets)"]},{"id":67300003,"lat":48.60545851,"lng":7.758568830000001,"addr":"AV PIERRE MENDES FRANCE","city":"SCHILTIGHEIM","cp":"67300","fuels":{"Gazole":{"p":2.09,"d":"2026-05-01"},"GPLc":{"p":1.029,"d":"2026-05-01"}},"brand":"TotalEnergies","services":["Boutique alimentaire","Station de gonflage","Carburant additivé","Lavage automatique","Lavage manuel","DAB (Distributeur automatique de billets)"]},{"id":67700010,"lat":48.762,"lng":7.365,"addr":"AUTOROUTE A4 AIRE DE SAVERNE","city":"ECKARTSWILLER","cp":"67700","fuels":{"Gazole":{"p":2.339,"d":"2026-04-29"},"GPLc":{"p":1.13,"d":"2026-04-29"},"E10":{"p":2.119,"d":"2026-04-29"},"SP98":{"p":2.199,"d":"2026-04-29"}},"brand":"Avia","h24":true,"services":["Toilettes publiques","Douches","Boutique alimentaire","Boutique non alimentaire","Restauration à emporter","Restauration sur place","Station de gonflage","Carburant additivé","Piste poids lourds","Espace bébé","Wifi","Automate CB 24/24","DAB (Distributeur automatique de billets)"]},{"id":67700002,"lat":48.741,"lng":7.376,"addr":"61 Rue de Dettwiller","city":"SAVERNE","cp":"67700","fuels":{"Gazole":{"p":2.138,"d":"2026-04-30"},"E10":{"p":1.969,"d":"2026-04-24"},"SP98":{"p":2.06,"d":"2026-04-29"}},"brand":"Auchan","h24":true,"services":["Piste poids lourds","Vente de gaz domestique (Butane, Propane)","Automate CB 24/24"]},{"id":67250002,"lat":48.929,"lng":7.896,"addr":"1 rue du chene","city":"SOULTZ-SOUS-FORêTS","cp":"67250","fuels":{"Gazole":{"p":2.195,"d":"2026-04-30"},"E10":{"p":2.025,"d":"2026-04-30"},"SP98":{"p":2.087,"d":"2026-04-30"}},"brand":"Leclerc","h24":true,"services":["Toilettes publiques","Boutique alimentaire","Location de véhicule","Lavage automatique","Vente de gaz domestique (Butane, Propane)","Automate CB 24/24","DAB (Distributeur automatique de billets)"]},{"id":67110006,"lat":48.902,"lng":7.647,"addr":"Z.A. DE LA HARDT","city":"Gundershoffen","cp":"67110","fuels":{"Gazole":{"p":2.189,"d":"2026-04-30"},"E85":{"p":0.818,"d":"2026-04-17"},"E10":{"p":2.039,"d":"2026-04-29"},"SP98":{"p":2.109,"d":"2026-04-30"}},"brand":"U","h24":true,"services":["Toilettes publiques","Relais colis","Boutique alimentaire","Boutique non alimentaire","Restauration à emporter","Restauration sur place","Station de gonflage","Location de véhicule","Piste poids lourds","Vente de gaz domestique (Butane, Propane)","Bornes électriques","Automate CB 24/24","DAB (Distributeur automatique de billets)"]},{"id":67500009,"lat":48.799,"lng":7.78,"addr":"37 AVENUE DU PROFESSEUR LERICHE","city":"HAGUENAU","cp":"67500","fuels":{"Gazole":{"p":2.188,"d":"2026-04-30"},"SP95":{"p":2.068,"d":"2026-04-30"},"E10":{"p":2.038,"d":"2026-04-30"},"SP98":{"p":2.108,"d":"2026-04-30"}},"brand":"Leclerc","h24":true,"services":["Relais colis","Vente de gaz domestique (Butane, Propane)","Automate CB 24/24"]},{"id":67130002,"lat":48.49433,"lng":7.25104,"addr":"Rue de la Creuse Fontaine","city":"Russ","cp":"67130","fuels":{"Gazole":{"p":2.159,"d":"2026-04-30"},"SP95":{"p":2.049,"d":"2026-04-30"},"E10":{"p":1.999,"d":"2026-04-30"},"SP98":{"p":2.069,"d":"2026-04-30"}},"brand":"Système U","services":["Piste poids lourds","Vente de gaz domestique (Butane, Propane)","DAB (Distributeur automatique de billets)"]},{"id":67300004,"lat":48.610653,"lng":7.737855,"addr":"90 ROUTE DU GENERAL DE GAULLE","city":"SCHILTIGHEIM","cp":"67300","fuels":{"Gazole":{"p":2.185,"d":"2026-04-27"},"E10":{"p":2.029,"d":"2026-04-27"},"SP98":{"p":2.089,"d":"2026-04-27"}},"brand":"Leclerc","h24":true,"services":["Toilettes publiques","Boutique non alimentaire","Restauration à emporter","Restauration sur place","Vente de fioul domestique","Location de véhicule","Vente de gaz domestique (Butane, Propane)","Automate CB 24/24","DAB (Distributeur automatique de billets)"]},{"id":67114001,"lat":48.481,"lng":7.726,"addr":"25, rue du Tramway","city":"ESCHAU","cp":"67114","fuels":{"Gazole":{"p":2.187,"d":"2026-04-30"},"E85":{"p":0.809,"d":"2026-04-30"},"E10":{"p":2.029,"d":"2026-04-30"},"SP98":{"p":2.058,"d":"2026-04-30"}},"brand":"Système U","h24":true,"services":["Relais colis","Boutique alimentaire","Boutique non alimentaire","Restauration à emporter","Restauration sur place","Bar","Vente de fioul domestique","Station de gonflage","Carburant additivé","Location de véhicule","Piste poids lourds","Vente de gaz domestique (Butane, Propane)","Automate CB 24/24","DAB (Distributeur automatique de billets)"]},{"id":67220004,"lat":48.327,"lng":7.333,"addr":"Route de Villé","city":"SAINT-MAURICE","cp":"67220","fuels":{"Gazole":{"p":2.299,"d":"2026-04-29"},"SP95":{"p":2.199,"d":"2026-04-29"},"E10":{"p":2.099,"d":"2026-04-29"}},"brand":"Avia","h24":true,"services":["Boutique non alimentaire","Carburant additivé","Services réparation / entretien","Vente de gaz domestique (Butane, Propane)","Vente d'additifs carburants","Automate CB 24/24"]},{"id":67129001,"lat":48.526,"lng":7.494,"addr":"1 RUE MERCURE","city":"MOLSHEIM","cp":"67120","fuels":{"Gazole":{"p":2.158,"d":"2026-04-30"},"E85":{"p":0.809,"d":"2026-04-13"},"GPLc":{"p":1.06,"d":"2026-04-24"},"E10":{"p":1.999,"d":"2026-04-29"},"SP98":{"p":2.075,"d":"2026-04-30"}},"brand":"Cora","h24":true,"services":["Station de gonflage","Piste poids lourds","Vente de gaz domestique (Butane, Propane)","Vente d'additifs carburants","Automate CB 24/24"]},{"id":67400004,"lat":48.521764000000005,"lng":7.720329,"addr":"rue des vignes","city":"ILLKIRCH-GRAFFENSTADEN","cp":"67400","fuels":{"Gazole":{"p":2.177,"d":"2026-04-28"},"E10":{"p":2.024,"d":"2026-04-28"},"SP98":{"p":2.092,"d":"2026-04-28"}},"brand":"Leclerc","services":["Vente de gaz domestique (Butane, Propane)"]},{"id":67620001,"lat":48.82224,"lng":7.96612,"addr":"15 Rue de Sessenheim","city":"SOUFFLENHEIM","cp":"67620","fuels":{"Gazole":{"p":2.25,"d":"2026-04-28"},"SP95":{"p":1.99,"d":"2026-04-28"}},"brand":"TotalEnergies","services":["Toilettes publiques","Boutique alimentaire","Boutique non alimentaire","Station de gonflage","Piste poids lourds","Services réparation / entretien"]},{"id":67620003,"lat":48.819,"lng":7.964,"addr":"Route de Drusenheim","city":"SOUFFLENHEIM","cp":"67620","fuels":{"Gazole":{"p":2.169,"d":"2026-04-27"},"E85":{"p":0.699,"d":"2026-04-29"},"E10":{"p":2.009,"d":"2026-04-30"}},"brand":"Leclerc","services":["Station de gonflage","Piste poids lourds","Lavage manuel","DAB (Distributeur automatique de billets)"]},{"id":67540001,"lat":48.549,"lng":7.71,"addr":"54 Rue du Général Leclerc","city":"Ostwald","cp":"67540","fuels":{"Gazole":{"p":2.139,"d":"2026-04-28"},"SP95":{"p":2.034,"d":"2026-04-24"},"SP98":{"p":2.078,"d":"2026-04-24"}},"brand":"Auchan","services":["Vente de gaz domestique (Butane, Propane)","DAB (Distributeur automatique de billets)"]},{"id":67500001,"lat":48.802,"lng":7.835,"addr":"Route du rhin","city":"HAGUENAU","cp":"67500","fuels":{"Gazole":{"p":2.189,"d":"2026-04-30"},"GPLc":{"p":1.082,"d":"2026-04-30"},"E10":{"p":2.039,"d":"2026-04-30"},"SP98":{"p":2.109,"d":"2026-04-30"}},"brand":"Carrefour","h24":true,"services":["Laverie","Station de gonflage","Vente de gaz domestique (Butane, Propane)","Automate CB 24/24"]},{"id":67760001,"lat":48.699248714218,"lng":7.889266294415299,"addr":"120A ROUTE NATIONALE","city":"GAMBSHEIM","cp":"67760","fuels":{"Gazole":{"p":2.169,"d":"2026-04-27"},"SP95":{"p":2.049,"d":"2026-04-28"},"E85":{"p":0.835,"d":"2026-04-13"},"E10":{"p":2.029,"d":"2026-04-28"}},"brand":"Système U","services":["Station de gonflage","Lavage automatique","Lavage manuel","Vente de gaz domestique (Butane, Propane)","DAB (Distributeur automatique de billets)"]},{"id":67850002,"lat":48.731,"lng":7.9,"addr":"2b rue du collège","city":"Herrlisheim","cp":"67850","fuels":{"Gazole":{"p":2.259,"d":"2026-04-30"},"E10":{"p":2.119,"d":"2026-04-30"},"SP98":{"p":2.199,"d":"2026-04-30"}},"brand":"Spar","h24":true,"services":["Automate CB 24/24"]},{"id":67590001,"lat":48.834,"lng":7.742,"addr":"7 Rue de Niederbronn","city":"SCHWEIGHOUSE-SUR-MODER","cp":"67590","fuels":{"Gazole":{"p":2.189,"d":"2026-04-30"},"GPLc":{"p":1.082,"d":"2026-04-08"},"E10":{"p":2.039,"d":"2026-04-27"},"SP98":{"p":2.109,"d":"2026-04-30"}},"brand":"Auchan","h24":true,"services":["Toilettes publiques","Laverie","Relais colis","Boutique alimentaire","Boutique non alimentaire","Restauration à emporter","Restauration sur place","Vente de pétrole lampant","Station de gonflage","Carburant additivé","Espace bébé","Vente de gaz domestique (Butane, Propane)","Bornes électriques","Wifi","Automate CB 24/24","DAB (Distributeur automatique de billets)"]},{"id":67211001,"lat":48.467,"lng":7.496,"addr":"67 Boulevard de l'Europe","city":"OBERNAI","cp":"67210","fuels":{"Gazole":{"p":2.157,"d":"2026-04-30"},"E85":{"p":0.809,"d":"2026-04-30"},"E10":{"p":1.998,"d":"2026-04-30"},"SP98":{"p":2.064,"d":"2026-04-30"}},"brand":"Leclerc","h24":true,"services":["Automate CB 24/24"]},{"id":67160002,"lat":49.029,"lng":7.96,"addr":"6a Allée des Peupliers","city":"WISSEMBOURG","cp":"67160","fuels":{"Gazole":{"p":2.273,"d":"2026-04-22"}},"brand":"Match"},{"id":67400001,"lat":48.544,"lng":7.737,"addr":"6 Avenue de Strasbourg","city":"ILLKIRCH-GRAFFENSTADEN","cp":"67400","fuels":{"Gazole":{"p":2.189,"d":"2026-04-30"},"E85":{"p":0.809,"d":"2026-04-30"},"GPLc":{"p":1.059,"d":"2026-04-30"},"E10":{"p":2.029,"d":"2026-04-30"},"SP98":{"p":2.059,"d":"2026-04-30"}},"brand":"Auchan","h24":true,"services":["Laverie","Carburant additivé","Lavage automatique","Vente de gaz domestique (Butane, Propane)","Bornes électriques","Automate CB 24/24"]},{"id":67260004,"lat":48.929,"lng":7.097,"addr":"RUE WALTER SCHMITT","city":"SARRE-UNION","cp":"67260","fuels":{"Gazole":{"p":2.159,"d":"2026-04-28"},"SP95":{"p":2.035,"d":"2026-04-28"},"E10":{"p":1.999,"d":"2026-04-28"},"SP98":{"p":2.069,"d":"2026-04-07"}},"brand":"Leclerc","h24":true,"services":["Toilettes publiques","Laverie","Boutique alimentaire","Boutique non alimentaire","Piste poids lourds","Vente de gaz domestique (Butane, Propane)","Automate CB 24/24","DAB (Distributeur automatique de billets)"]},{"id":67350004,"lat":48.847,"lng":7.624,"addr":"1 grand Rue","city":"Niedermodern","cp":"67350","fuels":{"Gazole":{"p":2.175,"d":"2026-04-30"},"E10":{"p":1.999,"d":"2026-04-30"},"SP98":{"p":2.089,"d":"2026-04-30"}},"brand":"Match","services":["Piste poids lourds","DAB (Distributeur automatique de billets)"]},{"id":67810001,"lat":48.563,"lng":7.652,"addr":"20 Rue Joseph Graff","city":"HOLTZHEIM","cp":"67810","fuels":{"Gazole":{"p":2.179,"d":"2026-04-30"},"E10":{"p":2.041,"d":"2026-04-30"},"SP98":{"p":2.069,"d":"2026-04-30"}},"brand":"Leclerc","h24":true,"services":["Automate CB 24/24"]},{"id":67603001,"lat":48.281,"lng":7.462,"addr":"Allée Westrich","city":"Sélestat","cp":"67600","fuels":{"Gazole":{"p":2.145,"d":"2026-04-30"},"GPLc":{"p":1.059,"d":"2026-04-30"},"E10":{"p":1.985,"d":"2026-04-30"},"SP98":{"p":2.048,"d":"2026-04-30"}},"brand":"Leclerc","h24":true,"services":["Carburant additivé","Piste poids lourds","Vente d'additifs carburants","Automate CB 24/24"]},{"id":67600009,"lat":48.281,"lng":7.555,"addr":"1 rue des tisserands","city":"Hilsenheim","cp":"67600","fuels":{"Gazole":{"p":2.159,"d":"2026-04-30"},"SP95":{"p":2.036,"d":"2026-04-30"},"E10":{"p":1.992,"d":"2026-04-30"}},"brand":"Leclerc","h24":true,"services":["Automate CB 24/24"]},{"id":67190001,"lat":48.536522942651,"lng":7.447667700882599,"addr":"Rue du Mattfeld","city":"MUTZIG","cp":"67190","fuels":{"Gazole":{"p":2.158,"d":"2026-04-30"},"E10":{"p":1.999,"d":"2026-04-29"},"SP98":{"p":2.075,"d":"2026-04-30"}},"brand":"Auchan","h24":true,"services":["Laverie","Relais colis","Boutique alimentaire","Boutique non alimentaire","Restauration à emporter","Station de gonflage","Lavage manuel","Vente de gaz domestique (Butane, Propane)","Automate CB 24/24","DAB (Distributeur automatique de billets)"]},{"id":67270001,"lat":48.75507,"lng":7.57831,"addr":"19 Route de Strasbourg","city":"HOCHFELDEN","cp":"67270","fuels":{"Gazole":{"p":2.175,"d":"2026-04-30"},"E10":{"p":1.999,"d":"2026-04-30"},"SP98":{"p":2.071,"d":"2026-04-28"}},"brand":"Match"},{"id":67170006,"lat":48.70928,"lng":7.70777,"addr":"186 Avenue de Strasbourg","city":"BRUMATH","cp":"67170","fuels":{"Gazole":{"p":2.187,"d":"2026-04-30"},"E85":{"p":0.819,"d":"2026-04-30"},"E10":{"p":1.989,"d":"2026-04-30"},"SP98":{"p":2.039,"d":"2026-04-30"}},"brand":"Intermarché","services":["Toilettes publiques","Vente de fioul domestique","Piste poids lourds","Lavage manuel","Vente de gaz domestique (Butane, Propane)","DAB (Distributeur automatique de billets)"]},{"id":67140002,"lat":48.416,"lng":7.476,"addr":"2 Route de Bourgheim","city":"GERTWILLER","cp":"67140","fuels":{"Gazole":{"p":2.155,"d":"2026-04-30"},"E10":{"p":2.015,"d":"2026-04-30"},"SP98":{"p":2.119,"d":"2026-04-30"}},"brand":"Système U","h24":true,"services":["Toilettes publiques","Laverie","Boutique alimentaire","Boutique non alimentaire","Restauration à emporter","Restauration sur place","Aire de camping-cars","Location de véhicule","Lavage automatique","Lavage manuel","Vente de gaz domestique (Butane, Propane)","Wifi","Automate CB 24/24","DAB (Distributeur automatique de billets)"]},{"id":67540003,"lat":48.539,"lng":7.717,"addr":"AUT A 35  AIRE LES CHAUMES BP 33","city":"Ostwald","cp":"67540","fuels":{"Gazole":{"p":2.516,"d":"2026-05-01"},"E10":{"p":2.373,"d":"2026-05-01"},"SP98":{"p":2.424,"d":"2026-05-01"}},"brand":"Shell","services":["Toilettes publiques","Douches","Boutique alimentaire","Boutique non alimentaire","Restauration à emporter","Restauration sur place","Station de gonflage","Carburant additivé","Espace bébé","Vente d'additifs carburants","Wifi"]},{"id":67120004,"lat":48.52668,"lng":7.59899,"addr":"4 Route de Schirmeck","city":"DUPPIGHEIM","cp":"67120","fuels":{"Gazole":{"p":2.09,"d":"2026-05-01"},"E85":{"p":0.94,"d":"2026-04-11"},"E10":{"p":1.99,"d":"2026-04-21"},"SP98":{"p":1.99,"d":"2026-04-09"}},"brand":"TotalEnergies","services":["Toilettes publiques","Boutique alimentaire","Carburant additivé","Lavage automatique","Services réparation / entretien"]},{"id":67800001,"lat":48.61383,"lng":7.76136,"addr":"Rue de la Robertsau","city":"Bischheim","cp":"67800","fuels":{"Gazole":{"p":2.149,"d":"2026-04-30"},"E10":{"p":1.99,"d":"2026-04-30"},"SP98":{"p":2.088,"d":"2026-04-30"}},"services":["Piste poids lourds"]},{"id":67500012,"lat":48.819120999999996,"lng":7.784701999999999,"addr":"4 boulevard du maréchal de lattre de tassigny","city":"HAGUENAU","cp":"67500","fuels":{"Gazole":{"p":2.198,"d":"2026-04-30"},"E10":{"p":2.048,"d":"2026-04-27"},"SP98":{"p":2.118,"d":"2026-04-30"}},"brand":"Auchan","h24":true,"services":["Boutique alimentaire","Bornes électriques","Automate CB 24/24"]},{"id":67690002,"lat":48.90284,"lng":7.9686509999999995,"addr":"2 RUE DES COMMERCES","city":"HATTEN","cp":"67690","fuels":{"Gazole":{"p":2.199,"d":"2026-04-30"},"SP95":{"p":2.059,"d":"2026-04-30"},"SP98":{"p":2.099,"d":"2026-04-30"}},"brand":"Carrefour","services":["Automate CB 24/24"]},{"id":67310004,"lat":48.635,"lng":7.468,"addr":"20 ROUTE DE STRASBOURG","city":"WASSELONNE","cp":"67310","fuels":{"Gazole":{"p":2.09,"d":"2026-05-01"},"E85":{"p":0.809,"d":"2026-05-01"},"E10":{"p":1.99,"d":"2026-05-01"}},"brand":"TotalEnergies","services":["Toilettes publiques","Boutique alimentaire","Boutique non alimentaire","Restauration à emporter","Station de gonflage","Carburant additivé","Piste poids lourds","Lavage automatique","Lavage manuel","Vente de gaz domestique (Butane, Propane)"]},{"id":67190004,"lat":48.53268,"lng":7.47038,"addr":"ESPACE ATRIUM","city":"Mutzig","cp":"67190","fuels":{"Gazole":{"p":2.157,"d":"2026-04-30"},"SP95":{"p":2.034,"d":"2026-04-27"},"E85":{"p":0.809,"d":"2026-04-21"},"SP98":{"p":2.074,"d":"2026-04-30"}},"brand":"Système U"},{"id":67520001,"lat":48.61685458097,"lng":7.502297208323499,"addr":"1 Rue Griesmatt","city":"Marlenheim","cp":"67520","fuels":{"Gazole":{"p":2.159,"d":"2026-04-30"},"E85":{"p":0.809,"d":"2026-04-30"},"E10":{"p":2.005,"d":"2026-04-30"},"SP98":{"p":2.069,"d":"2026-04-30"}},"brand":"Auchan","h24":true,"services":["Automate CB 24/24"]},{"id":67190009,"lat":48.534,"lng":7.402,"addr":"RTE EXPRESS VALLEE LA BRUCHE","city":"GRESSWILLER","cp":"67190","fuels":{"Gazole":{"p":2.09,"d":"2026-05-01"},"E10":{"p":1.99,"d":"2026-05-01"}},"brand":"TotalEnergies","h24":true,"services":["Boutique alimentaire","Boutique non alimentaire","Bar","Station de gonflage","Piste poids lourds","Vente de gaz domestique (Butane, Propane)","Wifi","Automate CB 24/24"]},{"id":67160003,"lat":48.971675,"lng":7.9914648,"addr":"2 BIS RUE DE LA PAIX","city":"Seebach","cp":"67160","fuels":{"Gazole":{"p":2.196,"d":"2026-04-30"},"SP95":{"p":2.059,"d":"2026-04-28"},"E10":{"p":2.029,"d":"2026-04-29"},"SP98":{"p":2.099,"d":"2026-04-30"}},"brand":"Carrefour","h24":true,"services":["Relais colis","Boutique alimentaire","Boutique non alimentaire","Restauration à emporter","Piste poids lourds","Automate CB 24/24","DAB (Distributeur automatique de billets)"]},{"id":67130003,"lat":48.47898,"lng":7.2134,"addr":"24 Rue du Donon","city":"La Broque","cp":"67130","fuels":{"Gazole":{"p":2.159,"d":"2026-04-28"},"E10":{"p":1.959,"d":"2026-04-28"},"SP98":{"p":2.049,"d":"2026-04-28"}},"brand":"Intermarché","services":["Vente de fioul domestique","Lavage manuel","Vente de gaz domestique (Butane, Propane)","DAB (Distributeur automatique de billets)"]},{"id":67470001,"lat":48.89483,"lng":8.08632,"addr":"Route de Hatten","city":"SELTZ","cp":"67470","fuels":{"Gazole":{"p":2.199,"d":"2026-04-27"},"E10":{"p":2.019,"d":"2026-04-29"},"SP98":{"p":2.115,"d":"2026-04-27"}},"brand":"Système U","services":["Carburant additivé","Piste poids lourds","Lavage automatique","Lavage manuel","Vente de gaz domestique (Butane, Propane)"]},{"id":67150001,"lat":48.415,"lng":7.636,"addr":"ROUTE DE LYON","city":"Erstein","cp":"67150","fuels":{"Gazole":{"p":2.223,"d":"2026-04-30"},"E10":{"p":1.99,"d":"2026-04-30"},"SP98":{"p":2.071,"d":"2026-04-30"}},"brand":"Esso"},{"id":67340001,"lat":48.866,"lng":7.474,"addr":"ROUTE DE BOUXWILLER","city":"Ingwiller","cp":"67340","fuels":{"Gazole":{"p":2.09,"d":"2026-05-01"},"E10":{"p":1.99,"d":"2026-05-01"}},"brand":"TotalEnergies","h24":true,"services":["Boutique non alimentaire","Station de gonflage","Carburant additivé","Lavage automatique","Lavage manuel","Services réparation / entretien","Vente d'additifs carburants","Automate CB 24/24"]},{"id":67200011,"lat":48.57307,"lng":7.71737,"addr":"68 ROUTE DE SCHIRMECK","city":"STRASBOURG","cp":"67200","fuels":{"Gazole":{"p":2.09,"d":"2026-05-01"},"E10":{"p":1.99,"d":"2026-05-01"}},"brand":"TotalEnergies","services":["Relais colis","Boutique alimentaire","Boutique non alimentaire","Station de gonflage","Carburant additivé","Lavage automatique","Vente de gaz domestique (Butane, Propane)"]},{"id":67170009,"lat":48.7205793,"lng":7.6960945999999995,"addr":"AUTOROUTE A4 AIRE DE BRUMATH EST","city":"BRUMATH","cp":"67170","fuels":{"Gazole":{"p":2.339,"d":"2026-04-29"},"GPLc":{"p":1.211,"d":"2026-04-29"},"E10":{"p":2.119,"d":"2026-04-29"},"SP98":{"p":2.199,"d":"2026-04-29"}},"brand":"BP","services":["Toilettes publiques","Douches","Boutique alimentaire","Boutique non alimentaire","Restauration à emporter","Restauration sur place","Station de gonflage","Carburant additivé","Piste poids lourds","Espace bébé"]},{"id":67110002,"lat":48.935,"lng":7.661,"addr":"16 Faubourg de Niederbronn","city":"REICHSHOFFEN","cp":"67110","fuels":{"Gazole":{"p":2.25,"d":"2026-04-29"},"E10":{"p":1.99,"d":"2026-04-08"},"SP98":{"p":1.99,"d":"2026-04-08"}},"brand":"TotalEnergies","services":["Services réparation / entretien","Vente de gaz domestique (Butane, Propane)"]},{"id":67200012,"lat":48.596,"lng":7.709,"addr":"142 ROUTE D' OBERHAUSBERGEN","city":"STRASBOURG","cp":"67200","fuels":{"Gazole":{"p":2.09,"d":"2026-05-01"},"E85":{"p":0.815,"d":"2026-05-01"},"GPLc":{"p":1.007,"d":"2026-05-01"},"E10":{"p":1.99,"d":"2026-05-01"}},"brand":"TotalEnergies","services":["Boutique alimentaire","Boutique non alimentaire","Carburant additivé","Lavage automatique","Vente de gaz domestique (Butane, Propane)","Wifi"]},{"id":67112002,"lat":48.58,"lng":7.611,"addr":"2 RUE PRINCIPALE","city":"BREUSCHWICKERSHEIM","cp":"67112","fuels":{"Gazole":{"p":2.09,"d":"2026-05-01"},"E85":{"p":0.829,"d":"2026-04-17"},"E10":{"p":1.99,"d":"2026-04-23"},"SP98":{"p":1.99,"d":"2026-04-16"}},"brand":"TotalEnergies","h24":true,"services":["Toilettes publiques","Boutique alimentaire","Boutique non alimentaire","Station de gonflage","Carburant additivé","Piste poids lourds","Services réparation / entretien","Vente de gaz domestique (Butane, Propane)","Vente d'additifs carburants","Automate CB 24/24"]},{"id":67340002,"lat":48.868,"lng":7.47,"addr":"9 RUE DU WITTHOLZ","city":"INGWILLER","cp":"67340","fuels":{"Gazole":{"p":2.169,"d":"2026-04-27"},"E85":{"p":0.749,"d":"2026-04-16"},"E10":{"p":1.999,"d":"2026-04-28"},"SP98":{"p":2.099,"d":"2026-04-28"}},"brand":"Système U","h24":true,"services":["Toilettes publiques","Relais colis","Boutique alimentaire","Boutique non alimentaire","Restauration à emporter","Restauration sur place","Bar","Station de gonflage","Location de véhicule","Vente de gaz domestique (Butane, Propane)","Vente d'additifs carburants","Wifi","Automate CB 24/24","DAB (Distributeur automatique de billets)"]},{"id":67700011,"lat":48.742,"lng":7.357,"addr":"39 ROUTE DE PARIS RN4","city":"SAVERNE","cp":"67700","fuels":{"Gazole":{"p":2.09,"d":"2026-05-01"},"E85":{"p":0.803,"d":"2026-05-01"},"E10":{"p":1.99,"d":"2026-05-01"}},"brand":"TotalEnergies","h24":true,"services":["Boutique alimentaire","Boutique non alimentaire","Station de gonflage","Carburant additivé","Lavage manuel","Vente de gaz domestique (Butane, Propane)","Vente d'additifs carburants","Wifi","Automate CB 24/24"]},{"id":67460001,"lat":48.629,"lng":7.729,"addr":"67 Route de Brumath","city":"SOUFFELWEYERSHEIM","cp":"67460","fuels":{"Gazole":{"p":2.202,"d":"2026-04-30"},"E10":{"p":1.99,"d":"2026-04-30"}},"brand":"TotalEnergies","h24":true,"services":["Toilettes publiques","Boutique alimentaire","Station de gonflage","Carburant additivé","Piste poids lourds","Lavage automatique","Vente de gaz domestique (Butane, Propane)","Automate CB 24/24"]},{"id":67441001,"lat":48.701,"lng":7.375,"addr":"ROUTE DE SAVERNE","city":"MARMOUTIER","cp":"67440","fuels":{"Gazole":{"p":2.169,"d":"2026-04-30"},"SP95":{"p":2.061,"d":"2026-04-30"},"E85":{"p":0.736,"d":"2026-04-30"},"E10":{"p":2.023,"d":"2026-04-30"},"SP98":{"p":2.097,"d":"2026-04-30"}},"brand":"Leclerc","h24":true,"services":["Lavage automatique","Lavage manuel","Vente de gaz domestique (Butane, Propane)","Automate CB 24/24"]},{"id":67220005,"lat":48.340376299999996,"lng":7.313382900000001,"addr":"10 RUE DU HAUT KOENIGSBOURG","city":"Villé","cp":"67220","fuels":{"Gazole":{"p":2.09,"d":"2026-05-01"},"E10":{"p":1.99,"d":"2026-05-01"},"SP98":{"p":1.99,"d":"2026-05-01"}},"brand":"TotalEnergies","services":["Relais colis","Boutique alimentaire","Boutique non alimentaire","Station de gonflage","Lavage automatique","Lavage manuel","Services réparation / entretien","Vente de gaz domestique (Butane, Propane)","Bornes électriques"]},{"id":67700005,"lat":48.74041,"lng":7.37466,"addr":"38 Rue de Dettwiller","city":"SAVERNE","cp":"67700","fuels":{"Gazole":{"p":2.09,"d":"2026-05-01"},"E10":{"p":1.98,"d":"2026-04-23"},"SP98":{"p":1.99,"d":"2026-04-30"}},"brand":"TotalEnergies","services":["Toilettes publiques","Boutique alimentaire","Boutique non alimentaire","Station de gonflage","Piste poids lourds","Services réparation / entretien"]},{"id":67116002,"lat":48.653792639488,"lng":7.750958297308499,"addr":"Rue de Paris","city":"Reichstett","cp":"67116","fuels":{"Gazole":{"p":2.185,"d":"2026-04-25"},"E10":{"p":2.029,"d":"2026-04-30"},"SP98":{"p":2.099,"d":"2026-04-30"}},"brand":"Leclerc","h24":true,"services":["Lavage automatique","Lavage manuel","Vente de gaz domestique (Butane, Propane)","Automate CB 24/24"]},{"id":67170005,"lat":48.755,"lng":7.69,"addr":"route de brumath","city":"BERNOLSHEIM","cp":"67170","fuels":{"Gazole":{"p":2.187,"d":"2026-04-30"},"E85":{"p":0.819,"d":"2026-04-30"},"E10":{"p":1.999,"d":"2026-04-30"},"SP98":{"p":2.045,"d":"2026-04-30"}},"brand":"Système U","h24":true,"services":["Restauration à emporter","Restauration sur place","Station de gonflage","Laverie","Vente de gaz domestique (Butane, Propane)","Location de véhicule","Piste poids lourds","DAB (Distributeur automatique de billets)","Lavage automatique","Lavage manuel","Automate CB 24/24"]},{"id":67260010,"lat":48.974919061939,"lng":7.0642799047828,"addr":"AIRE DE KESKASTEL OUEST &#8211; A4","city":"KESKASTEL","cp":"67260","fuels":{"Gazole":{"p":2.244,"d":"2026-05-01"},"E10":{"p":2.059,"d":"2026-05-01"},"SP98":{"p":2.134,"d":"2026-05-01"}},"brand":"Shell","h24":true,"services":["Toilettes publiques","Douches","Laverie","Boutique alimentaire","Boutique non alimentaire","Restauration à emporter","Restauration sur place","Bar","Station de gonflage","Carburant additivé","Aire de camping-cars","Piste poids lourds","Espace bébé","Bornes électriques","Wifi","Automate CB 24/24"]},{"id":67230005,"lat":48.374,"lng":7.597,"addr":"Rue de Strasbourg","city":"Benfeld","cp":"67230","fuels":{"Gazole":{"p":2.169,"d":"2026-04-29"},"E85":{"p":0.819,"d":"2026-04-16"},"E10":{"p":1.959,"d":"2026-04-29"},"SP98":{"p":2.069,"d":"2026-04-29"}},"brand":"Intermarché","h24":true,"services":["Restauration sur place","Station de gonflage","Location de véhicule","Lavage automatique","Lavage manuel","Vente de gaz domestique (Butane, Propane)","Automate CB 24/24","DAB (Distributeur automatique de billets)"]},{"id":67640004,"lat":48.492,"lng":7.676,"addr":"RTE DE STRASBOURG RN 83","city":"FEGERSHEIM","cp":"67640","fuels":{"Gazole":{"p":2.09,"d":"2026-05-01"},"E10":{"p":1.99,"d":"2026-05-01"}},"brand":"TotalEnergies","h24":true,"services":["Toilettes publiques","Boutique alimentaire","Boutique non alimentaire","Station de gonflage","Automate CB 24/24"]},{"id":67390003,"lat":48.161158,"lng":7.54378,"addr":"31 rue maréchal joffre","city":"MARCKOLSHEIM","cp":"67390","fuels":{"Gazole":{"p":2.25,"d":"2026-04-13"},"SP95":{"p":1.99,"d":"2026-04-13"},"SP98":{"p":1.99,"d":"2026-04-17"}},"services":["Vente de gaz domestique (Butane, Propane)","Vente d'additifs carburants"]},{"id":67000032,"lat":48.6,"lng":7.779444,"addr":"59 RUE BOECKLIN","city":"STRASBOURG","cp":"67000","fuels":{"Gazole":{"p":2.329,"d":"2026-05-01"},"E10":{"p":2.129,"d":"2026-05-01"},"SP98":{"p":2.229,"d":"2026-05-01"}},"services":["Toilettes publiques","Boutique alimentaire","Station de gonflage","Carburant additivé","Vente de gaz domestique (Butane, Propane)"]},{"id":67000031,"lat":48.58715,"lng":7.76077,"addr":"9 AVENUE ALSACE","city":"STRASBOURG","cp":"67000","fuels":{"Gazole":{"p":2.329,"d":"2026-05-01"},"E85":{"p":0.999,"d":"2026-05-01"},"E10":{"p":2.129,"d":"2026-05-01"},"SP98":{"p":2.229,"d":"2026-05-01"}},"services":["Toilettes publiques","Boutique alimentaire","Station de gonflage","Carburant additivé","Vente de gaz domestique (Butane, Propane)"]},{"id":67260011,"lat":48.939896758553004,"lng":7.0854960936008,"addr":"4C rue du Maréchal Foch","city":"Sarre Union","cp":"67260","fuels":{"Gazole":{"p":2.239,"d":"2026-04-27"},"SP95":{"p":2.055,"d":"2026-04-27"},"SP98":{"p":2.139,"d":"2026-04-27"}},"services":["Laverie","Relais colis","Boutique alimentaire","Boutique non alimentaire","Restauration à emporter","Vente de gaz domestique (Butane, Propane)"]}]