[{"id":72380001,"lat":48.145,"lng":0.17,"addr":"zone artisanale Prairie des Moulins","city":"SAINTE-JAMME-SUR-SARTHE","cp":"72380","fuels":{"Gazole":{"p":2.155,"d":"2026-04-30"},"SP95":{"p":2.019,"d":"2026-04-30"},"E10":{"p":1.989,"d":"2026-04-30"},"SP98":{"p":2.069,"d":"2026-04-30"}},"brand":"Station U","h24":true,"services":["Toilettes publiques","Laverie","Relais colis","Boutique alimentaire","Boutique non alimentaire","Restauration à emporter","Restauration sur place","Station de gonflage","Location de véhicule","Lavage automatique","Lavage manuel","Vente de gaz domestique (Butane, Propane)","Automate CB 24/24","DAB (Distributeur automatique de billets)"]},{"id":72110002,"lat":48.277,"lng":0.461,"addr":"3 rue du Perche","city":"Saint-Cosme-en-Vairais","cp":"72110","fuels":{"Gazole":{"p":2.199,"d":"2026-04-30"},"E10":{"p":2.049,"d":"2026-04-30"},"SP98":{"p":2.149,"d":"2026-04-30"}},"brand":"Intermarché","h24":true,"services":["Toilettes publiques","Laverie","Station de gonflage","Piste poids lourds","Lavage manuel","Vente de gaz domestique (Butane, Propane)","Automate CB 24/24"]},{"id":72400017,"lat":48.124964192082,"lng":0.62210350597264,"addr":"AUT A11 AIRE DE LA FERTE BERNARD","city":"Villaines-la-Gonais","cp":"72400","fuels":{"Gazole":{"p":2.544,"d":"2026-04-30"},"GPLc":{"p":1.149,"d":"2026-04-30"},"E10":{"p":2.294,"d":"2026-04-30"},"SP98":{"p":2.394,"d":"2026-04-30"}},"brand":"Eni","services":["Toilettes publiques","Douches","Boutique alimentaire","Restauration à emporter","Restauration sur place","Bar","Station de gonflage","Carburant additivé","Aire de camping-cars","Piste poids lourds","Espace bébé"]},{"id":72440001,"lat":47.972,"lng":0.556,"addr":"129 RUE NATIONALE","city":"BOULOIRE","cp":"72440","fuels":{"Gazole":{"p":2.179,"d":"2026-04-21"},"SP95":{"p":2.019,"d":"2026-04-21"},"SP98":{"p":2.049,"d":"2026-04-21"}},"brand":"Système U","h24":true,"services":["Laverie","Station de gonflage","Location de véhicule","Automate CB 24/24"]},{"id":72190003,"lat":48.055086609731,"lng":0.25282942866116,"addr":"A11 - AIRE SARTHE SARGE LE MANS SUD","city":"Sargé-lès-le-Mans","cp":"72190","fuels":{"Gazole":{"p":2.09,"d":"2026-05-01"},"E85":{"p":0.999,"d":"2026-05-01"},"E10":{"p":1.99,"d":"2026-05-01"}},"brand":"TotalEnergies","h24":true,"services":["Toilettes publiques","Douches","Boutique alimentaire","Boutique non alimentaire","Station de gonflage","Carburant additivé","Aire de camping-cars","Piste poids lourds","Espace bébé","Bornes électriques","Vente d'additifs carburants","Wifi","Automate CB 24/24","DAB (Distributeur automatique de billets)"]},{"id":72320005,"lat":48.068127000000004,"lng":0.731916,"addr":"route de la ferte bernard","city":"vibraye","cp":"72320","fuels":{"Gazole":{"p":2.581,"d":"2026-04-08"}},"brand":"Carrefour","h24":true,"services":["Relais colis","Boutique alimentaire","Lavage automatique","Automate CB 24/24"]},{"id":72360002,"lat":47.762,"lng":0.275,"addr":"33 avenue du 14 juillet","city":"Mayet","cp":"72360","fuels":{"Gazole":{"p":2.229,"d":"2026-04-29"},"E10":{"p":1.995,"d":"2026-04-29"},"SP98":{"p":2.112,"d":"2026-04-29"}},"brand":"Carrefour","h24":true,"services":["Laverie","Relais colis","Boutique alimentaire","Automate CB 24/24"]},{"id":72650002,"lat":48.021,"lng":0.108,"addr":"RN 157 - LE RELAIS DE LA LANDE","city":"TRANGé","cp":"72650","fuels":{"Gazole":{"p":2.25,"d":"2026-04-27"},"E10":{"p":1.99,"d":"2026-04-27"}},"brand":"Total Contact","services":["Toilettes publiques","Boutique alimentaire","Boutique non alimentaire","Station de gonflage","Carburant additivé","Location de véhicule","Piste poids lourds","Services réparation / entretien","Vente d'additifs carburants"]},{"id":72300010,"lat":47.731906524016,"lng":-0.23805428567193002,"addr":"2 AVENUE DU POIRIER ROUGE","city":"La Chapelle-d'Aligné","cp":"72300","fuels":{"Gazole":{"p":2.176,"d":"2026-05-01"},"SP95":{"p":2.005,"d":"2026-05-01"}},"h24":true,"services":["Automate CB 24/24"]},{"id":72360001,"lat":47.757,"lng":0.272,"addr":"3 rue la croix beudet","city":"Mayet","cp":"72360","fuels":{"Gazole":{"p":2.335,"d":"2026-04-30"},"SP95":{"p":2.193,"d":"2026-04-01"}},"brand":"Spar","h24":true,"services":["Boutique alimentaire","Vente de gaz domestique (Butane, Propane)","Automate CB 24/24"]},{"id":72000014,"lat":47.997,"lng":0.228,"addr":"284 Avenue Léon Bollée","city":"Le Mans","cp":"72000","fuels":{"Gazole":{"p":2.198,"d":"2026-04-30"},"SP95":{"p":1.999,"d":"2026-04-30"},"E10":{"p":1.968,"d":"2026-04-30"},"SP98":{"p":2.068,"d":"2026-04-30"}},"brand":"Groupement des Mousquetaires","services":["Lavage manuel","Vente de gaz domestique (Butane, Propane)","DAB (Distributeur automatique de billets)"]},{"id":72440002,"lat":47.975,"lng":0.546,"addr":"1 Rue Nationale","city":"BOULOIRE","cp":"72440","fuels":{"Gazole":{"p":2.09,"d":"2026-05-01"},"E10":{"p":1.99,"d":"2026-04-21"}},"brand":"Total Contact","h24":true,"services":["Toilettes publiques","Boutique alimentaire","Boutique non alimentaire","Station de gonflage","Carburant additivé","Location de véhicule","Piste poids lourds","Lavage manuel","Services réparation / entretien","Vente de gaz domestique (Butane, Propane)","Vente d'additifs carburants","Automate CB 24/24"]},{"id":72300003,"lat":47.83052,"lng":-0.31316,"addr":"Route de la Flèche","city":"SABLé-SUR-SARTHE","cp":"72300","fuels":{"Gazole":{"p":2.17,"d":"2026-04-29"},"SP95":{"p":2.05,"d":"2026-04-04"},"E10":{"p":1.995,"d":"2026-04-08"}},"brand":"Carrefour","services":["Vente de gaz domestique (Butane, Propane)","DAB (Distributeur automatique de billets)"]},{"id":72140001,"lat":48.181243877499995,"lng":-0.12340474894799999,"addr":"ROUTE DU MANS","city":"SAINT-RéMY-DE-SILLé","cp":"72140","fuels":{"Gazole":{"p":2.175,"d":"2026-04-30"},"SP95":{"p":2.048,"d":"2026-04-30"},"E10":{"p":2.026,"d":"2026-04-30"},"SP98":{"p":2.065,"d":"2026-04-30"}},"brand":"Système U"},{"id":72170001,"lat":48.229,"lng":0.128,"addr":"RUE HENRI DE NAVARRE","city":"Beaumont-sur-Sarthe","cp":"72170","fuels":{"Gazole":{"p":2.199,"d":"2026-04-30"},"SP95":{"p":2.079,"d":"2026-04-30"},"E10":{"p":2.039,"d":"2026-04-30"},"SP98":{"p":2.099,"d":"2026-04-30"}},"brand":"Station U","h24":true,"services":["Relais colis","Station de gonflage","Location de véhicule","Piste poids lourds","Lavage automatique","Vente de gaz domestique (Butane, Propane)","Automate CB 24/24","DAB (Distributeur automatique de billets)"]},{"id":72400006,"lat":48.178,"lng":0.663,"addr":"49 ROUTE DE SAINT CALAIS","city":"La Ferté-Bernard","cp":"72400","fuels":{"Gazole":{"p":2.187,"d":"2026-04-30"},"SP95":{"p":1.983,"d":"2026-04-30"},"GPLc":{"p":1.02,"d":"2026-04-30"},"E10":{"p":1.977,"d":"2026-04-30"},"SP98":{"p":2.003,"d":"2026-04-30"}},"brand":"Leclerc","h24":true,"services":["Relais colis","Vente de pétrole lampant","Piste poids lourds","Lavage automatique","Lavage manuel","Vente de gaz domestique (Butane, Propane)","Automate CB 24/24"]},{"id":72100013,"lat":47.948,"lng":0.195,"addr":"RN 23 - AERODROME","city":"LE MANS","cp":"72100","fuels":{"E85":{"p":0.849,"d":"2026-05-01"},"GPLc":{"p":1.002,"d":"2026-05-01"}},"brand":"TotalEnergies","h24":true,"services":["Douches","Boutique alimentaire","Boutique non alimentaire","Restauration à emporter","Station de gonflage","Carburant additivé","Piste poids lourds","Vente de gaz domestique (Butane, Propane)","Vente d'additifs carburants","Wifi","Automate CB 24/24"]},{"id":72200001,"lat":47.701,"lng":-0.094,"addr":"ROUTE DES MOLLANS","city":"La Flèche","cp":"72200","fuels":{"Gazole":{"p":2.159,"d":"2026-04-25"},"E85":{"p":0.759,"d":"2026-04-23"},"E10":{"p":1.982,"d":"2026-04-25"},"SP98":{"p":2.062,"d":"2026-04-23"}},"brand":"Carrefour","h24":true,"services":["Station de gonflage","Vente de gaz domestique (Butane, Propane)","Automate CB 24/24","DAB (Distributeur automatique de billets)"]},{"id":72310001,"lat":47.842,"lng":0.756,"addr":"LES SABLONNIERES","city":"Bessé-sur-Braye","cp":"72310","fuels":{"Gazole":{"p":2.179,"d":"2026-04-30"},"E10":{"p":2.046,"d":"2026-04-30"},"SP98":{"p":2.118,"d":"2026-04-30"}},"brand":"Système U","h24":true,"services":["Laverie","Relais colis","Boutique alimentaire","Boutique non alimentaire","Restauration à emporter","Vente de fioul domestique","Station de gonflage","Location de véhicule","Piste poids lourds","Lavage automatique","Lavage manuel","Vente de gaz domestique (Butane, Propane)","Bornes électriques","Automate CB 24/24","DAB (Distributeur automatique de billets)"]},{"id":72200004,"lat":47.701,"lng":-0.056,"addr":"7 Rue Henri Dunant","city":"La Flèche","cp":"72200","fuels":{"Gazole":{"p":2.189,"d":"2026-04-30"},"E85":{"p":0.739,"d":"2026-04-29"},"GPLc":{"p":1.06,"d":"2026-04-03"},"E10":{"p":2.03,"d":"2026-04-30"},"SP98":{"p":2.099,"d":"2026-04-29"}},"brand":"Leclerc","h24":true,"services":["Toilettes publiques","Laverie","Relais colis","Boutique non alimentaire","Restauration sur place","Vente de fioul domestique","Station de gonflage","Aire de camping-cars","Piste poids lourds","Lavage automatique","Lavage manuel","Espace bébé","Vente de gaz domestique (Butane, Propane)","Bornes électriques","Automate CB 24/24","DAB (Distributeur automatique de billets)"]},{"id":72500002,"lat":47.651,"lng":0.469,"addr":"AUT A28 - AIRE DE SARTHE TOURAINE","city":"DISSAY-SOUS-COURCILLON","cp":"72500","fuels":{"Gazole":{"p":2.672,"d":"2026-04-01"},"GPLc":{"p":1.108,"d":"2026-04-01"},"E10":{"p":2.385,"d":"2026-04-01"},"SP98":{"p":2.535,"d":"2026-04-01"}},"brand":"Shell","h24":true,"services":["Toilettes publiques","Douches","Boutique alimentaire","Boutique non alimentaire","Restauration à emporter","Restauration sur place","Bar","Station de gonflage","Carburant additivé","Piste poids lourds","Espace bébé","Bornes électriques","Vente d'additifs carburants","Wifi","Automate CB 24/24","DAB (Distributeur automatique de billets)"]},{"id":72300007,"lat":47.838,"lng":-0.3,"addr":"Rue du Mans","city":"SABLé-SUR-SARTHE","cp":"72300","fuels":{"Gazole":{"p":2.109,"d":"2026-04-30"},"E85":{"p":0.854,"d":"2026-04-30"},"GPLc":{"p":1.051,"d":"2026-04-30"},"E10":{"p":1.965,"d":"2026-04-30"},"SP98":{"p":2.039,"d":"2026-04-30"}},"brand":"Leclerc","h24":true,"services":["Toilettes publiques","Laverie","Boutique alimentaire","Boutique non alimentaire","Restauration sur place","Bar","Station de gonflage","Location de véhicule","Piste poids lourds","Services réparation / entretien","Vente de gaz domestique (Butane, Propane)","Automate CB 24/24","DAB (Distributeur automatique de billets)"]},{"id":72000022,"lat":48.027,"lng":0.181,"addr":"362 AVENUE RHIN ET DANUBE","city":"LE MANS","cp":"72000","fuels":{"Gazole":{"p":2.279,"d":"2026-04-28"},"SP95":{"p":2.129,"d":"2026-04-28"},"E85":{"p":0.989,"d":"2026-04-02"},"GPLc":{"p":1.049,"d":"2026-04-16"},"SP98":{"p":2.169,"d":"2026-04-28"}},"brand":"Avia","h24":true,"services":["Relais colis","Boutique alimentaire","Boutique non alimentaire","Restauration à emporter","Restauration sur place","Station de gonflage","Carburant additivé","Piste poids lourds","Lavage automatique","Vente de gaz domestique (Butane, Propane)","Automate CB 24/24"]},{"id":72000015,"lat":48.02762387,"lng":0.18186484,"addr":"Avenue Georges Duhamel","city":"Le Mans","cp":"72000","fuels":{"Gazole":{"p":2.199,"d":"2026-04-29"},"E85":{"p":0.818,"d":"2026-04-17"},"E10":{"p":1.99,"d":"2026-04-29"},"SP98":{"p":2.089,"d":"2026-04-29"}},"brand":"Intermarché","services":["Toilettes publiques","Restauration sur place","Bar","Piste poids lourds","Lavage automatique","Lavage manuel","Vente de gaz domestique (Butane, Propane)","DAB (Distributeur automatique de billets)"]},{"id":72220002,"lat":47.840732388504,"lng":0.26260409465559004,"addr":"LE SOLEIL","city":"ÉCOMMOY","cp":"72220","fuels":{"Gazole":{"p":2.211,"d":"2026-04-30"},"E10":{"p":1.99,"d":"2026-04-30"},"SP98":{"p":1.99,"d":"2026-04-30"}},"brand":"TotalEnergies","h24":true,"services":["Carburant additivé","Piste poids lourds","Services réparation / entretien","Automate CB 24/24"]},{"id":72100002,"lat":47.99687,"lng":0.17957,"addr":"66 Avenue Olivier Heuzé","city":"Le Mans","cp":"72000","fuels":{"Gazole":{"p":2.209,"d":"2026-04-30"},"E85":{"p":0.899,"d":"2026-04-30"},"E10":{"p":1.989,"d":"2026-04-30"},"SP98":{"p":2.139,"d":"2026-04-30"}},"brand":"Carrefour","services":["Toilettes publiques","Laverie","Vente de gaz domestique (Butane, Propane)","DAB (Distributeur automatique de billets)"]},{"id":72300005,"lat":47.807490284577,"lng":-0.16714885670557,"addr":"AUT A 11 - AIRE DE PARCE OUEST","city":"Parcé-sur-Sarthe","cp":"72300","fuels":{"Gazole":{"p":2.615,"d":"2026-05-01"},"GPLc":{"p":1.184,"d":"2026-05-01"},"E10":{"p":2.507,"d":"2026-05-01"},"SP98":{"p":2.657,"d":"2026-05-01"}},"brand":"Shell","h24":true,"services":["Toilettes publiques","Douches","Boutique alimentaire","Boutique non alimentaire","Restauration à emporter","Restauration sur place","Bar","Station de gonflage","Carburant additivé","Aire de camping-cars","Piste poids lourds","Espace bébé","Bornes électriques","Wifi","Automate CB 24/24","DAB (Distributeur automatique de billets)"]},{"id":72230002,"lat":47.914,"lng":0.244,"addr":"Avenue de Bönen","city":"MULSANNE","cp":"72230","fuels":{"Gazole":{"p":2.176,"d":"2026-04-30"},"E10":{"p":2.001,"d":"2026-04-30"},"SP98":{"p":2.131,"d":"2026-04-30"}},"brand":"Carrefour","h24":true,"services":["Laverie","Relais colis","Boutique alimentaire","Vente de gaz domestique (Butane, Propane)","Automate CB 24/24","DAB (Distributeur automatique de billets)"]},{"id":72016001,"lat":48.022,"lng":0.228,"addr":"Route de Bonnetable","city":"LE MANS","cp":"72000","fuels":{"Gazole":{"p":2.14,"d":"2026-04-30"},"E10":{"p":1.979,"d":"2026-04-30"},"SP98":{"p":2.074,"d":"2026-04-30"}},"brand":"Leclerc","services":["Toilettes publiques","Boutique alimentaire","Boutique non alimentaire","Restauration à emporter","Restauration sur place","Bar","Vente de fioul domestique","Station de gonflage","Carburant additivé","Vente de gaz domestique (Butane, Propane)","DAB (Distributeur automatique de billets)"]},{"id":72230006,"lat":47.934,"lng":0.187,"addr":"22 Avenue Nationale","city":"ARNAGE","cp":"72230","fuels":{"Gazole":{"p":2.249,"d":"2026-04-29"},"E85":{"p":0.899,"d":"2026-04-14"},"E10":{"p":2.089,"d":"2026-04-29"},"SP98":{"p":2.249,"d":"2026-04-29"}},"brand":"Esso","h24":true,"services":["Toilettes publiques","Relais colis","Boutique alimentaire","Boutique non alimentaire","Vente de fioul domestique","Station de gonflage","Carburant additivé","Piste poids lourds","Lavage automatique","Lavage manuel","Services réparation / entretien","Vente de gaz domestique (Butane, Propane)","Automate CB 24/24","DAB (Distributeur automatique de billets)"]},{"id":72260001,"lat":48.254,"lng":0.314,"addr":"15 Rue Mohain","city":"MAROLLES-LES-BRAULTS","cp":"72260","fuels":{"Gazole":{"p":2.229,"d":"2026-04-28"},"E10":{"p":2.069,"d":"2026-04-28"},"SP98":{"p":2.129,"d":"2026-04-28"}},"brand":"Système U","h24":true,"services":["Toilettes publiques","Laverie","Relais colis","Restauration à emporter","Location de véhicule","Piste poids lourds","Lavage automatique","Lavage manuel","Vente de gaz domestique (Butane, Propane)","Automate CB 24/24","DAB (Distributeur automatique de billets)"]},{"id":72110001,"lat":48.172,"lng":0.42,"addr":"43 AVENUE DU 8 MAI 1945","city":"BONNETABLE","cp":"72110","fuels":{"Gazole":{"p":2.149,"d":"2026-04-30"},"E85":{"p":0.769,"d":"2026-04-27"},"E10":{"p":2.029,"d":"2026-04-30"},"SP98":{"p":2.099,"d":"2026-04-30"}},"brand":"Système U","services":["Toilettes publiques","Relais colis","Station de gonflage","Location de véhicule","Piste poids lourds","Lavage automatique","Lavage manuel","Vente de gaz domestique (Butane, Propane)","DAB (Distributeur automatique de billets)"]},{"id":72100012,"lat":47.98,"lng":0.221,"addr":"146 AVENUE DU DR JEAN MAC","city":"LE MANS","cp":"72100","fuels":{"Gazole":{"p":2.09,"d":"2026-05-01"},"GPLc":{"p":1.019,"d":"2026-05-01"}},"brand":"TotalEnergies","h24":true,"services":["Boutique alimentaire","Boutique non alimentaire","Station de gonflage","Carburant additivé","Lavage automatique","Vente de gaz domestique (Butane, Propane)","Vente d'additifs carburants","Wifi","Automate CB 24/24"]},{"id":72000003,"lat":48.002,"lng":0.185,"addr":"186 Avenue de la Libération","city":"LE MANS","cp":"72000","fuels":{"Gazole":{"p":2.39,"d":"2026-04-21"},"SP95":{"p":1.998,"d":"2026-04-21"},"E10":{"p":1.955,"d":"2026-04-21"}},"brand":"Système U"},{"id":72000010,"lat":48.017669122099996,"lng":0.218862233456,"addr":"44 Rue de Bonnétable","city":"LE MANS","cp":"72000","fuels":{"E10":{"p":1.99,"d":"2026-04-28"}},"brand":"TotalEnergies","services":["Toilettes publiques","Boutique non alimentaire","Station de gonflage","Carburant additivé","Piste poids lourds","Lavage automatique","Services réparation / entretien"]},{"id":72610001,"lat":48.40802,"lng":0.08612,"addr":"Route du Mans","city":"ARçONNAY","cp":"72610","fuels":{"Gazole":{"p":2.149,"d":"2026-04-30"},"SP95":{"p":2.029,"d":"2026-04-30"},"E85":{"p":0.789,"d":"2026-04-20"},"GPLc":{"p":1.049,"d":"2026-04-29"},"E10":{"p":1.999,"d":"2026-04-30"},"SP98":{"p":2.039,"d":"2026-04-30"}},"brand":"Leclerc","services":["Boutique non alimentaire","Vente de pétrole lampant","Piste poids lourds","Lavage automatique","Lavage manuel","Vente de gaz domestique (Butane, Propane)","DAB (Distributeur automatique de billets)"]},{"id":72130006,"lat":48.299,"lng":0.097,"addr":"6 AVENUE DIVISION LECLERC","city":"Saint-Germain-sur-Sarthe","cp":"72130","fuels":{"Gazole":{"p":2.09,"d":"2026-05-01"},"E10":{"p":1.99,"d":"2026-05-01"}},"brand":"TotalEnergies","h24":true,"services":["Toilettes publiques","Boutique alimentaire","Station de gonflage","Piste poids lourds","Lavage automatique","Vente de gaz domestique (Butane, Propane)","Vente d'additifs carburants","Wifi","Automate CB 24/24"]},{"id":72430002,"lat":47.859877366746005,"lng":-0.10324861539621999,"addr":"ZA LE TERTRE","city":"Noyen-sur-Sarthe","cp":"72430","fuels":{"Gazole":{"p":2.259,"d":"2026-04-22"},"SP95":{"p":2.059,"d":"2026-04-22"},"SP98":{"p":2.099,"d":"2026-04-22"}},"brand":"Carrefour"},{"id":72550002,"lat":48.024,"lng":0.066,"addr":"RELAIS DE LA COLOMBERIE LA GROIE RD357","city":"Chaufour-Notre-Dame","cp":"72550","fuels":{"Gazole":{"p":2.25,"d":"2026-04-29"},"E10":{"p":1.99,"d":"2026-04-08"},"SP98":{"p":1.99,"d":"2026-04-29"}},"brand":"TotalEnergies","h24":true,"services":["Boutique alimentaire","Station de gonflage","Carburant additivé","Piste poids lourds","Lavage manuel","Services réparation / entretien","Vente de gaz domestique (Butane, Propane)","Automate CB 24/24"]},{"id":72150002,"lat":47.87,"lng":0.467,"addr":"La Florière","city":"Le Grand-Lucé","cp":"72150","fuels":{"Gazole":{"p":2.199,"d":"2026-04-30"},"E10":{"p":1.989,"d":"2026-04-30"},"SP98":{"p":2.072,"d":"2026-04-30"}},"brand":"Intermarché","services":["Laverie","Station de gonflage","Lavage manuel","Vente de gaz domestique (Butane, Propane)","DAB (Distributeur automatique de billets)"]},{"id":72330001,"lat":47.83,"lng":0.077,"addr":"62 Rue Nationale","city":"CéRANS-FOULLETOURTE","cp":"72330","fuels":{"Gazole":{"p":2.169,"d":"2026-04-30"},"SP95":{"p":2.019,"d":"2026-04-30"},"SP98":{"p":2.109,"d":"2026-04-30"}},"brand":"Carrefour","h24":true,"services":["Toilettes publiques","Laverie","Relais colis","Boutique alimentaire","Boutique non alimentaire","Vente de pétrole lampant","Station de gonflage","Location de véhicule","Lavage automatique","Lavage manuel","Vente de gaz domestique (Butane, Propane)","Automate CB 24/24","DAB (Distributeur automatique de billets)"]},{"id":72190004,"lat":48.05557327,"lng":0.25581708999999997,"addr":"A11-AIRE SARTHE SARGE LE MANS NORD","city":"Sargé-lès-le-Mans","cp":"72190","fuels":{"Gazole":{"p":2.09,"d":"2026-05-01"},"E85":{"p":0.999,"d":"2026-05-01"},"GPLc":{"p":1.159,"d":"2026-05-01"},"E10":{"p":1.99,"d":"2026-05-01"},"SP98":{"p":1.99,"d":"2026-05-01"}},"brand":"TotalEnergies","services":["Toilettes publiques","Douches","Boutique alimentaire","Boutique non alimentaire","Restauration à emporter","Restauration sur place","Station de gonflage","Carburant additivé","Espace bébé","DAB (Distributeur automatique de billets)"]},{"id":72700007,"lat":47.973277870149,"lng":0.15860629408471,"addr":"2 AV GENERAL DE GAULLE","city":"ALLONNES","cp":"72700","fuels":{"Gazole":{"p":2.149,"d":"2026-04-30"},"E85":{"p":0.815,"d":"2026-04-29"},"E10":{"p":1.985,"d":"2026-04-30"},"SP98":{"p":2.049,"d":"2026-04-30"}},"brand":"Leclerc","h24":true,"services":["Station de gonflage","Carburant additivé","Location de véhicule","Lavage automatique","Vente de gaz domestique (Butane, Propane)","Automate CB 24/24"]},{"id":72200003,"lat":47.695899208639005,"lng":-0.09810089300197,"addr":"Avenue de Verdun","city":"LA FLèCHE","cp":"72200","fuels":{"Gazole":{"p":2.09,"d":"2026-04-30"},"E85":{"p":0.844,"d":"2026-04-30"},"E10":{"p":1.99,"d":"2026-04-30"}},"brand":"Total Contact","services":["Toilettes publiques","Boutique non alimentaire","Station de gonflage","Carburant additivé","Location de véhicule","Piste poids lourds","Lavage automatique","Services réparation / entretien"]},{"id":72470004,"lat":48.016,"lng":0.328,"addr":"RN 23 - LES FOSSES","city":"CHAMPAGNE","cp":"72470","fuels":{"Gazole":{"p":2.09,"d":"2026-05-01"},"E10":{"p":1.99,"d":"2026-05-01"},"SP98":{"p":1.99,"d":"2026-05-01"}},"brand":"TotalEnergies","services":["Boutique alimentaire","Boutique non alimentaire","Restauration à emporter","Station de gonflage","Carburant additivé","Piste poids lourds","Vente de gaz domestique (Butane, Propane)"]},{"id":72000012,"lat":47.972,"lng":0.217,"addr":"309 Avenue Georges Durand","city":"LE MANS","cp":"72100","fuels":{"Gazole":{"p":2.219,"d":"2026-04-28"},"SP95":{"p":1.989,"d":"2026-04-25"},"E10":{"p":1.969,"d":"2026-04-28"},"SP98":{"p":2.069,"d":"2026-04-30"}},"brand":"Carrefour","h24":true,"services":["Station de gonflage","Carburant additivé","Vente de gaz domestique (Butane, Propane)","Automate CB 24/24","DAB (Distributeur automatique de billets)"]},{"id":72400005,"lat":48.175,"lng":0.653,"addr":"RD 323","city":"CHERRE","cp":"72400","fuels":{"Gazole":{"p":2.299,"d":"2026-04-20"},"E85":{"p":0.929,"d":"2026-03-31"},"GPLc":{"p":1.039,"d":"2026-04-14"},"E10":{"p":2.019,"d":"2026-04-27"},"SP98":{"p":2.199,"d":"2026-03-31"}},"brand":"Avia","h24":true,"services":["Toilettes publiques","Boutique non alimentaire","Station de gonflage","Carburant additivé","Location de véhicule","Piste poids lourds","Services réparation / entretien","Vente de gaz domestique (Butane, Propane)","Vente d'additifs carburants","Automate CB 24/24","DAB (Distributeur automatique de billets)"]},{"id":72600002,"lat":48.343,"lng":0.37,"addr":"Route de la Ferté Bernard","city":"SAINT-RéMY-DES-MONTS","cp":"72600","fuels":{"Gazole":{"p":2.179,"d":"2026-04-30"},"SP95":{"p":2.049,"d":"2026-04-30"},"E85":{"p":0.819,"d":"2026-04-14"},"GPLc":{"p":1.02,"d":"2026-04-04"},"E10":{"p":2.029,"d":"2026-04-30"}},"brand":"Intermarché","services":["Laverie","Vente de pétrole lampant","Station de gonflage","Piste poids lourds","Lavage automatique","Lavage manuel","Vente de gaz domestique (Butane, Propane)","Vente d'additifs carburants","DAB (Distributeur automatique de billets)"]},{"id":72000002,"lat":47.992,"lng":0.225,"addr":"BOULEVARD WINSTON CHURCHILL","city":"LE MANS","cp":"72100","fuels":{"Gazole":{"p":2.389,"d":"2026-04-21"},"E10":{"p":1.969,"d":"2026-04-21"},"SP98":{"p":2.089,"d":"2026-04-21"}},"brand":"Carrefour","h24":true,"services":["Vente de gaz domestique (Butane, Propane)","Automate CB 24/24"]},{"id":72300004,"lat":47.803,"lng":-0.168,"addr":"AUT A11 - AIRE DE PARCE EST","city":"Parcé-sur-Sarthe","cp":"72300","fuels":{"Gazole":{"p":2.615,"d":"2026-05-01"},"GPLc":{"p":1.192,"d":"2026-05-01"},"E10":{"p":2.507,"d":"2026-05-01"},"SP98":{"p":2.657,"d":"2026-05-01"}},"brand":"Shell","services":["Toilettes publiques","Douches","Boutique alimentaire","Boutique non alimentaire","Restauration à emporter","Restauration sur place","Station de gonflage","Carburant additivé","Espace bébé","Bornes électriques","Wifi"]},{"id":72470005,"lat":48.015893,"lng":0.3315612,"addr":"LA CHESNAIE RTE DE FATINES","city":"CHAMPAGNE","cp":"72470","fuels":{"Gazole":{"p":2.179,"d":"2026-04-30"},"E10":{"p":1.989,"d":"2026-04-30"},"SP98":{"p":2.066,"d":"2026-04-30"}},"brand":"Intermarché","services":["Vente de gaz domestique (Butane, Propane)"]},{"id":72170004,"lat":48.197533,"lng":0.16889,"addr":"GARE DE PEAGE MARESCHE A28","city":"Maresché","cp":"72170","fuels":{"Gazole":{"p":2.09,"d":"2026-05-01"},"E10":{"p":1.99,"d":"2026-05-01"}},"brand":"TotalEnergies"},{"id":72700002,"lat":47.976245864270005,"lng":0.15674966213108,"addr":"Route de la Suze","city":"ALLONNES","cp":"72700","fuels":{"Gazole":{"p":2.149,"d":"2026-04-30"},"SP95":{"p":1.995,"d":"2026-04-30"},"E85":{"p":0.815,"d":"2026-04-29"},"GPLc":{"p":1.089,"d":"2026-04-27"},"E10":{"p":1.985,"d":"2026-04-30"}},"brand":"Leclerc","services":["Toilettes publiques","Laverie","Boutique alimentaire","Boutique non alimentaire","Restauration à emporter","Restauration sur place","Bar","Vente de fioul domestique","Vente de pétrole lampant","Station de gonflage","Carburant additivé","Piste poids lourds","Lavage manuel","Vente de gaz domestique (Butane, Propane)","DAB (Distributeur automatique de billets)"]},{"id":72650001,"lat":48.04,"lng":0.176,"addr":"ZAC du Moulin aux Moines","city":"La Chapelle-Saint-Aubin","cp":"72650","fuels":{"Gazole":{"p":2.145,"d":"2026-04-30"},"SP95":{"p":1.979,"d":"2026-04-30"},"E85":{"p":0.818,"d":"2026-04-17"},"GPLc":{"p":0.981,"d":"2026-04-01"},"E10":{"p":1.985,"d":"2026-04-30"},"SP98":{"p":2.079,"d":"2026-04-28"}},"brand":"Auchan","services":["Station de gonflage","Vente de gaz domestique (Butane, Propane)"]},{"id":72400002,"lat":48.194,"lng":0.669,"addr":"94-96 Av. de Verdun","city":"La Ferté-Bernard","cp":"72400","fuels":{"E10":{"p":1.99,"d":"2026-04-29"}},"brand":"TotalEnergies","h24":true,"services":["Boutique non alimentaire","Station de gonflage","Carburant additivé","Piste poids lourds","Services réparation / entretien","Automate CB 24/24"]},{"id":72800002,"lat":47.64,"lng":0.154,"addr":"Avenue de Saumur","city":"LE LUDE","cp":"72800","fuels":{"Gazole":{"p":2.059,"d":"2026-04-27"},"E10":{"p":1.943,"d":"2026-04-28"},"SP98":{"p":2.045,"d":"2026-04-28"}},"brand":"Groupement des Mousquetaires","h24":true,"services":["Restauration à emporter","Restauration sur place","Station de gonflage","Location de véhicule","Piste poids lourds","Lavage automatique","Lavage manuel","Vente de gaz domestique (Butane, Propane)","Automate CB 24/24","DAB (Distributeur automatique de billets)"]},{"id":72100001,"lat":47.985,"lng":0.186,"addr":"168 Rue d'Arnage","city":"LE MANS","cp":"72100","fuels":{"Gazole":{"p":2.209,"d":"2026-04-30"},"GPLc":{"p":1.059,"d":"2026-04-30"},"E10":{"p":1.999,"d":"2026-04-30"},"SP98":{"p":2.109,"d":"2026-04-30"}},"brand":"Carrefour","h24":true,"services":["Relais colis","Boutique alimentaire","Boutique non alimentaire","Restauration à emporter","Vente de pétrole lampant","Location de véhicule","Lavage automatique","Lavage manuel","Vente de gaz domestique (Butane, Propane)","Automate CB 24/24","DAB (Distributeur automatique de billets)"]},{"id":72450001,"lat":48.052,"lng":0.419,"addr":"Rue des Violettes","city":"MONTFORT-LE-GESNOIS","cp":"72450","fuels":{"Gazole":{"p":2.149,"d":"2026-04-30"},"E10":{"p":1.989,"d":"2026-04-30"},"SP98":{"p":2.049,"d":"2026-04-30"}},"brand":"Station U","h24":true,"services":["Laverie","Relais colis","Station de gonflage","Location de véhicule","Lavage automatique","Lavage manuel","Vente de gaz domestique (Butane, Propane)","Automate CB 24/24","DAB (Distributeur automatique de billets)"]},{"id":72220001,"lat":47.8396825321,"lng":0.262623079173,"addr":"CENTRE COMMERCIAL LE BELINOIS","city":"ÉCOMMOY","cp":"72220","fuels":{"Gazole":{"p":2.199,"d":"2026-04-30"},"E85":{"p":0.795,"d":"2026-04-20"},"GPLc":{"p":1.019,"d":"2026-04-27"},"E10":{"p":2.029,"d":"2026-04-30"},"SP98":{"p":2.089,"d":"2026-04-30"}},"brand":"Système U","services":["Station de gonflage","Location de véhicule","Lavage automatique","Lavage manuel","Vente de gaz domestique (Butane, Propane)","DAB (Distributeur automatique de billets)"]},{"id":72120004,"lat":47.927,"lng":0.727,"addr":"RN 157","city":"SAINT-CALAIS","cp":"72120","fuels":{"Gazole":{"p":2.25,"d":"2026-04-13"},"SP95":{"p":1.99,"d":"2026-04-13"},"E85":{"p":0.9,"d":"2026-04-14"}},"brand":"Elan","services":["Toilettes publiques","Boutique non alimentaire","Station de gonflage","Carburant additivé","Piste poids lourds","Services réparation / entretien"]},{"id":72130001,"lat":48.28681,"lng":0.02218,"addr":"RUE ABBE LELIEVRE","city":"FRESNAY-SUR-SARTHE","cp":"72130","fuels":{"Gazole":{"p":2.25,"d":"2026-04-30"},"SP95":{"p":2.15,"d":"2026-04-30"},"E10":{"p":2.1,"d":"2026-04-30"},"SP98":{"p":2.2,"d":"2026-04-30"}},"brand":"Système U","services":["Location de véhicule","Piste poids lourds","Lavage manuel","Vente de gaz domestique (Butane, Propane)","DAB (Distributeur automatique de billets)"]},{"id":72120001,"lat":47.919,"lng":0.766,"addr":"ZA DU PRESSOIR","city":"SAINT-CALAIS","cp":"72120","fuels":{"Gazole":{"p":2.206,"d":"2026-04-28"},"SP95":{"p":2.05,"d":"2026-04-28"},"SP98":{"p":2.132,"d":"2026-04-28"}},"brand":"Carrefour","h24":true,"services":["Toilettes publiques","Laverie","Relais colis","Station de gonflage","Location de véhicule","Piste poids lourds","Vente de gaz domestique (Butane, Propane)","Automate CB 24/24","DAB (Distributeur automatique de billets)"]},{"id":72240001,"lat":48.12,"lng":-0.011,"addr":"ROUTE DU MANS","city":"Conlie","cp":"72240","fuels":{"Gazole":{"p":2.175,"d":"2026-04-30"},"SP95":{"p":2.048,"d":"2026-04-30"},"SP98":{"p":2.065,"d":"2026-04-30"}},"brand":"Système U","services":["Toilettes publiques","Laverie","Boutique alimentaire","Restauration à emporter","Vente de fioul domestique","Vente de pétrole lampant","Station de gonflage","Location de véhicule","Piste poids lourds","Lavage automatique","Lavage manuel","Vente de gaz domestique (Butane, Propane)","DAB (Distributeur automatique de billets)"]},{"id":72120003,"lat":47.918,"lng":0.746,"addr":"7 Avenue Charles de Gaulle","city":"SAINT-CALAIS","cp":"72120","fuels":{"SP95":{"p":1.99,"d":"2026-04-23"}},"brand":"TotalEnergies","h24":true,"services":["Boutique alimentaire","Boutique non alimentaire","Station de gonflage","Carburant additivé","Piste poids lourds","Lavage manuel","Services réparation / entretien","Vente de gaz domestique (Butane, Propane)","Automate CB 24/24","DAB (Distributeur automatique de billets)"]},{"id":72160002,"lat":48.061,"lng":0.497,"addr":"Rue de Paris","city":"CONNERRé","cp":"72160","fuels":{"Gazole":{"p":2.189,"d":"2026-04-30"},"GPLc":{"p":1.02,"d":"2026-04-13"},"E10":{"p":1.989,"d":"2026-04-30"},"SP98":{"p":2.119,"d":"2026-04-30"}},"brand":"Carrefour","h24":true,"services":["Lavage manuel","Vente de gaz domestique (Butane, Propane)","Automate CB 24/24","DAB (Distributeur automatique de billets)"]},{"id":72000001,"lat":48.017,"lng":0.219,"addr":"2 Rue de Bonnétable","city":"LE MANS","cp":"72000","fuels":{"Gazole":{"p":2.299,"d":"2026-04-16"},"E10":{"p":1.999,"d":"2026-04-08"},"SP98":{"p":2.074,"d":"2026-04-08"}},"brand":"Carrefour","services":["Carburant additivé","Vente de gaz domestique (Butane, Propane)","DAB (Distributeur automatique de billets)"]},{"id":72460002,"lat":48.064,"lng":0.279,"addr":"ZAC DE L'EPINE","city":"Savigné-l'Évêque","cp":"72460","fuels":{"Gazole":{"p":2.22,"d":"2026-04-29"},"E85":{"p":0.818,"d":"2026-04-29"},"E10":{"p":1.99,"d":"2026-04-29"}},"brand":"Carrefour","services":["Toilettes publiques","Piste poids lourds","Vente de gaz domestique (Butane, Propane)","DAB (Distributeur automatique de billets)"]},{"id":72250001,"lat":47.9404382707,"lng":0.354735227494,"addr":"LE RUISSEAU","city":"PARIGNé-L'ÉVêQUE","cp":"72250","fuels":{"Gazole":{"p":2.199,"d":"2026-04-30"},"SP95":{"p":2.019,"d":"2026-04-30"},"E85":{"p":0.799,"d":"2026-04-30"},"E10":{"p":1.989,"d":"2026-04-30"},"SP98":{"p":2.059,"d":"2026-04-30"}},"brand":"Système U"},{"id":72100004,"lat":47.964,"lng":0.201,"addr":"AVENUE FELIX GENESLAY","city":"LE MANS","cp":"72100","fuels":{"Gazole":{"p":2.25,"d":"2026-04-24"},"E10":{"p":1.99,"d":"2026-04-21"},"SP98":{"p":1.99,"d":"2026-04-20"}},"brand":"TotalEnergies","services":["Toilettes publiques","Boutique alimentaire","Boutique non alimentaire","Station de gonflage","Carburant additivé","Piste poids lourds","Vente de gaz domestique (Butane, Propane)","Vente d'additifs carburants"]},{"id":72600001,"lat":48.351,"lng":0.386,"addr":"ROUTE BELLEME","city":"MAMERS","cp":"72600","fuels":{"Gazole":{"p":2.179,"d":"2026-04-30"},"SP95":{"p":2.049,"d":"2026-04-27"},"GPLc":{"p":1.019,"d":"2026-03-02"},"E10":{"p":2.059,"d":"2026-04-30"},"SP98":{"p":2.099,"d":"2026-04-30"}},"brand":"Station U","h24":true,"services":["Station de gonflage","Piste poids lourds","Lavage automatique","Lavage manuel","Vente de gaz domestique (Butane, Propane)","Automate CB 24/24","DAB (Distributeur automatique de billets)"]},{"id":72350001,"lat":47.974,"lng":-0.231,"addr":"ROUTE DE SILLE","city":"BRûLON","cp":"72350","fuels":{"Gazole":{"p":2.239,"d":"2026-04-24"},"E10":{"p":1.99,"d":"2026-04-24"},"SP98":{"p":1.99,"d":"2026-04-24"}},"brand":"Total Contact","h24":true,"services":["Toilettes publiques","Boutique non alimentaire","Station de gonflage","Carburant additivé","Piste poids lourds","Lavage manuel","Services réparation / entretien","Automate CB 24/24"]},{"id":72500001,"lat":47.687,"lng":0.433,"addr":"zac du chêne vert","city":"Montval sur Loir","cp":"72500","fuels":{"Gazole":{"p":2.111,"d":"2026-04-27"},"SP95":{"p":2.018,"d":"2026-04-27"},"E85":{"p":0.808,"d":"2026-04-16"},"GPLc":{"p":1.021,"d":"2026-04-16"},"E10":{"p":1.968,"d":"2026-04-27"},"SP98":{"p":2.038,"d":"2026-04-28"}},"brand":"Leclerc","services":["Boutique alimentaire","Boutique non alimentaire","Vente de gaz domestique (Butane, Propane)"]},{"id":72560001,"lat":47.981,"lng":0.278,"addr":"Lieu-dit Le Grand Pin","city":"Changé","cp":"72560","fuels":{"Gazole":{"p":2.149,"d":"2026-04-30"},"SP95":{"p":2.009,"d":"2026-04-30"},"E10":{"p":1.999,"d":"2026-04-30"},"SP98":{"p":2.049,"d":"2026-04-30"}},"brand":"Independent"},{"id":72340001,"lat":47.74,"lng":0.583,"addr":"LA MALADRERIE","city":"La Chartre-sur-le-Loir","cp":"72340","fuels":{"Gazole":{"p":2.179,"d":"2026-04-30"},"E10":{"p":2.046,"d":"2026-04-30"},"SP98":{"p":2.118,"d":"2026-04-30"}},"brand":"Système U","h24":true,"services":["Relais colis","Station de gonflage","Location de véhicule","Piste poids lourds","Lavage automatique","Lavage manuel","Vente de gaz domestique (Butane, Propane)","Automate CB 24/24","DAB (Distributeur automatique de billets)"]},{"id":72190005,"lat":48.032748895413995,"lng":0.19674858185650998,"addr":"chemin de la pointe","city":"Saint-Pavace","cp":"72190","fuels":{"Gazole":{"p":2.209,"d":"2026-04-30"},"E85":{"p":0.919,"d":"2026-03-05"},"GPLc":{"p":0.981,"d":"2026-04-08"},"E10":{"p":1.999,"d":"2026-03-23"},"SP98":{"p":2.119,"d":"2026-04-30"}},"brand":"Système U","h24":true,"services":["Laverie","Station de gonflage","Location de véhicule","Piste poids lourds","Lavage automatique","Lavage manuel","Vente de gaz domestique (Butane, Propane)","Automate CB 24/24"]},{"id":72230005,"lat":48.023,"lng":-0.324,"addr":"AUTOROUTE A 81","city":"Saint-Denis-d'Orques","cp":"72350","fuels":{"Gazole":{"p":2.351,"d":"2026-05-01"},"GPLc":{"p":1.139,"d":"2026-05-01"},"E10":{"p":2.177,"d":"2026-05-01"},"SP98":{"p":2.277,"d":"2026-05-01"}},"brand":"Esso"},{"id":72130009,"lat":48.317274120676,"lng":-0.025157910999999998,"addr":"CC - Rue des érables","city":"Sougé-le-Ganelon","cp":"72130","fuels":{"Gazole":{"p":2.199,"d":"2026-04-30"},"SP95":{"p":2.069,"d":"2026-04-30"},"SP98":{"p":2.139,"d":"2026-04-30"}},"brand":"Carrefour","h24":true,"services":["Laverie","Boutique alimentaire","Boutique non alimentaire","Restauration à emporter","Vente de pétrole lampant","Lavage manuel","Vente de gaz domestique (Butane, Propane)","Automate CB 24/24"]},{"id":72400001,"lat":48.182,"lng":0.662,"addr":"AVENUE PIERRE BRULE","city":"LA FERTé-BERNARD","cp":"72400","fuels":{"Gazole":{"p":2.239,"d":"2026-04-28"},"E10":{"p":1.999,"d":"2026-04-28"},"SP98":{"p":2.099,"d":"2026-04-28"}},"brand":"Carrefour","services":["Vente de fioul domestique","Vente de gaz domestique (Butane, Propane)","DAB (Distributeur automatique de billets)"]},{"id":72300009,"lat":47.856344215874,"lng":-0.36064983612302,"addr":"LE PETIT ERABLE, ROUTE DE LAVAL","city":"Sablé-sur-Sarthe","cp":"72300","fuels":{"Gazole":{"p":2.25,"d":"2026-04-30"},"E85":{"p":0.864,"d":"2026-04-30"},"E10":{"p":1.99,"d":"2026-04-30"},"SP98":{"p":1.99,"d":"2026-04-30"}},"brand":"TotalEnergies","h24":true,"services":["Station de gonflage","Carburant additivé","Piste poids lourds","GNV","Automate CB 24/24"]},{"id":72460005,"lat":48.07585400000001,"lng":0.295894,"addr":"73 Grande rue","city":"Savigné-l'Évêque","cp":"72460","fuels":{"Gazole":{"p":2.279,"d":"2026-04-22"},"SP95":{"p":2.089,"d":"2026-04-22"},"SP98":{"p":2.159,"d":"2026-04-22"}},"brand":"Proxi","h24":true,"services":["Relais colis","Boutique alimentaire","Vente de gaz domestique (Butane, Propane)","Automate CB 24/24"]},{"id":72301001,"lat":47.835,"lng":-0.298,"addr":"Avenue Jean Monnet","city":"SABLE-SOLESMES","cp":"72300","fuels":{"Gazole":{"p":2.25,"d":"2026-04-30"},"E10":{"p":1.99,"d":"2026-04-30"},"SP98":{"p":1.99,"d":"2026-04-30"}},"brand":"TotalEnergies","services":["Station de gonflage","Carburant additivé","Piste poids lourds","Services réparation / entretien"]},{"id":72650004,"lat":48.091,"lng":0.157,"addr":"11 avenue du mans","city":"La Bazoge","cp":"72650","fuels":{"Gazole":{"p":2.199,"d":"2026-04-29"},"SP95":{"p":2.079,"d":"2026-04-29"},"SP98":{"p":2.099,"d":"2026-04-29"}},"brand":"Système U","h24":true,"services":["Laverie","Boutique alimentaire","Boutique non alimentaire","Restauration à emporter","Vente de pétrole lampant","Station de gonflage","Location de véhicule","Piste poids lourds","Lavage automatique","Lavage manuel","Vente de gaz domestique (Butane, Propane)","Automate CB 24/24","DAB (Distributeur automatique de billets)"]},{"id":72290003,"lat":48.169448020613,"lng":0.23587713704613,"addr":"RUE SAINT LAURENT","city":"BALLON ST MARS","cp":"72290","fuels":{"Gazole":{"p":2.22,"d":"2026-04-28"},"SP95":{"p":2.02,"d":"2026-04-28"},"E10":{"p":2.05,"d":"2026-04-28"},"SP98":{"p":2.149,"d":"2026-04-28"}},"brand":"Carrefour","h24":true,"services":["Automate CB 24/24"]},{"id":72000020,"lat":47.997,"lng":0.218,"addr":"162, AVENUE BOLLEE","city":"LE MANS","cp":"72000","fuels":{"Gazole":{"p":2.09,"d":"2026-05-01"},"E85":{"p":0.849,"d":"2026-05-01"},"E10":{"p":1.99,"d":"2026-05-01"}},"brand":"TotalEnergies","services":["Boutique alimentaire","Boutique non alimentaire","Restauration à emporter","Station de gonflage","Carburant additivé","Lavage automatique"]},{"id":72540002,"lat":47.988,"lng":-0.163,"addr":"La Grange, Route de Loué","city":"Mareil-en-Champagne","cp":"72540","fuels":{"Gazole":{"p":2.208,"d":"2026-05-01"},"E85":{"p":0.755,"d":"2026-01-13"},"E10":{"p":2.06,"d":"2026-05-01"},"SP98":{"p":2.084,"d":"2026-04-27"}},"brand":"Système U","h24":true,"services":["Toilettes publiques","Laverie","Relais colis","Boutique alimentaire","Boutique non alimentaire","Restauration à emporter","Vente de pétrole lampant","Station de gonflage","Carburant additivé","Location de véhicule","Piste poids lourds","Lavage automatique","Lavage manuel","Services réparation / entretien","Vente de gaz domestique (Butane, Propane)","Bornes électriques","Vente d'additifs carburants","Wifi","Automate CB 24/24","DAB (Distributeur automatique de billets)"]},{"id":72210001,"lat":47.892,"lng":0.047,"addr":"Route des Trunetières","city":"LA SUZE-SUR-SARTHE","cp":"72210","fuels":{"Gazole":{"p":2.129,"d":"2026-04-30"},"SP95":{"p":1.995,"d":"2026-04-22"},"E10":{"p":1.985,"d":"2026-04-30"},"SP98":{"p":2.049,"d":"2026-04-30"}},"brand":"Système U","services":["Station de gonflage","Location de véhicule","Piste poids lourds","Lavage automatique","Lavage manuel","Vente de gaz domestique (Butane, Propane)","DAB (Distributeur automatique de billets)"]},{"id":72800003,"lat":47.647,"lng":0.146,"addr":"9936 AVENUE DE TALHOUET","city":"LE LUDE","cp":"72800","fuels":{"Gazole":{"p":2.25,"d":"2026-04-30"},"E10":{"p":1.99,"d":"2026-04-30"},"SP98":{"p":1.99,"d":"2026-04-30"}},"brand":"TotalEnergies","h24":true,"services":["Toilettes publiques","Piste poids lourds","Lavage automatique","Services réparation / entretien","Bornes électriques","Vente d'additifs carburants","Automate CB 24/24"]},{"id":72110004,"lat":48.177568,"lng":0.43724199999999996,"addr":"87 AVENUE DE LA FORET","city":"BONNETABLE","cp":"72110","fuels":{"Gazole":{"p":2.1,"d":"2026-04-22"},"SP95":{"p":2.07,"d":"2026-04-11"},"SP98":{"p":2.15,"d":"2026-04-11"}},"brand":"Esso","services":["Station de gonflage"]},{"id":72100014,"lat":47.997,"lng":0.187,"addr":"110 -112 BLD DEMORIEUX","city":"LE MANS","cp":"72100","fuels":{"Gazole":{"p":2.09,"d":"2026-05-01"}},"brand":"TotalEnergies","h24":true,"services":["Relais colis","Boutique alimentaire","Boutique non alimentaire","Station de gonflage","Carburant additivé","Lavage automatique","Vente de gaz domestique (Butane, Propane)","Bornes électriques","Automate CB 24/24"]},{"id":72540003,"lat":47.992671760685,"lng":-0.15416673345035,"addr":"27 RUE DE LA LIBERATION","city":"LOUE","cp":"72540","fuels":{"Gazole":{"p":2.369,"d":"2026-04-27"},"SP95":{"p":2.04,"d":"2026-04-27"},"SP98":{"p":2.119,"d":"2026-04-27"}},"h24":true,"services":["Automate CB 24/24"]},{"id":72310002,"lat":47.83,"lng":0.75,"addr":"47 rue du bal de braye","city":"Besse sur braye","cp":"72310","fuels":{"Gazole":{"p":2.23,"d":"2026-04-18"},"SP95":{"p":1.97,"d":"2026-04-18"}},"services":["Station de gonflage","Piste poids lourds","Services réparation / entretien","Vente de gaz domestique (Butane, Propane)","Vente d'additifs carburants"]},{"id":72500005,"lat":47.713,"lng":0.404,"addr":"27 ROUTE DU MANS","city":"LUCEAU","cp":"72500","fuels":{"Gazole":{"p":2.25,"d":"2026-04-22"},"SP98":{"p":1.99,"d":"2026-04-22"}},"services":["Toilettes publiques","Carburant additivé","Services réparation / entretien","Vente d'additifs carburants"]},{"id":72230007,"lat":47.94,"lng":0.184,"addr":"C. C. RIVE SUD","city":"ARNAGE","cp":"72230","fuels":{"Gazole":{"p":2.145,"d":"2026-04-30"},"SP95":{"p":2.009,"d":"2026-04-30"},"E85":{"p":0.815,"d":"2026-04-27"},"GPLc":{"p":0.999,"d":"2026-04-29"},"E10":{"p":1.989,"d":"2026-04-30"},"SP98":{"p":2.049,"d":"2026-04-30"}},"brand":"Système U","h24":true,"services":["Station de gonflage","Location de véhicule","Piste poids lourds","Lavage automatique","Lavage manuel","Vente de gaz domestique (Butane, Propane)","Bornes électriques","Automate CB 24/24"]},{"id":72300006,"lat":47.852,"lng":-0.353,"addr":"route de LAVAL","city":"Sablé-sur-Sarthe","cp":"72300","fuels":{"Gazole":{"p":2.179,"d":"2026-04-29"},"E10":{"p":2.006,"d":"2026-04-29"},"SP98":{"p":2.076,"d":"2026-04-29"}},"brand":"Système U","h24":true,"services":["Toilettes publiques","Laverie","Relais colis","Restauration à emporter","Restauration sur place","Station de gonflage","Location de véhicule","Piste poids lourds","Lavage automatique","Vente de gaz domestique (Butane, Propane)","Vente d'additifs carburants","Automate CB 24/24","DAB (Distributeur automatique de billets)"]},{"id":72400018,"lat":48.124970999999995,"lng":0.6221519999999999,"addr":"A11 AIRE DE VILLAINES LA GONAIS","city":"Villaines-la-Gonais","cp":"72400","fuels":{"Gazole":{"p":2.544,"d":"2026-05-01"},"GPLc":{"p":1.149,"d":"2026-05-01"},"E10":{"p":2.294,"d":"2026-05-01"},"SP98":{"p":2.394,"d":"2026-05-01"}},"services":["Toilettes publiques","Douches","Boutique alimentaire","Boutique non alimentaire","Station de gonflage","Carburant additivé","Piste poids lourds","Espace bébé"]}]