[{"id":76240001,"lat":49.418,"lng":1.133,"addr":"rue Etienne ACHAVANNE","city":"BONSECOURS","cp":"76240","fuels":{"Gazole":{"p":2.19,"d":"2026-04-28"},"E10":{"p":2.029,"d":"2026-04-28"},"SP98":{"p":2.095,"d":"2026-04-28"}},"brand":"Système U","h24":true,"services":["Laverie","Relais colis","Boutique alimentaire","Station de gonflage","Location de véhicule","Lavage manuel","Vente de gaz domestique (Butane, Propane)","Automate CB 24/24"]},{"id":76630001,"lat":49.8971513,"lng":1.2598235,"addr":"72 RUE DES CANADIENS","city":"ENVERMEU","cp":"76630","fuels":{"Gazole":{"p":2.209,"d":"2026-04-29"},"SP95":{"p":2.059,"d":"2026-04-29"},"SP98":{"p":2.139,"d":"2026-04-29"}},"brand":"Carrefour","h24":true,"services":["Laverie","Relais colis","Boutique alimentaire","Boutique non alimentaire","Station de gonflage","Piste poids lourds","Lavage automatique","Vente de gaz domestique (Butane, Propane)","Vente d'additifs carburants","Automate CB 24/24"]},{"id":76200002,"lat":49.916,"lng":1.075,"addr":"78 RUE GAMBETTA","city":"Dieppe","cp":"76200","fuels":{"Gazole":{"p":2.194,"d":"2026-05-01"},"E10":{"p":1.99,"d":"2026-05-01"},"SP98":{"p":2.07,"d":"2026-05-01"}},"brand":"Esso"},{"id":76371001,"lat":49.91,"lng":1.077,"addr":"Centre Commercial Le Belvédère","city":"DIEPPE","cp":"76371","fuels":{"Gazole":{"p":2.189,"d":"2026-04-30"},"E85":{"p":0.829,"d":"2026-04-17"},"GPLc":{"p":1.019,"d":"2026-04-27"},"E10":{"p":1.977,"d":"2026-04-30"},"SP98":{"p":2.079,"d":"2026-04-30"}},"brand":"Auchan","h24":true,"services":["Toilettes publiques","Relais colis","Boutique alimentaire","Boutique non alimentaire","Restauration à emporter","Restauration sur place","Bar","Vente de fioul domestique","Station de gonflage","Lavage automatique","Lavage manuel","Services réparation / entretien","Vente de gaz domestique (Butane, Propane)","Automate CB 24/24","DAB (Distributeur automatique de billets)"]},{"id":76320002,"lat":49.29,"lng":1.04,"addr":"Route de Pont-de-l'Arche","city":"Saint-Pierre-lès-Elbeuf","cp":"76320","fuels":{"Gazole":{"p":2.149,"d":"2026-04-30"},"E85":{"p":0.749,"d":"2026-04-30"},"E10":{"p":1.967,"d":"2026-04-30"},"SP98":{"p":2.022,"d":"2026-04-30"}},"brand":"Leclerc","h24":true,"services":["Toilettes publiques","Laverie","Relais colis","Boutique alimentaire","Boutique non alimentaire","Restauration à emporter","Restauration sur place","Bar","Vente de fioul domestique","Vente de pétrole lampant","Station de gonflage","Carburant additivé","Lavage automatique","Espace bébé","Services réparation / entretien","Vente de gaz domestique (Butane, Propane)","Bornes électriques","Vente d'additifs carburants","Wifi","Automate CB 24/24","DAB (Distributeur automatique de billets)"]},{"id":76490002,"lat":49.52922,"lng":0.72064,"addr":"Rue Sainte-Gertrude","city":"Caudebec-en-Caux","cp":"76490","fuels":{"Gazole":{"p":2.209,"d":"2026-04-25"},"SP95":{"p":2.069,"d":"2026-04-25"},"E10":{"p":2.019,"d":"2026-04-25"}},"brand":"Carrefour","h24":true,"services":["Toilettes publiques","Boutique alimentaire","Boutique non alimentaire","Station de gonflage","Carburant additivé","Piste poids lourds","Lavage manuel","Vente de gaz domestique (Butane, Propane)","Automate CB 24/24","DAB (Distributeur automatique de billets)"]},{"id":76950001,"lat":49.789,"lng":1.222,"addr":"32 rue de Dieppe","city":"Les Grandes-Ventes","cp":"76950","fuels":{"Gazole":{"p":2.25,"d":"2026-04-27"},"E10":{"p":1.99,"d":"2026-04-27"}},"brand":"Total Contact","services":["Toilettes publiques","Boutique non alimentaire","Station de gonflage","Carburant additivé","Location de véhicule","Piste poids lourds","Services réparation / entretien"]},{"id":76380003,"lat":49.45,"lng":1.028,"addr":"Rue du Commandant Georges Ledru","city":"Canteleu","cp":"76380","fuels":{"Gazole":{"p":2.147,"d":"2026-04-30"},"E85":{"p":0.818,"d":"2026-04-30"},"E10":{"p":1.979,"d":"2026-04-30"},"SP98":{"p":2.088,"d":"2026-04-30"}},"brand":"Intermarché","h24":true,"services":["Laverie","Relais colis","Vente de gaz domestique (Butane, Propane)","Bornes électriques","Automate CB 24/24","DAB (Distributeur automatique de billets)"]},{"id":76600022,"lat":49.485,"lng":0.096,"addr":"BOULEVARD CLEMENCEAU","city":"LE HAVRE","cp":"76600","fuels":{"Gazole":{"p":2.09,"d":"2026-05-01"},"E85":{"p":0.845,"d":"2026-05-01"},"E10":{"p":1.99,"d":"2026-05-01"},"SP98":{"p":1.99,"d":"2026-05-01"}},"brand":"TotalEnergies","h24":true,"services":["Boutique alimentaire","Station de gonflage","Carburant additivé","Lavage automatique","Services réparation / entretien","Vente de gaz domestique (Butane, Propane)","Wifi","Automate CB 24/24","DAB (Distributeur automatique de billets)"]},{"id":76000014,"lat":49.434,"lng":1.076,"addr":"Av. Jean RONDEAUX","city":"Rouen","cp":"76000","fuels":{"Gazole":{"p":2.247,"d":"2026-04-30"},"E85":{"p":0.839,"d":"2026-04-30"},"GPLc":{"p":1.049,"d":"2026-04-30"},"E10":{"p":1.99,"d":"2026-04-30"},"SP98":{"p":1.99,"d":"2026-04-30"}},"brand":"TotalEnergies","h24":true,"services":["Toilettes publiques","Boutique alimentaire","Boutique non alimentaire","Restauration à emporter","Restauration sur place","Station de gonflage","Carburant additivé","Location de véhicule","Lavage automatique","Lavage manuel","Vente d'additifs carburants","Automate CB 24/24"]},{"id":76430005,"lat":49.529,"lng":0.343,"addr":"AVENUE MAL DE LATTRE DE TASSIGNY","city":"Saint-Romain-de-Colbosc","cp":"76430","fuels":{"Gazole":{"p":2.179,"d":"2026-04-29"},"E85":{"p":0.766,"d":"2026-04-29"},"E10":{"p":2.012,"d":"2026-04-29"},"SP98":{"p":2.089,"d":"2026-04-29"}},"brand":"Système U","services":["Restauration sur place","Bar","Vente de pétrole lampant","Station de gonflage","Location de véhicule","Piste poids lourds","Lavage automatique","Lavage manuel","Vente de gaz domestique (Butane, Propane)","DAB (Distributeur automatique de billets)"]},{"id":76680005,"lat":49.678,"lng":1.337,"addr":"Autoroute A28 - Aire de Maucomble","city":"Bosc-Mesnil","cp":"76680","fuels":{"Gazole":{"p":2.09,"d":"2026-05-01"},"E10":{"p":1.99,"d":"2026-05-01"},"SP98":{"p":1.99,"d":"2026-05-01"}},"brand":"TotalEnergies"},{"id":76590002,"lat":49.79545,"lng":1.10615,"addr":"Route de Newton Longueville","city":"LONGUEVILLE-SUR-SCIE","cp":"76590","fuels":{"Gazole":{"p":2.149,"d":"2026-04-28"},"E10":{"p":1.969,"d":"2026-04-28"},"SP98":{"p":2.059,"d":"2026-04-28"}},"brand":"Intermarché"},{"id":76250004,"lat":49.47837,"lng":1.047361,"addr":"570 route de Dieppe","city":"DEVILLE LES ROUEN","cp":"76250","fuels":{"Gazole":{"p":2.269,"d":"2026-04-29"},"E85":{"p":0.965,"d":"2026-04-29"},"E10":{"p":1.999,"d":"2026-04-29"},"SP98":{"p":2.099,"d":"2026-04-29"}},"brand":"Avia","h24":true,"services":["Automate CB 24/24"]},{"id":76803001,"lat":49.387399180399996,"lng":1.0715780622076,"addr":"Avenue de la Mare aux Daims","city":"SAINT-ÉTIENNE-DU-ROUVRAY","cp":"76800","fuels":{"Gazole":{"p":2.178,"d":"2026-04-29"},"E10":{"p":2.018,"d":"2026-04-30"},"SP98":{"p":2.088,"d":"2026-04-30"}},"brand":"Leclerc"},{"id":76800003,"lat":49.397,"lng":1.102,"addr":"Avenue de Saint Yon","city":"SAINT-ÉTIENNE-DU-ROUVRAY","cp":"76800","fuels":{"Gazole":{"p":2.16,"d":"2026-04-28"},"E85":{"p":0.818,"d":"2026-04-28"}},"brand":"Intermarché","services":["Lavage manuel","Vente de gaz domestique (Butane, Propane)","DAB (Distributeur automatique de billets)"]},{"id":76430004,"lat":49.525352993599995,"lng":0.365112606713,"addr":"Rue du MAILLON","city":"SAINT-ROMAIN-DE-COLBOSC","cp":"76430","fuels":{"Gazole":{"p":2.16,"d":"2026-04-19"},"SP95":{"p":1.98,"d":"2026-04-17"},"SP98":{"p":2.062,"d":"2026-04-21"}},"brand":"Carrefour","services":["Station de gonflage","Carburant additivé","Lavage automatique","Lavage manuel","Vente de gaz domestique (Butane, Propane)","DAB (Distributeur automatique de billets)"]},{"id":76680004,"lat":49.675589360189,"lng":1.3347640905368,"addr":"AUTOROUTE A28 - AIRE DE BOSC MESNIL","city":"Bosc-Mesnil","cp":"76680","fuels":{"Gazole":{"p":2.09,"d":"2026-05-01"},"E85":{"p":0.999,"d":"2026-05-01"},"GPLc":{"p":1.159,"d":"2026-05-01"},"E10":{"p":1.99,"d":"2026-05-01"},"SP98":{"p":1.99,"d":"2026-05-01"}},"brand":"TotalEnergies","services":["Toilettes publiques","Douches","Boutique alimentaire","Boutique non alimentaire","Restauration à emporter","Restauration sur place","Station de gonflage","Carburant additivé","Piste poids lourds","Espace bébé","DAB (Distributeur automatique de billets)"]},{"id":76890001,"lat":49.681,"lng":1.046,"addr":"RUE DES 4 VENTS","city":"TOTES","cp":"76890","fuels":{"Gazole":{"p":2.119,"d":"2026-04-30"},"SP95":{"p":2.009,"d":"2026-04-30"},"E85":{"p":0.819,"d":"2026-04-30"},"E10":{"p":1.959,"d":"2026-04-30"},"SP98":{"p":2.049,"d":"2026-04-30"}},"brand":"Intermarché","h24":true,"services":["Toilettes publiques","Laverie","Boutique alimentaire","Boutique non alimentaire","Station de gonflage","Location de véhicule","Piste poids lourds","Lavage automatique","Vente de gaz domestique (Butane, Propane)","Bornes électriques","Automate CB 24/24","DAB (Distributeur automatique de billets)"]},{"id":76100005,"lat":49.427,"lng":1.093,"addr":"23 BOULEVARD DE L' EUROPE","city":"ROUEN","cp":"76100","fuels":{"Gazole":{"p":2.09,"d":"2026-05-01"},"E85":{"p":0.844,"d":"2026-05-01"},"SP98":{"p":1.99,"d":"2026-05-01"}},"brand":"TotalEnergies","services":["Toilettes publiques","Boutique alimentaire","Boutique non alimentaire","Station de gonflage","Carburant additivé","Lavage automatique","Lavage manuel","Wifi"]},{"id":76770002,"lat":49.512,"lng":1.038,"addr":"163 Rue du Général de Gaulle","city":"LE HOULME","cp":"76770","fuels":{"Gazole":{"p":2.149,"d":"2026-04-30"},"SP95":{"p":2.019,"d":"2026-04-30"},"GPLc":{"p":0.999,"d":"2026-04-04"},"E10":{"p":1.989,"d":"2026-04-30"},"SP98":{"p":2.059,"d":"2026-04-30"}},"brand":"Leclerc","services":["Toilettes publiques","Relais colis","Boutique alimentaire","Boutique non alimentaire","Restauration à emporter","Restauration sur place","Vente de pétrole lampant","Location de véhicule","Vente de gaz domestique (Butane, Propane)","Bornes électriques","DAB (Distributeur automatique de billets)"]},{"id":76150003,"lat":49.482,"lng":1.04,"addr":"Rue des Martyrs de la Résistance","city":"Maromme","cp":"76150","fuels":{"Gazole":{"p":2.269,"d":"2026-04-13"},"E85":{"p":0.799,"d":"2026-04-10"},"E10":{"p":1.979,"d":"2026-04-10"},"SP98":{"p":2.119,"d":"2026-04-15"}},"brand":"Système U","services":["Toilettes publiques","Laverie","Relais colis","Boutique alimentaire","Boutique non alimentaire","Station de gonflage","Carburant additivé","Location de véhicule","Piste poids lourds","Vente de gaz domestique (Butane, Propane)","Wifi","DAB (Distributeur automatique de billets)"]},{"id":76770003,"lat":49.502,"lng":1.043,"addr":"73 RUE DU GENERAL DE GAULLE","city":"LE HOULME","cp":"76770","fuels":{"Gazole":{"p":2.09,"d":"2026-05-01"},"E10":{"p":1.99,"d":"2026-05-01"}},"brand":"TotalEnergies","services":["Boutique alimentaire","Station de gonflage","Piste poids lourds","Lavage automatique","Services réparation / entretien","Vente de gaz domestique (Butane, Propane)","Vente d'additifs carburants"]},{"id":76190003,"lat":49.626,"lng":0.788,"addr":"261, Avenue René COTY","city":"Sainte-Marie-des-Champs","cp":"76190","fuels":{"Gazole":{"p":2.129,"d":"2026-04-28"},"E85":{"p":0.818,"d":"2026-04-17"},"GPLc":{"p":0.999,"d":"2026-04-24"},"E10":{"p":1.999,"d":"2026-04-28"},"SP98":{"p":2.049,"d":"2026-04-28"}},"brand":"Intermarché","h24":true,"services":["Toilettes publiques","Laverie","Boutique alimentaire","Boutique non alimentaire","Restauration à emporter","Restauration sur place","Vente de fioul domestique","Vente de pétrole lampant","Station de gonflage","Location de véhicule","Piste poids lourds","Lavage automatique","Lavage manuel","Espace bébé","Vente de gaz domestique (Butane, Propane)","Bornes électriques","Vente d'additifs carburants","Automate CB 24/24","DAB (Distributeur automatique de billets)"]},{"id":76290003,"lat":49.539957570000006,"lng":0.17773185000000002,"addr":"68 AVENUE DU PRESIDENT WILSON","city":"Montivilliers","cp":"76290","fuels":{"Gazole":{"p":2.114,"d":"2026-04-29"},"E85":{"p":0.818,"d":"2026-04-17"},"E10":{"p":1.984,"d":"2026-04-30"}},"brand":"Intermarché"},{"id":76950002,"lat":49.7895378062,"lng":1.21887113953,"addr":"HAMEAU DES HAUT CHAMPS","city":"LES GRANDES VENTES","cp":"76950","fuels":{"Gazole":{"p":2.189,"d":"2026-04-25"},"SP95":{"p":2.069,"d":"2026-04-24"}},"brand":"Carrefour","services":["Toilettes publiques","Restauration à emporter","Vente de gaz domestique (Butane, Propane)","DAB (Distributeur automatique de billets)"]},{"id":76210005,"lat":49.57,"lng":0.49,"addr":"Avenue du Maréchal Joffre","city":"BOLBEC","cp":"76210","fuels":{"Gazole":{"p":2.139,"d":"2026-04-30"},"GPLc":{"p":0.999,"d":"2026-04-21"},"E10":{"p":1.969,"d":"2026-04-30"},"SP98":{"p":2.079,"d":"2026-04-30"}},"brand":"Netto","h24":true,"services":["Laverie","Relais colis","Boutique alimentaire","Station de gonflage","Piste poids lourds","Lavage automatique","Vente de gaz domestique (Butane, Propane)","Bornes électriques","Wifi","Automate CB 24/24","DAB (Distributeur automatique de billets)"]},{"id":76760002,"lat":49.667,"lng":0.898,"addr":"Rue de la Myre","city":"YERVILLE","cp":"76760","fuels":{"Gazole":{"p":2.179,"d":"2026-04-30"},"SP95":{"p":2.019,"d":"2026-04-30"},"E10":{"p":1.999,"d":"2026-04-30"},"SP98":{"p":2.099,"d":"2026-04-30"}},"brand":"Système U","h24":true,"services":["Toilettes publiques","Boutique alimentaire","Vente de fioul domestique","Station de gonflage","Location de véhicule","Piste poids lourds","Lavage manuel","Vente de gaz domestique (Butane, Propane)","Wifi","Automate CB 24/24"]},{"id":76400010,"lat":49.767597716663,"lng":0.4192826526266,"addr":"922 route de cany","city":"Senneville-sur-Fécamp","cp":"76400","fuels":{"Gazole":{"p":2.242,"d":"2026-04-24"}},"brand":"TotalEnergies","h24":true,"services":["Station de gonflage","Carburant additivé","Piste poids lourds","Lavage automatique","Lavage manuel","Services réparation / entretien","Vente de gaz domestique (Butane, Propane)","Vente d'additifs carburants","Automate CB 24/24"]},{"id":76700005,"lat":49.509,"lng":0.226,"addr":"Parc de l'estuaire","city":"GONFREVILLE-L'ORCHER","cp":"76700","fuels":{"Gazole":{"p":2.13,"d":"2026-04-30"},"E85":{"p":0.765,"d":"2026-04-30"},"GPLc":{"p":1.072,"d":"2026-04-30"},"E10":{"p":2.007,"d":"2026-04-30"},"SP98":{"p":2.049,"d":"2026-04-30"}},"brand":"Leclerc","h24":true,"services":["Toilettes publiques","Laverie","Relais colis","Boutique alimentaire","Boutique non alimentaire","Restauration à emporter","Restauration sur place","Bar","Station de gonflage","Location de véhicule","Piste poids lourds","Lavage automatique","Lavage manuel","Vente de gaz domestique (Butane, Propane)","Bornes électriques","Automate CB 24/24","DAB (Distributeur automatique de billets)"]},{"id":76210004,"lat":49.58,"lng":0.474,"addr":"52 Avenue Louis Debray","city":"Bolbec","cp":"76210","fuels":{"Gazole":{"p":2.121,"d":"2026-04-30"},"E85":{"p":0.819,"d":"2026-04-17"},"E10":{"p":1.955,"d":"2026-04-30"},"SP98":{"p":2.062,"d":"2026-04-30"}},"brand":"Intermarché","services":["Laverie","Relais colis","Boutique alimentaire","Restauration sur place","Vente de pétrole lampant","Station de gonflage","Piste poids lourds","Lavage automatique","Lavage manuel","Services réparation / entretien","Vente de gaz domestique (Butane, Propane)","Bornes électriques","DAB (Distributeur automatique de billets)"]},{"id":76480002,"lat":49.498,"lng":0.929,"addr":"Chemin de la Messe","city":"Saint-Pierre-de-Varengeville","cp":"76480","fuels":{"Gazole":{"p":2.212,"d":"2026-04-28"},"SP95":{"p":2.065,"d":"2026-04-28"},"E10":{"p":2.008,"d":"2026-04-28"},"SP98":{"p":2.12,"d":"2026-04-28"}},"brand":"Intermarché","services":["Laverie","Relais colis","Boutique alimentaire","Boutique non alimentaire","Lavage automatique","Lavage manuel","Vente de gaz domestique (Butane, Propane)","DAB (Distributeur automatique de billets)"]},{"id":76580002,"lat":49.483,"lng":0.807,"addr":"35 RUE DENIS PAPIN","city":"LE TRAIT","cp":"76580","fuels":{"Gazole":{"p":2.285,"d":"2026-04-30"},"SP98":{"p":2.188,"d":"2026-04-30"}},"brand":"Carrefour","services":["Piste poids lourds","Vente de gaz domestique (Butane, Propane)","DAB (Distributeur automatique de billets)"]},{"id":76850001,"lat":49.631,"lng":1.18,"addr":"RUE DES FORGES","city":"BOSC-LE-HARD","cp":"76850","fuels":{"Gazole":{"p":2.179,"d":"2026-04-30"},"SP95":{"p":2.049,"d":"2026-04-30"},"SP98":{"p":2.129,"d":"2026-04-30"}},"brand":"Carrefour","services":["Laverie","Carburant additivé","Location de véhicule","Piste poids lourds","Vente de gaz domestique (Butane, Propane)","DAB (Distributeur automatique de billets)"]},{"id":76600021,"lat":49.489,"lng":0.098,"addr":"BD.CLEMENCEAU","city":"LE HAVRE","cp":"76600","fuels":{"Gazole":{"p":2.09,"d":"2026-05-01"},"SP98":{"p":1.99,"d":"2026-05-01"}},"brand":"TotalEnergies","h24":true,"services":["Automate CB 24/24"]},{"id":76200004,"lat":49.90522,"lng":1.07678,"addr":"AVENUE DES CANADIENS","city":"DIEPPE","cp":"76200","fuels":{"Gazole":{"p":2.09,"d":"2026-05-01"},"E85":{"p":0.839,"d":"2026-05-01"},"E10":{"p":1.99,"d":"2026-05-01"},"SP98":{"p":1.99,"d":"2026-05-01"}},"brand":"TotalEnergies"},{"id":76440008,"lat":49.611,"lng":1.547,"addr":"27 rue des docteurs Cisseville","city":"Forges-les-Eaux","cp":"76440","fuels":{"Gazole":{"p":2.491,"d":"2026-04-07"},"SP95":{"p":2.055,"d":"2026-04-07"},"SP98":{"p":2.124,"d":"2026-04-07"}},"brand":"Carrefour","h24":true,"services":["Laverie","Relais colis","Vente de gaz domestique (Butane, Propane)","Vente d'additifs carburants","Automate CB 24/24"]},{"id":76210006,"lat":49.614,"lng":0.546,"addr":"Aire de Bolleville A29","city":"Bolleville","cp":"76210","fuels":{"Gazole":{"p":2.315,"d":"2026-05-01"},"GPLc":{"p":1.159,"d":"2026-05-01"},"E10":{"p":2.135,"d":"2026-05-01"},"SP98":{"p":2.235,"d":"2026-05-01"}},"brand":"Esso","services":["Toilettes publiques","Douches","Boutique alimentaire","Boutique non alimentaire","Restauration à emporter","Restauration sur place","Station de gonflage","Carburant additivé","Piste poids lourds","Espace bébé"]},{"id":76610006,"lat":49.509322000000004,"lng":0.15951,"addr":"Avenue Paul Verlaine","city":"LE HAVRE","cp":"76610","fuels":{"Gazole":{"p":2.35,"d":"2026-04-29"},"SP95":{"p":2.08,"d":"2026-04-29"},"E10":{"p":1.999,"d":"2026-04-29"}},"brand":"Système U","services":["Toilettes publiques","Relais colis","Boutique alimentaire","Boutique non alimentaire","Restauration à emporter","Location de véhicule","Bornes électriques","Automate CB 24/24"]},{"id":76120011,"lat":49.41,"lng":1.033,"addr":"AVENUE FRANKLIN ROOSEVELT","city":"Le Grand-Quevilly","cp":"76120","fuels":{"Gazole":{"p":2.229,"d":"2026-05-01"},"E10":{"p":2.069,"d":"2026-05-01"},"SP98":{"p":1.959,"d":"2025-08-26"}},"brand":"BP","h24":true,"services":["Carburant additivé","Piste poids lourds","Automate CB 24/24"]},{"id":76280003,"lat":49.643,"lng":0.269,"addr":"Rue de la Gare","city":"Criquetot-l'Esneval","cp":"76280","fuels":{"Gazole":{"p":2.129,"d":"2026-04-30"},"E10":{"p":1.989,"d":"2026-04-30"},"SP98":{"p":2.079,"d":"2026-04-30"}},"brand":"Intermarché","services":["Vente de fioul domestique","Vente de gaz domestique (Butane, Propane)","DAB (Distributeur automatique de billets)"]},{"id":76110001,"lat":49.64469,"lng":0.37595,"addr":"Route de Valmont","city":"Goderville","cp":"76110","fuels":{"Gazole":{"p":2.129,"d":"2026-04-30"},"SP95":{"p":2.028,"d":"2026-04-30"},"E85":{"p":0.821,"d":"2026-04-30"},"GPLc":{"p":1.019,"d":"2026-04-16"},"SP98":{"p":2.099,"d":"2026-04-30"}},"brand":"Carrefour","services":["Location de véhicule","Vente de gaz domestique (Butane, Propane)","DAB (Distributeur automatique de billets)"]},{"id":76000015,"lat":49.44973619068001,"lng":1.0493244909955,"addr":"AV DU CDT BERNARD BICHERAY","city":"ROUEN","cp":"76000","fuels":{"Gazole":{"p":2.234,"d":"2026-04-28"},"E10":{"p":2.036,"d":"2026-04-28"},"SP98":{"p":2.158,"d":"2026-04-29"}},"h24":true,"services":["Automate CB 24/24"]},{"id":76740002,"lat":49.833,"lng":0.906,"addr":"HAMEAU DU BUQUET","city":"LA GAILLARDE","cp":"76740","fuels":{"Gazole":{"p":2.123,"d":"2026-04-30"},"E85":{"p":0.818,"d":"2026-04-24"},"E10":{"p":1.957,"d":"2026-04-30"},"SP98":{"p":2.064,"d":"2026-04-30"}},"brand":"Intermarché"},{"id":76220004,"lat":49.478,"lng":1.74,"addr":"RN 31","city":"Gournay-en-Bray","cp":"76220","fuels":{"Gazole":{"p":2.199,"d":"2026-04-28"},"SP95":{"p":2.099,"d":"2026-04-28"},"E85":{"p":0.849,"d":"2026-04-14"},"GPLc":{"p":0.999,"d":"2026-04-13"},"E10":{"p":2.049,"d":"2026-04-28"},"SP98":{"p":2.139,"d":"2026-04-28"}},"brand":"Système U","h24":true,"services":["Toilettes publiques","Relais colis","Boutique alimentaire","Boutique non alimentaire","Restauration à emporter","Restauration sur place","Vente de fioul domestique","Station de gonflage","Carburant additivé","Location de véhicule","Piste poids lourds","Lavage manuel","Vente de gaz domestique (Butane, Propane)","Bornes électriques","Automate CB 24/24","DAB (Distributeur automatique de billets)"]},{"id":76540002,"lat":49.74522522720599,"lng":0.51213110511015,"addr":"9 rue albert bellavoine","city":"Valmont","cp":"76540","fuels":{"Gazole":{"p":2.189,"d":"2026-04-28"},"SP95":{"p":1.999,"d":"2026-04-28"},"SP98":{"p":2.095,"d":"2026-04-28"}},"brand":"Carrefour","h24":true,"services":["Boutique alimentaire","Vente de gaz domestique (Butane, Propane)","Automate CB 24/24"]},{"id":76260004,"lat":50.043,"lng":1.42,"addr":"15, place du Général De Gaulle","city":"Eu","cp":"76260","fuels":{"Gazole":{"p":2.269,"d":"2026-04-30"},"E10":{"p":2.079,"d":"2026-04-30"},"SP98":{"p":2.139,"d":"2026-04-30"}},"brand":"Esso","services":["Toilettes publiques","Boutique alimentaire","Station de gonflage","Carburant additivé"]},{"id":76340005,"lat":49.930638045392996,"lng":1.6370643011109,"addr":"RUE DES MARAIS","city":"BLANGY SUR BRESLE","cp":"76340","fuels":{"Gazole":{"p":2.194,"d":"2026-04-28"},"E85":{"p":0.814,"d":"2026-04-14"},"GPLc":{"p":0.95,"d":"2025-12-22"},"E10":{"p":2.027,"d":"2026-04-28"},"SP98":{"p":2.101,"d":"2026-04-28"}},"brand":"Système U","h24":true,"services":["Piste poids lourds","Vente de gaz domestique (Butane, Propane)","Automate CB 24/24"]},{"id":76410001,"lat":49.303,"lng":1.035,"addr":"Rue de la Résistance","city":"Saint-Aubin-lès-Elbeuf","cp":"76410","fuels":{"Gazole":{"p":2.26,"d":"2026-04-30"},"E10":{"p":2.05,"d":"2026-04-30"},"SP98":{"p":2.15,"d":"2026-04-30"}},"brand":"Carrefour","h24":true,"services":["Laverie","Relais colis","Boutique alimentaire","Boutique non alimentaire","Restauration à emporter","Location de véhicule","Vente de gaz domestique (Butane, Propane)","Automate CB 24/24","DAB (Distributeur automatique de billets)"]},{"id":76360001,"lat":49.534896206291,"lng":0.96409769058218,"addr":"Plateau du Mesnil-Roux, Zone la Carbonnière","city":"BARENTIN","cp":"76360","fuels":{"Gazole":{"p":2.138,"d":"2026-04-30"},"SP95":{"p":2.06,"d":"2026-04-30"},"E10":{"p":1.969,"d":"2026-04-30"},"SP98":{"p":2.161,"d":"2026-04-30"}},"brand":"Carrefour","h24":true,"services":["Toilettes publiques","Relais colis","Boutique alimentaire","Boutique non alimentaire","Restauration à emporter","Station de gonflage","Carburant additivé","Location de véhicule","Piste poids lourds","Lavage automatique","Vente de gaz domestique (Butane, Propane)","Bornes électriques","Automate CB 24/24","DAB (Distributeur automatique de billets)"]},{"id":76270001,"lat":49.732,"lng":1.434,"addr":"Rue de la Grande Flandre","city":"NEUFCHATEL-EN-BRAY","cp":"76270","fuels":{"SP95":{"p":2.029,"d":"2026-04-29"},"E85":{"p":0.739,"d":"2026-04-16"},"E10":{"p":1.999,"d":"2026-04-29"}},"brand":"Leclerc","h24":true,"services":["Toilettes publiques","Laverie","Boutique alimentaire","Boutique non alimentaire","Restauration à emporter","Vente de pétrole lampant","Location de véhicule","Piste poids lourds","Lavage automatique","Lavage manuel","Vente de gaz domestique (Butane, Propane)","Bornes électriques","Automate CB 24/24","DAB (Distributeur automatique de billets)"]},{"id":76600024,"lat":49.49878,"lng":0.15925,"addr":"BOULEVARD LENINGRAD","city":"LE HAVRE","cp":"76600","fuels":{"Gazole":{"p":2.09,"d":"2026-05-01"},"GPLc":{"p":1.035,"d":"2026-05-01"},"E10":{"p":1.99,"d":"2026-05-01"}},"brand":"TotalEnergies","services":["Boutique alimentaire","Station de gonflage","Carburant additivé","Lavage automatique","Vente de gaz domestique (Butane, Propane)","DAB (Distributeur automatique de billets)"]},{"id":76730001,"lat":49.79,"lng":0.998,"addr":"ROUTE D'ABLEMONT","city":"BACQUEVILLE-EN-CAUX","cp":"76730","fuels":{"Gazole":{"p":2.179,"d":"2026-04-29"},"SP95":{"p":2.035,"d":"2026-04-29"},"SP98":{"p":2.099,"d":"2026-04-29"}},"brand":"Carrefour","h24":true,"services":["Laverie","Station de gonflage","Lavage automatique","Vente de gaz domestique (Butane, Propane)","Automate CB 24/24","DAB (Distributeur automatique de billets)"]},{"id":76400001,"lat":49.74874,"lng":0.40324,"addr":"3 Route de Ganzeville","city":"FéCAMP","cp":"76400","fuels":{"Gazole":{"p":2.189,"d":"2026-04-22"},"SP95":{"p":2.079,"d":"2026-04-22"},"SP98":{"p":2.189,"d":"2026-04-22"}},"brand":"Carrefour","services":["DAB (Distributeur automatique de billets)"]},{"id":76750001,"lat":49.598,"lng":1.342,"addr":"Route de la Gare","city":"BUCHY","cp":"76750","fuels":{"E10":{"p":2.001,"d":"2026-04-30"},"SP98":{"p":2.129,"d":"2026-04-30"}},"brand":"Carrefour","services":["Vente de gaz domestique (Butane, Propane)","DAB (Distributeur automatique de billets)"]},{"id":76950003,"lat":49.79,"lng":1.22,"addr":"800 ROUTE DE DIEPPE","city":"LES GRANDES VENTES","cp":"76950","fuels":{"Gazole":{"p":2.228,"d":"2026-04-30"},"SP95":{"p":2.079,"d":"2026-04-14"},"SP98":{"p":2.129,"d":"2026-04-11"}},"brand":"Esso","h24":true,"services":["Station de gonflage","Carburant additivé","Location de véhicule","Piste poids lourds","Services réparation / entretien","Vente d'additifs carburants","Automate CB 24/24"]},{"id":76870001,"lat":49.654,"lng":1.615,"addr":"38 PLACE DE LA MAIRIE","city":"Gaillefontaine","cp":"76870","fuels":{"Gazole":{"p":2.19,"d":"2026-04-30"},"E10":{"p":2.04,"d":"2026-04-27"},"SP98":{"p":2.13,"d":"2026-04-30"}},"brand":"Esso","h24":true,"services":["Toilettes publiques","Boutique alimentaire","Station de gonflage","Piste poids lourds","Lavage manuel","Vente de gaz domestique (Butane, Propane)","Vente d'additifs carburants","Automate CB 24/24"]},{"id":76530004,"lat":49.343,"lng":0.939,"addr":"RN 138 - LA MAISON BRULEE","city":"MOULINEAUX","cp":"76530","fuels":{"Gazole":{"p":2.09,"d":"2026-05-01"},"E10":{"p":1.99,"d":"2026-05-01"}},"brand":"TotalEnergies","services":["Boutique alimentaire","Boutique non alimentaire","Station de gonflage","Carburant additivé","Piste poids lourds","Lavage automatique","Vente de gaz domestique (Butane, Propane)","Vente d'additifs carburants","Wifi"]},{"id":76250001,"lat":49.471,"lng":1.043,"addr":"44 Rue de la République","city":"Déville-lès-Rouen","cp":"76250","fuels":{"Gazole":{"p":2.469,"d":"2026-04-15"},"SP95":{"p":2.139,"d":"2026-04-15"},"SP98":{"p":2.199,"d":"2026-04-15"}},"brand":"Carrefour","h24":true,"services":["Vente de gaz domestique (Butane, Propane)","Automate CB 24/24"]},{"id":76610004,"lat":49.518,"lng":0.158,"addr":"2 RUE EUGENE MOPIN","city":"LE HAVRE","cp":"76610","fuels":{"Gazole":{"p":2.09,"d":"2026-05-01"},"E10":{"p":1.99,"d":"2026-05-01"}},"brand":"TotalEnergies","h24":true,"services":["Boutique alimentaire","Restauration à emporter","Carburant additivé","Vente de gaz domestique (Butane, Propane)","Vente d'additifs carburants","Automate CB 24/24"]},{"id":76700006,"lat":49.511941098293,"lng":0.20041534246844,"addr":"3 RUE FREDERIC CHOPIN","city":"HARFLEUR","cp":"76700","fuels":{"Gazole":{"p":2.09,"d":"2026-05-01"},"E85":{"p":0.829,"d":"2026-05-01"},"E10":{"p":1.99,"d":"2026-05-01"}},"brand":"TotalEnergies","services":["Boutique alimentaire","Boutique non alimentaire","Restauration à emporter","Station de gonflage","Carburant additivé","Services réparation / entretien","Vente de gaz domestique (Butane, Propane)"]},{"id":76133001,"lat":49.562,"lng":0.221,"addr":"RUE ARISTIDE BRIAND","city":"ÉPOUVILLE","cp":"76133","fuels":{"Gazole":{"p":2.215,"d":"2026-04-29"},"E10":{"p":2.023,"d":"2026-04-29"},"SP98":{"p":2.121,"d":"2026-04-29"}},"brand":"Carrefour","services":["Toilettes publiques","Relais colis","Location de véhicule","Lavage automatique","Vente de gaz domestique (Butane, Propane)","Bornes électriques","DAB (Distributeur automatique de billets)"]},{"id":76600001,"lat":49.495,"lng":0.155,"addr":"35, rue de la Vallée","city":"LE HAVRE","cp":"76600","fuels":{"Gazole":{"p":2.227,"d":"2026-04-30"},"SP95":{"p":2.052,"d":"2026-04-30"},"SP98":{"p":2.135,"d":"2026-04-30"}},"brand":"Carrefour","h24":true,"services":["Station de gonflage","Piste poids lourds","Lavage automatique","Lavage manuel","Vente de gaz domestique (Butane, Propane)","Automate CB 24/24","DAB (Distributeur automatique de billets)"]},{"id":76000009,"lat":49.449,"lng":1.067,"addr":"186 Rue de Constantine","city":"ROUEN","cp":"76000","fuels":{"Gazole":{"p":2.179,"d":"2026-04-30"},"E85":{"p":0.818,"d":"2026-04-30"},"E10":{"p":1.999,"d":"2026-04-30"},"SP98":{"p":2.111,"d":"2026-04-30"}},"brand":"Intermarché","h24":true,"services":["Laverie","Station de gonflage","Location de véhicule","Lavage automatique","Lavage manuel","Vente de gaz domestique (Butane, Propane)","Automate CB 24/24","DAB (Distributeur automatique de billets)"]},{"id":74500002,"lat":49.7555111909,"lng":0.374491663689,"addr":"Rue Charles le Borgne","city":"FéCAMP","cp":"76400","fuels":{"Gazole":{"p":2.123,"d":"2026-04-30"},"SP95":{"p":2.028,"d":"2026-04-30"},"SP98":{"p":2.099,"d":"2026-04-30"}},"brand":"Carrefour","services":["Vente de gaz domestique (Butane, Propane)","DAB (Distributeur automatique de billets)"]},{"id":76190001,"lat":49.624,"lng":0.779,"addr":"97 Avenue René Coty","city":"Sainte-Marie-des-Champs","cp":"76190","fuels":{"Gazole":{"p":2.25,"d":"2026-04-30"},"E85":{"p":0.835,"d":"2026-04-30"},"E10":{"p":1.99,"d":"2026-04-30"},"SP98":{"p":1.99,"d":"2026-04-30"}},"brand":"TotalEnergies","h24":true,"services":["Toilettes publiques","Boutique alimentaire","Boutique non alimentaire","Station de gonflage","Carburant additivé","Piste poids lourds","Lavage automatique","Lavage manuel","Vente de gaz domestique (Butane, Propane)","Automate CB 24/24"]},{"id":76240002,"lat":49.407311369631,"lng":1.152053904217,"addr":"2 ROUTE DE PARIS","city":"Le Mesnil-Esnard","cp":"76240","fuels":{"Gazole":{"p":2.18,"d":"2026-04-17"},"E10":{"p":1.935,"d":"2026-04-17"},"SP98":{"p":2.058,"d":"2026-04-17"}},"brand":"Carrefour","services":["Toilettes publiques","Relais colis","Boutique non alimentaire","Restauration à emporter","Location de véhicule","Vente de gaz domestique (Butane, Propane)","Wifi","DAB (Distributeur automatique de billets)"]},{"id":76120002,"lat":49.418,"lng":1.046,"addr":"c cial du bois cany","city":"Le Grand-Quevilly","cp":"76120","fuels":{"Gazole":{"p":2.179,"d":"2026-04-29"},"SP95":{"p":2.059,"d":"2026-04-29"},"E85":{"p":0.749,"d":"2026-04-25"},"GPLc":{"p":0.999,"d":"2026-04-25"},"E10":{"p":2.019,"d":"2026-04-29"},"SP98":{"p":2.089,"d":"2026-04-29"}},"brand":"Système U","h24":true,"services":["Carburant additivé","Piste poids lourds","Vente de gaz domestique (Butane, Propane)","Automate CB 24/24","DAB (Distributeur automatique de billets)"]},{"id":76380006,"lat":49.450973674913996,"lng":1.0342499010497999,"addr":"2 Avenue du Président Allende","city":"CANTELEU","cp":"76380","fuels":{"Gazole":{"p":2.459,"d":"2026-04-09"},"E10":{"p":1.99,"d":"2026-04-09"},"SP98":{"p":2.11,"d":"2026-04-09"}},"brand":"Auchan","h24":true,"services":["Laverie","Relais colis","Station de gonflage","Lavage automatique","Automate CB 24/24"]},{"id":76290001,"lat":49.525,"lng":0.19,"addr":"Centre Commercial la LEZARDE","city":"MONTIVILLIERS","cp":"76290","fuels":{"Gazole":{"p":2.117,"d":"2026-04-30"},"SP95":{"p":1.99,"d":"2026-04-30"},"GPLc":{"p":1.077,"d":"2026-04-30"},"E10":{"p":2.008,"d":"2026-04-30"},"SP98":{"p":2.045,"d":"2026-04-30"}},"brand":"Auchan","h24":true,"services":["Station de gonflage","Carburant additivé","Vente de gaz domestique (Butane, Propane)","Automate CB 24/24","DAB (Distributeur automatique de billets)"]},{"id":76370002,"lat":49.94,"lng":1.186,"addr":"9 ROUTE DE DIEPPE","city":"BERNEVAL-LE-GRAND","cp":"76370","fuels":{"Gazole":{"p":2.25,"d":"2026-04-13"},"SP95":{"p":1.99,"d":"2026-04-13"}},"brand":"TotalEnergies","h24":true,"services":["Relais colis","Boutique alimentaire","Boutique non alimentaire","Station de gonflage","Carburant additivé","Services réparation / entretien","Vente de gaz domestique (Butane, Propane)","Automate CB 24/24"]},{"id":76120008,"lat":49.401,"lng":1.065,"addr":"38, AVENUE DES CANADIENS","city":"Le Grand-Quevilly","cp":"76120","fuels":{"Gazole":{"p":2.09,"d":"2026-05-01"},"E85":{"p":0.849,"d":"2026-05-01"},"E10":{"p":1.99,"d":"2026-05-01"},"SP98":{"p":1.99,"d":"2026-05-01"}},"brand":"TotalEnergies","h24":true,"services":["Toilettes publiques","Boutique alimentaire","Boutique non alimentaire","Station de gonflage","Carburant additivé","Piste poids lourds","Lavage automatique","Services réparation / entretien","Vente de gaz domestique (Butane, Propane)","Wifi","Automate CB 24/24"]},{"id":76160003,"lat":49.4451337,"lng":1.1742042,"addr":"1220 ROUTE DE GOURNAY","city":"SAINT JACQUES SUR DARNETAL","cp":"76160","fuels":{"Gazole":{"p":2.199,"d":"2026-04-27"},"E85":{"p":0.849,"d":"2026-04-13"},"GPLc":{"p":0.999,"d":"2026-04-12"},"E10":{"p":2.049,"d":"2026-04-27"},"SP98":{"p":2.129,"d":"2026-04-29"}},"brand":"Système U","h24":true,"services":["Piste poids lourds","Services réparation / entretien","Automate CB 24/24"]},{"id":76370006,"lat":49.914,"lng":1.094,"addr":"Avenue de Breauté","city":"DIEPPE","cp":"76370","fuels":{"Gazole":{"p":2.189,"d":"2026-04-29"},"SP95":{"p":2.029,"d":"2026-04-27"},"E85":{"p":0.819,"d":"2026-04-18"},"E10":{"p":1.977,"d":"2026-04-29"},"SP98":{"p":2.079,"d":"2026-04-27"}},"brand":"Intermarché","h24":true,"services":["Toilettes publiques","Laverie","Relais colis","Boutique alimentaire","Boutique non alimentaire","Restauration à emporter","Vente de pétrole lampant","Station de gonflage","Piste poids lourds","Lavage automatique","Vente de gaz domestique (Butane, Propane)","Bornes électriques","Vente d'additifs carburants","Automate CB 24/24","DAB (Distributeur automatique de billets)"]},{"id":76500004,"lat":49.287,"lng":1.013,"addr":"43 COURS CARNOT","city":"ELBEUF","cp":"76500","fuels":{"Gazole":{"p":2.09,"d":"2026-05-01"},"E85":{"p":0.839,"d":"2026-05-01"},"E10":{"p":1.99,"d":"2026-05-01"},"SP98":{"p":1.99,"d":"2026-05-01"}},"brand":"TotalEnergies","services":["Toilettes publiques","Boutique alimentaire","Boutique non alimentaire","Carburant additivé","Wifi"]},{"id":76000013,"lat":49.437,"lng":1.137,"addr":"ROUTE DE LYONS DIRECTION ROUEN","city":"ROUEN","cp":"76000","fuels":{"Gazole":{"p":2.09,"d":"2026-05-01"}},"brand":"TotalEnergies","h24":true,"services":["Toilettes publiques","Boutique alimentaire","Boutique non alimentaire","Restauration à emporter","Station de gonflage","Carburant additivé","Piste poids lourds","Lavage automatique","Vente de gaz domestique (Butane, Propane)","Automate CB 24/24"]},{"id":76530003,"lat":49.3642,"lng":1.01147,"addr":"Rue du Moulin","city":"GRAND-COURONNE","cp":"76530","fuels":{"Gazole":{"p":2.173,"d":"2026-04-29"},"E10":{"p":1.983,"d":"2026-04-29"},"SP98":{"p":2.094,"d":"2026-04-29"}},"brand":"Intermarché","services":["Vente de fioul domestique","Vente de pétrole lampant","Piste poids lourds","Vente de gaz domestique (Butane, Propane)","DAB (Distributeur automatique de billets)"]},{"id":76590001,"lat":49.771,"lng":1.049,"addr":"54 ROUTE DE LA MER","city":"BELMESNIL","cp":"76590","fuels":{"Gazole":{"p":2.199,"d":"2026-04-21"},"SP95":{"p":2.057,"d":"2026-04-27"},"E85":{"p":0.917,"d":"2026-04-27"},"SP98":{"p":2.101,"d":"2026-04-27"}},"h24":true,"services":["Boutique alimentaire","Boutique non alimentaire","Vente de fioul domestique","Vente de pétrole lampant","Station de gonflage","Carburant additivé","Piste poids lourds","Lavage automatique","Lavage manuel","Vente de gaz domestique (Butane, Propane)","Vente d'additifs carburants","Automate CB 24/24","DAB (Distributeur automatique de billets)"]},{"id":76480001,"lat":49.48,"lng":0.873,"addr":"Avenue du Président Coty","city":"DUCLAIR","cp":"76480","fuels":{"Gazole":{"p":2.25,"d":"2026-04-25"}},"brand":"TotalEnergies","services":["Boutique non alimentaire","Station de gonflage","Carburant additivé","Piste poids lourds","Lavage automatique","Lavage manuel"]},{"id":76810002,"lat":49.832925015872995,"lng":0.91717087582721,"addr":"Rue de la République","city":"Luneray","cp":"76810","fuels":{"Gazole":{"p":2.115,"d":"2026-04-30"},"E10":{"p":1.946,"d":"2026-04-30"},"SP98":{"p":2.057,"d":"2026-04-30"}},"brand":"Auchan","h24":true,"services":["Toilettes publiques","Laverie","Relais colis","Station de gonflage","Vente de gaz domestique (Butane, Propane)","Automate CB 24/24","DAB (Distributeur automatique de billets)"]},{"id":76190005,"lat":49.62113,"lng":0.76692,"addr":"Avenue Georges Clemenceau","city":"YVETOT","cp":"76190","fuels":{"Gazole":{"p":2.199,"d":"2026-04-30"},"SP95":{"p":2.059,"d":"2026-04-29"},"SP98":{"p":2.089,"d":"2026-04-29"}},"services":["Toilettes publiques","Boutique alimentaire","Boutique non alimentaire","Vente de fioul domestique","Station de gonflage","Piste poids lourds","Lavage automatique","Vente de gaz domestique (Butane, Propane)","DAB (Distributeur automatique de billets)"]},{"id":76150002,"lat":49.495,"lng":0.998,"addr":"AUTOROUTE A 15","city":"Saint-Jean-du-Cardonnay","cp":"76150","fuels":{"Gazole":{"p":2.303,"d":"2026-05-01"},"E85":{"p":0.913,"d":"2026-05-01"},"E10":{"p":2.096,"d":"2026-05-01"},"SP98":{"p":2.196,"d":"2026-05-01"}},"brand":"Esso"},{"id":76130001,"lat":49.461,"lng":1.082,"addr":"24 Avenue du Mont aux Malades","city":"Mont-Saint-Aignan","cp":"76130","fuels":{"Gazole":{"p":2.177,"d":"2026-05-01"},"E10":{"p":1.999,"d":"2026-05-01"},"SP98":{"p":2.079,"d":"2026-05-01"}},"brand":"Esso"},{"id":76580001,"lat":49.486,"lng":0.806,"addr":"Rue Raymond Brétéché","city":"LE TRAIT","cp":"76580","fuels":{"Gazole":{"p":2.25,"d":"2026-04-26"},"E10":{"p":1.99,"d":"2026-04-26"},"SP98":{"p":2.07,"d":"2026-04-26"}},"brand":"Esso"},{"id":76530002,"lat":49.354,"lng":1.03,"addr":"RN 138 LES ESSARTS","city":"Grand-Couronne","cp":"76530","fuels":{"Gazole":{"p":2.174,"d":"2026-05-01"},"E85":{"p":0.924,"d":"2026-05-01"},"E10":{"p":1.99,"d":"2026-05-01"},"SP98":{"p":2.068,"d":"2026-05-01"}},"brand":"Esso"},{"id":76710001,"lat":49.54109,"lng":1.06286,"addr":"Sente des Jumelles","city":"MONTVILLE","cp":"76710","fuels":{"Gazole":{"p":2.225,"d":"2026-04-29"},"E85":{"p":0.819,"d":"2026-04-16"},"E10":{"p":2,"d":"2026-04-29"},"SP98":{"p":2.11,"d":"2026-04-29"}},"brand":"Intermarché","services":["Vente de fioul domestique","Lavage manuel","Vente de gaz domestique (Butane, Propane)","DAB (Distributeur automatique de billets)"]},{"id":76620003,"lat":49.512,"lng":0.127,"addr":"253 Rue du Bois au Coq","city":"Le Havre","cp":"76620","fuels":{"Gazole":{"p":2.149,"d":"2026-05-01"},"E10":{"p":1.999,"d":"2026-05-01"},"SP98":{"p":2.031,"d":"2026-05-01"}},"brand":"Esso"},{"id":76610002,"lat":49.508,"lng":0.175,"addr":"AV DU GENERAL FERRIE","city":"Le Havre","cp":"76610","fuels":{"Gazole":{"p":2.209,"d":"2026-05-01"},"E10":{"p":1.99,"d":"2026-05-01"},"SP98":{"p":2.07,"d":"2026-05-01"}},"brand":"Esso"},{"id":76800002,"lat":49.395,"lng":1.112,"addr":"BD LENINE","city":"Saint-Étienne-du-Rouvray","cp":"76800","fuels":{"Gazole":{"p":2.188,"d":"2026-05-01"},"E10":{"p":1.99,"d":"2026-05-01"},"SP98":{"p":2.07,"d":"2026-05-01"}},"brand":"Esso"},{"id":76700007,"lat":49.47933,"lng":0.25865,"addr":"ROUTE INDUSTRIELLE DU HAVRE","city":"ROGERVILLE","cp":"76700","fuels":{"Gazole":{"p":2.09,"d":"2026-05-01"},"E85":{"p":0.837,"d":"2026-05-01"},"E10":{"p":1.99,"d":"2026-05-01"}}},{"id":76230001,"lat":49.47557,"lng":1.10624,"addr":"AVENUE DE L'EUROPE","city":"BOIS-GUILLAUME","cp":"76230","fuels":{"Gazole":{"p":2.142,"d":"2026-04-28"},"E10":{"p":1.977,"d":"2026-04-28"},"SP98":{"p":2.102,"d":"2026-04-28"}},"brand":"Carrefour","services":["Vente de gaz domestique (Butane, Propane)","DAB (Distributeur automatique de billets)"]},{"id":76140001,"lat":49.427,"lng":1.063,"addr":"Avenue Jean-Jaurès","city":"LE PETIT-QUEVILLY","cp":"76140","fuels":{"Gazole":{"p":2.23,"d":"2026-04-29"},"E85":{"p":0.855,"d":"2026-04-29"},"E10":{"p":2.015,"d":"2026-04-29"},"SP98":{"p":2.15,"d":"2026-04-29"}},"brand":"Carrefour","h24":true,"services":["Relais colis","Boutique alimentaire","Carburant additivé","Vente de gaz domestique (Butane, Propane)","Automate CB 24/24"]},{"id":76340003,"lat":49.85,"lng":1.57,"addr":"4 Rue Charles Desjonquières","city":"Foucarmont","cp":"76340","fuels":{"Gazole":{"p":2.195,"d":"2026-04-25"},"SP95":{"p":2.049,"d":"2026-04-25"},"SP98":{"p":2.095,"d":"2026-04-25"}},"brand":"Intermarché","h24":true,"services":["Laverie","Boutique alimentaire","Station de gonflage","Piste poids lourds","Lavage manuel","Vente de gaz domestique (Butane, Propane)","Automate CB 24/24","DAB (Distributeur automatique de billets)"]},{"id":76000006,"lat":49.435,"lng":1.105,"addr":"Avenue Aristide Briand","city":"ROUEN","cp":"76000","fuels":{"Gazole":{"p":2.299,"d":"2026-04-27"},"E85":{"p":0.965,"d":"2026-04-27"},"E10":{"p":2.099,"d":"2026-04-27"},"SP98":{"p":2.199,"d":"2026-04-27"}},"brand":"Avia","h24":true,"services":["Toilettes publiques","Relais colis","Boutique alimentaire","Boutique non alimentaire","Restauration à emporter","Station de gonflage","Carburant additivé","Piste poids lourds","Lavage automatique","Services réparation / entretien","Vente de gaz domestique (Butane, Propane)","Automate CB 24/24"]},{"id":76300005,"lat":49.421,"lng":1.096,"addr":"Rue Gaston Contremoulins","city":"SOTTEVILLE-LèS-ROUEN","cp":"76300","fuels":{"Gazole":{"p":2.16,"d":"2026-04-29"},"E85":{"p":0.818,"d":"2026-04-17"},"E10":{"p":1.97,"d":"2026-04-30"},"SP98":{"p":2.088,"d":"2026-04-30"}},"brand":"Intermarché","services":["Vente de fioul domestique","Lavage manuel","DAB (Distributeur automatique de billets)"]},{"id":76116003,"lat":49.462,"lng":1.257,"addr":"566 Route de Gournay","city":"Servaville-Salmonville","cp":"76116","fuels":{"Gazole":{"p":2.09,"d":"2026-05-01"},"SP98":{"p":1.99,"d":"2026-04-15"}},"brand":"TotalEnergies","h24":true,"services":["Douches","Boutique alimentaire","Restauration à emporter","Restauration sur place","Bar","Piste poids lourds","Lavage automatique","Vente d'additifs carburants","Wifi","Automate CB 24/24","DAB (Distributeur automatique de billets)"]},{"id":76500005,"lat":49.286,"lng":1.009,"addr":"7 rue du Neubourg","city":"ELBEUF","cp":"76500","fuels":{"Gazole":{"p":2.199,"d":"2026-04-30"},"E10":{"p":1.989,"d":"2026-04-30"},"SP98":{"p":2.089,"d":"2026-04-20"}},"brand":"Carrefour","h24":true,"services":["Automate CB 24/24"]},{"id":76420004,"lat":49.459,"lng":1.126,"addr":"Rue du Maréchal de Lattre de Tassigny","city":"BIHOREL","cp":"76420","fuels":{"Gazole":{"p":2.279,"d":"2026-04-18"},"SP95":{"p":2.029,"d":"2026-04-18"},"E10":{"p":1.979,"d":"2026-04-18"}},"brand":"Carrefour","h24":true,"services":["Laverie","Vente de gaz domestique (Butane, Propane)","Automate CB 24/24","DAB (Distributeur automatique de billets)"]},{"id":76260003,"lat":50.032,"lng":1.399,"addr":"RD 925 ETALONDES","city":"ETALONDES","cp":"76260","fuels":{"Gazole":{"p":2.189,"d":"2026-04-29"},"SP95":{"p":2.045,"d":"2026-04-29"},"E85":{"p":0.749,"d":"2026-04-29"},"GPLc":{"p":1.025,"d":"2026-04-22"},"E10":{"p":1.999,"d":"2026-04-29"}},"brand":"Leclerc","h24":true,"services":["Boutique alimentaire","Boutique non alimentaire","Vente de pétrole lampant","Station de gonflage","Location de véhicule","Piste poids lourds","Lavage automatique","Lavage manuel","Vente de gaz domestique (Butane, Propane)","Bornes électriques","Vente d'additifs carburants","Automate CB 24/24","DAB (Distributeur automatique de billets)"]},{"id":76220008,"lat":49.473,"lng":1.726,"addr":"69 avenue de la première armée française","city":"Gournay-en-Bray","cp":"76220","fuels":{"Gazole":{"p":2.199,"d":"2026-04-29"},"SP95":{"p":2.045,"d":"2026-04-29"},"E85":{"p":0.856,"d":"2026-04-17"}},"h24":true,"services":["Toilettes publiques","Vente de fioul domestique","Station de gonflage","Carburant additivé","Piste poids lourds","Vente de gaz domestique (Butane, Propane)","Automate CB 24/24","DAB (Distributeur automatique de billets)"]},{"id":76680001,"lat":49.67,"lng":1.284,"addr":"Avenue Emmanuel Brion","city":"SAINT-SAëNS","cp":"76680","fuels":{"Gazole":{"p":2.369,"d":"2026-04-21"},"SP95":{"p":2.09,"d":"2026-04-21"},"SP98":{"p":2.159,"d":"2026-04-21"}},"brand":"Carrefour","h24":true,"services":["Piste poids lourds","Automate CB 24/24","DAB (Distributeur automatique de billets)"]},{"id":76640004,"lat":49.651,"lng":0.591,"addr":"Place Gaston Sanson","city":"FAUVILLE-EN-CAUX","cp":"76640","fuels":{"Gazole":{"p":2.249,"d":"2026-04-30"},"SP95":{"p":2.049,"d":"2026-04-30"},"SP98":{"p":2.099,"d":"2026-04-30"}},"brand":"Carrefour","h24":true,"services":["Relais colis","Station de gonflage","Vente de gaz domestique (Butane, Propane)","Automate CB 24/24"]},{"id":76370004,"lat":49.909,"lng":1.108,"addr":"EtranMartin Eglise","city":"DIEPPE","cp":"76370","fuels":{"Gazole":{"p":2.189,"d":"2026-04-29"},"SP95":{"p":2.028,"d":"2026-04-29"},"E10":{"p":1.999,"d":"2026-04-30"},"SP98":{"p":2.079,"d":"2026-04-27"}},"brand":"Leclerc","h24":true,"services":["Toilettes publiques","Laverie","Boutique alimentaire","Boutique non alimentaire","Bar","Location de véhicule","Piste poids lourds","Lavage automatique","Vente de gaz domestique (Butane, Propane)","Bornes électriques","Wifi","Automate CB 24/24","DAB (Distributeur automatique de billets)"]},{"id":76330002,"lat":49.48189,"lng":0.58305,"addr":"Rue Jérôme Cardan","city":"Notre-Dame-de-Gravenchon","cp":"76330","fuels":{"Gazole":{"p":2.219,"d":"2026-04-29"},"SP95":{"p":2.034,"d":"2026-04-27"},"SP98":{"p":2.114,"d":"2026-04-27"}},"brand":"Carrefour","services":["Boutique alimentaire","Restauration à emporter","Station de gonflage","Carburant additivé","Lavage automatique","Lavage manuel","Vente de gaz domestique (Butane, Propane)","DAB (Distributeur automatique de billets)"]},{"id":76510001,"lat":49.876,"lng":1.234,"addr":"975 Rue Robert Lefranc","city":"Saint-Nicolas-d'Aliermont","cp":"76510","fuels":{"Gazole":{"p":2.185,"d":"2026-04-30"},"E85":{"p":0.819,"d":"2026-04-17"},"E10":{"p":1.977,"d":"2026-04-30"},"SP98":{"p":2.079,"d":"2026-04-30"}},"brand":"Intermarché","h24":true,"services":["Laverie","Piste poids lourds","Lavage manuel","Vente de gaz domestique (Butane, Propane)","Automate CB 24/24","DAB (Distributeur automatique de billets)"]},{"id":76700001,"lat":49.503,"lng":0.209,"addr":"RN 182","city":"Gonfreville-l'Orcher","cp":"76700","fuels":{"Gazole":{"p":2.3,"d":"2026-04-29"},"SP95":{"p":2.1,"d":"2026-04-15"},"SP98":{"p":2.19,"d":"2026-04-08"}},"h24":true,"services":["Toilettes publiques","Relais colis","Boutique alimentaire","Station de gonflage","Carburant additivé","Lavage automatique","Services réparation / entretien","Vente de gaz domestique (Butane, Propane)","Automate CB 24/24"]},{"id":76270003,"lat":49.725277201557,"lng":1.4597834195908,"addr":"CENTRE COMMERCIAL SAINT JEAN","city":"NEUVILLE-FERRIERES","cp":"76270","fuels":{"Gazole":{"p":2.199,"d":"2026-04-28"},"E85":{"p":0.849,"d":"2026-04-13"},"E10":{"p":2.049,"d":"2026-04-29"},"SP98":{"p":2.129,"d":"2026-04-29"}},"brand":"Système U","h24":true,"services":["Lavage automatique","Automate CB 24/24"]},{"id":76176001,"lat":49.432,"lng":1.083,"addr":"AVENUE DE BRETAGNE","city":"ROUEN","cp":"76100","fuels":{"Gazole":{"p":2.138,"d":"2026-04-30"},"E85":{"p":0.773,"d":"2026-04-30"},"E10":{"p":1.995,"d":"2026-04-30"}},"brand":"Leclerc","h24":true,"services":["Lavage automatique","Automate CB 24/24"]},{"id":76220005,"lat":49.479,"lng":1.713,"addr":"20 Avenue des Aulnaies","city":"GOURNAY-EN-BRAY","cp":"76220","fuels":{"Gazole":{"p":2.199,"d":"2026-04-28"},"SP95":{"p":2.099,"d":"2026-04-28"},"SP98":{"p":2.139,"d":"2026-04-28"}},"brand":"Intermarché","services":["Vente de pétrole lampant","DAB (Distributeur automatique de billets)"]},{"id":76230002,"lat":49.470116509600004,"lng":1.11748807822,"addr":"Rue de la République","city":"BOIS-GUILLAUME","cp":"76230","fuels":{"Gazole":{"p":2.279,"d":"2026-04-20"},"E10":{"p":1.977,"d":"2026-04-20"}},"brand":"Carrefour","services":["Vente de gaz domestique (Butane, Propane)","DAB (Distributeur automatique de billets)"]},{"id":76440003,"lat":49.62214,"lng":1.53814,"addr":"Route de Neufchâtel","city":"Serqueux","cp":"76440","fuels":{"Gazole":{"p":2.199,"d":"2026-04-28"},"E85":{"p":0.849,"d":"2026-04-13"},"GPLc":{"p":0.999,"d":"2026-04-12"},"E10":{"p":2.049,"d":"2026-04-29"},"SP98":{"p":2.129,"d":"2026-04-29"}},"brand":"Système U","services":["Vente de fioul domestique","Vente de pétrole lampant","Station de gonflage","Location de véhicule","Piste poids lourds","Lavage manuel","Vente de gaz domestique (Butane, Propane)","DAB (Distributeur automatique de billets)"]},{"id":76200003,"lat":49.919,"lng":1.086,"addr":"14 Avenue Normandie Sussex","city":"DIEPPE","cp":"76200","fuels":{"Gazole":{"p":2.219,"d":"2026-04-27"},"SP95":{"p":2.055,"d":"2026-04-27"},"E85":{"p":0.835,"d":"2026-04-27"},"GPLc":{"p":1.029,"d":"2026-04-24"},"SP98":{"p":2.114,"d":"2026-04-27"}},"brand":"Société financière Marchand","h24":true,"services":["Boutique non alimentaire","Vente de fioul domestique","Station de gonflage","Carburant additivé","Piste poids lourds","Vente de gaz domestique (Butane, Propane)","Automate CB 24/24"]},{"id":76400008,"lat":49.758,"lng":0.392,"addr":"78 ROUTE DE VALMONT","city":"FECAMP","cp":"76400","fuels":{"Gazole":{"p":2.119,"d":"2026-04-30"},"E10":{"p":2.027,"d":"2026-04-30"},"SP98":{"p":2.099,"d":"2026-04-30"}},"brand":"Intermarché","h24":true,"services":["Piste poids lourds","Vente de gaz domestique (Butane, Propane)","Automate CB 24/24"]},{"id":76131001,"lat":49.472,"lng":1.094,"addr":"Rue de la Vatine","city":"MONT-SAINT-AIGNAN","cp":"76130","fuels":{"Gazole":{"p":2.134,"d":"2026-04-29"},"SP95":{"p":2.019,"d":"2026-04-29"},"E10":{"p":1.971,"d":"2026-04-29"},"SP98":{"p":2.129,"d":"2026-04-29"}},"brand":"Carrefour","services":["Relais colis","Boutique alimentaire","Boutique non alimentaire","Restauration à emporter","Restauration sur place","Station de gonflage","Location de véhicule","Lavage automatique","Lavage manuel","Vente de gaz domestique (Butane, Propane)","DAB (Distributeur automatique de billets)"]},{"id":76940001,"lat":49.4791071533,"lng":0.768094546353,"addr":"CHEMIN DU ROY","city":"LA MAILLERAYE-SUR-SEINE","cp":"76940","fuels":{"Gazole":{"p":2.245,"d":"2026-04-28"},"SP95":{"p":2.072,"d":"2026-04-28"},"SP98":{"p":2.154,"d":"2026-04-28"}},"brand":"Carrefour","services":["Vente de gaz domestique (Butane, Propane)"]},{"id":76340001,"lat":49.847,"lng":1.565,"addr":"1 ROUTE NATIONALE","city":"FOUCARMONT","cp":"76340","fuels":{"Gazole":{"p":2.219,"d":"2026-04-21"},"SP95":{"p":1.99,"d":"2026-04-30"},"SP98":{"p":1.99,"d":"2026-04-30"}},"brand":"Elan","h24":true,"services":["Boutique non alimentaire","Vente de fioul domestique","Carburant additivé","Piste poids lourds","Services réparation / entretien","Vente d'additifs carburants","Automate CB 24/24"]},{"id":76300004,"lat":49.414,"lng":1.091,"addr":"AVENUE JEAN JAURES","city":"Sotteville-lès-Rouen","cp":"76300","fuels":{"Gazole":{"p":2.16,"d":"2026-04-29"},"E10":{"p":1.98,"d":"2026-04-29"},"SP98":{"p":2.12,"d":"2026-04-29"}},"brand":"Carrefour","h24":true,"services":["Vente de gaz domestique (Butane, Propane)","Automate CB 24/24","DAB (Distributeur automatique de billets)"]},{"id":76460002,"lat":49.858,"lng":0.693,"addr":"Route du Havre","city":"Saint-Valery-en-Caux","cp":"76460","fuels":{"Gazole":{"p":2.169,"d":"2026-04-29"},"E85":{"p":0.906,"d":"2026-04-10"},"GPLc":{"p":1.15,"d":"2026-04-27"},"E10":{"p":1.999,"d":"2026-04-29"},"SP98":{"p":2.29,"d":"2026-04-30"}},"brand":"Leclerc","services":["Toilettes publiques","Relais colis","Boutique alimentaire","Boutique non alimentaire","Restauration à emporter","Restauration sur place","Bar","Vente de pétrole lampant","Station de gonflage","Location de véhicule","Piste poids lourds","Lavage automatique","Lavage manuel","Vente de gaz domestique (Butane, Propane)","Wifi","DAB (Distributeur automatique de billets)"]},{"id":76450001,"lat":49.792,"lng":0.634,"addr":"Avenue Maximiliansau","city":"Cany-Barville","cp":"76450","fuels":{"Gazole":{"p":2.185,"d":"2026-04-30"},"SP95":{"p":2.05,"d":"2026-04-30"},"SP98":{"p":2.133,"d":"2026-04-30"}},"brand":"Carrefour","services":["Toilettes publiques","Laverie","Location de véhicule","Vente de gaz domestique (Butane, Propane)","DAB (Distributeur automatique de billets)"]},{"id":76191001,"lat":49.612,"lng":0.775,"addr":"Rue Jean Moulin","city":"YVETOT","cp":"76190","fuels":{"Gazole":{"p":2.129,"d":"2026-04-28"},"SP95":{"p":2.019,"d":"2026-04-28"},"E85":{"p":0.749,"d":"2026-04-11"},"GPLc":{"p":0.999,"d":"2026-03-09"},"E10":{"p":1.999,"d":"2026-04-28"},"SP98":{"p":2.049,"d":"2026-04-28"}},"brand":"Leclerc","h24":true,"services":["Relais colis","Boutique alimentaire","Boutique non alimentaire","Restauration sur place","Vente de pétrole lampant","Station de gonflage","Location de véhicule","Piste poids lourds","Lavage automatique","Lavage manuel","Services réparation / entretien","Vente de gaz domestique (Butane, Propane)","Bornes électriques","Vente d'additifs carburants","Automate CB 24/24","DAB (Distributeur automatique de billets)"]},{"id":76520002,"lat":49.388880019033,"lng":1.2004598332776,"addr":"Départemental RD 6014","city":"Boos","cp":"76520","fuels":{"Gazole":{"p":2.16,"d":"2026-04-29"},"SP95":{"p":1.996,"d":"2026-04-29"},"E10":{"p":1.945,"d":"2026-04-29"}},"brand":"Intermarché","services":["Toilettes publiques","Vente de fioul domestique","Vente de pétrole lampant","Lavage automatique","Vente de gaz domestique (Butane, Propane)","DAB (Distributeur automatique de billets)"]},{"id":76460003,"lat":49.864,"lng":0.708,"addr":"9 avenue du 51 eme highland division","city":"SAINT-VALERY-EN-CAUX","cp":"76460","fuels":{"Gazole":{"p":2.09,"d":"2026-05-01"},"E10":{"p":1.99,"d":"2026-05-01"},"SP98":{"p":1.99,"d":"2026-05-01"}},"brand":"TotalEnergies","h24":true,"services":["Toilettes publiques","Boutique alimentaire","Station de gonflage","Piste poids lourds","Services réparation / entretien","Vente de gaz domestique (Butane, Propane)","Automate CB 24/24"]},{"id":76760003,"lat":49.661,"lng":0.88,"addr":"Zone d'activités du Bois de l'Arc","city":"YERVILLE","cp":"76760","fuels":{"Gazole":{"p":2.179,"d":"2026-04-30"},"E85":{"p":0.819,"d":"2026-04-28"},"E10":{"p":1.999,"d":"2026-04-30"},"SP98":{"p":2.099,"d":"2026-04-30"}},"brand":"Système U","h24":true,"services":["Carburant additivé","Piste poids lourds","Automate CB 24/24"]},{"id":76300007,"lat":49.421,"lng":1.107,"addr":"10 Boulevard Industriel","city":"Sotteville-lès-Rouen","cp":"76300","fuels":{"Gazole":{"p":2.299,"d":"2026-04-27"},"E85":{"p":0.965,"d":"2026-04-27"},"GPLc":{"p":1.059,"d":"2026-04-23"},"E10":{"p":2.099,"d":"2026-04-27"},"SP98":{"p":2.199,"d":"2026-04-27"}},"brand":"Avia","services":["Toilettes publiques","Relais colis","Boutique alimentaire","Boutique non alimentaire","Restauration à emporter","Restauration sur place","Station de gonflage","Carburant additivé","Aire de camping-cars","Piste poids lourds","Vente de gaz domestique (Butane, Propane)"]},{"id":76370001,"lat":49.926,"lng":1.115,"addr":"52 Avenue de la Libération","city":"Dieppe","cp":"76370","fuels":{"Gazole":{"p":2.199,"d":"2026-04-30"},"SP95":{"p":2.078,"d":"2026-04-30"},"SP98":{"p":2.163,"d":"2026-04-30"}},"brand":"Carrefour","h24":true,"services":["Laverie","Station de gonflage","Vente de gaz domestique (Butane, Propane)","Automate CB 24/24","DAB (Distributeur automatique de billets)"]},{"id":76410002,"lat":49.327932546506005,"lng":1.0983886252421,"addr":"ZAC DU CLOS AUX ANTES","city":"TOURVILLE-LA-RIVIèRE","cp":"76410","fuels":{"Gazole":{"p":2.185,"d":"2026-04-30"},"E85":{"p":0.842,"d":"2026-04-28"},"E10":{"p":2.003,"d":"2026-04-30"},"SP98":{"p":2.114,"d":"2026-04-30"}},"brand":"Carrefour","h24":true,"services":["Boutique alimentaire","Boutique non alimentaire","Carburant additivé","Piste poids lourds","Vente de gaz domestique (Butane, Propane)","Wifi","Automate CB 24/24","DAB (Distributeur automatique de billets)"]},{"id":76520001,"lat":49.398,"lng":1.178,"addr":"801 Route de Paris","city":"FRANQUEVILLE-SAINT-PIERRE","cp":"76520","fuels":{"Gazole":{"p":2.169,"d":"2026-04-30"},"SP95":{"p":2.049,"d":"2026-04-30"},"E85":{"p":0.78,"d":"2026-04-30"},"E10":{"p":1.999,"d":"2026-04-30"},"SP98":{"p":2.095,"d":"2026-04-30"}},"brand":"Système U","services":["Laverie","Relais colis","Restauration sur place","Vente de pétrole lampant","Station de gonflage","Carburant additivé","Location de véhicule","Piste poids lourds","Lavage automatique","Vente de gaz domestique (Butane, Propane)","Bornes électriques","DAB (Distributeur automatique de billets)"]},{"id":76210001,"lat":49.547,"lng":0.495,"addr":"route de Lillebonne","city":"Gruchet-le-Valasse","cp":"76210","fuels":{"Gazole":{"p":2.151,"d":"2026-04-29"},"SP95":{"p":2.009,"d":"2026-04-29"},"E85":{"p":0.77,"d":"2026-04-29"},"GPLc":{"p":0.999,"d":"2026-04-23"},"E10":{"p":1.999,"d":"2026-04-29"},"SP98":{"p":2.157,"d":"2026-04-29"}},"brand":"Carrefour","h24":true,"services":["Vente de gaz domestique (Butane, Propane)","Automate CB 24/24","DAB (Distributeur automatique de billets)"]},{"id":76420007,"lat":49.462333841909,"lng":1.12343058864,"addr":"6 Av. du Maréchal Juin","city":"Bihorel","cp":"76420","fuels":{"Gazole":{"p":2.179,"d":"2026-04-30"},"E85":{"p":0.799,"d":"2026-04-20"},"E10":{"p":1.999,"d":"2026-04-30"},"SP98":{"p":2.099,"d":"2026-04-30"}},"h24":true,"services":["Automate CB 24/24"]},{"id":76910001,"lat":50.012,"lng":1.316,"addr":"Lieu-dit Les Marais","city":"Criel-sur-Mer","cp":"76910","fuels":{"Gazole":{"p":2.278,"d":"2026-04-23"},"SP95":{"p":2.058,"d":"2026-04-28"},"E85":{"p":0.818,"d":"2026-04-28"},"SP98":{"p":2.111,"d":"2026-04-28"}},"brand":"Intermarché","h24":true,"services":["Vente de gaz domestique (Butane, Propane)","Automate CB 24/24"]},{"id":76280004,"lat":49.639,"lng":0.226,"addr":"20 RUE DU GENERAL FAIDHERBE","city":"GONNEVILLE LA MALLET","cp":"76280","fuels":{"Gazole":{"p":2.25,"d":"2026-04-27"},"SP95":{"p":1.99,"d":"2026-04-27"}},"brand":"TotalEnergies","services":["Toilettes publiques","Station de gonflage","Vente d'additifs carburants"]},{"id":76620002,"lat":49.506,"lng":0.101,"addr":"8, rue Romain Rolland Sanvic","city":"Le Havre","cp":"76620","fuels":{"Gazole":{"p":2.156,"d":"2026-04-23"},"SP95":{"p":1.999,"d":"2026-04-23"},"SP98":{"p":2.077,"d":"2026-04-23"}},"brand":"Carrefour","services":["Vente de gaz domestique (Butane, Propane)","DAB (Distributeur automatique de billets)"]},{"id":76230007,"lat":49.5039875947,"lng":1.15396459007,"addr":"ZONE DU GROS CHENE","city":"ISNEAUVILLE","cp":"76230","fuels":{"Gazole":{"p":2.179,"d":"2026-04-29"},"E85":{"p":0.818,"d":"2026-04-20"},"E10":{"p":1.989,"d":"2026-04-29"},"SP98":{"p":2.089,"d":"2026-04-29"}},"brand":"Intermarché","services":["Laverie","Station de gonflage","Location de véhicule","Piste poids lourds","Lavage automatique","Lavage manuel","Vente de gaz domestique (Butane, Propane)","DAB (Distributeur automatique de billets)"]},{"id":76550001,"lat":49.87174,"lng":1.04855,"addr":"AVENUE DE LA HETRAIE","city":"Offranville","cp":"76550","fuels":{"Gazole":{"p":2.2,"d":"2026-04-30"},"SP95":{"p":2.048,"d":"2026-04-30"},"SP98":{"p":2.13,"d":"2026-04-30"}},"brand":"Carrefour","h24":true,"services":["Vente de gaz domestique (Butane, Propane)","Automate CB 24/24"]},{"id":76220009,"lat":49.485,"lng":1.701,"addr":"2 ROUTE DE ROUEN","city":"GOURNAY EN BRAY","cp":"76220","fuels":{"Gazole":{"p":2.09,"d":"2026-05-01"},"GPLc":{"p":1.07,"d":"2026-05-01"},"E10":{"p":1.99,"d":"2026-05-01"}},"brand":"TotalEnergies","h24":true,"services":["Toilettes publiques","Boutique alimentaire","Boutique non alimentaire","Bar","Station de gonflage","Location de véhicule","Piste poids lourds","Lavage automatique","Lavage manuel","Services réparation / entretien","Vente de gaz domestique (Butane, Propane)","Vente d'additifs carburants","Wifi","Automate CB 24/24"]},{"id":76350001,"lat":49.346,"lng":1.096,"addr":"Place Francisco Ferrer","city":"OISSEL","cp":"76350","fuels":{"Gazole":{"p":2.186,"d":"2026-04-30"},"E10":{"p":2.055,"d":"2026-04-30"},"SP98":{"p":2.06,"d":"2026-04-30"}},"brand":"Système U","h24":true,"services":["Vente de gaz domestique (Butane, Propane)","Automate CB 24/24"]},{"id":76570001,"lat":49.564,"lng":0.952,"addr":"RUE DES ACACIAS","city":"Pavilly","cp":"76570","fuels":{"Gazole":{"p":2.459,"d":"2026-04-29"},"SP95":{"p":2.059,"d":"2026-04-29"},"SP98":{"p":2.139,"d":"2026-04-29"}},"brand":"Carrefour","h24":true,"services":["Toilettes publiques","Relais colis","Boutique alimentaire","Station de gonflage","Carburant additivé","Piste poids lourds","Lavage automatique","Lavage manuel","Vente de gaz domestique (Butane, Propane)","Automate CB 24/24","DAB (Distributeur automatique de billets)"]},{"id":76280002,"lat":49.64033,"lng":0.22423,"addr":"2 place du Marché","city":"Gonneville-la-Mallet","cp":"76280","fuels":{"Gazole":{"p":2.209,"d":"2026-04-30"},"E10":{"p":2.027,"d":"2026-04-30"},"SP98":{"p":2.151,"d":"2026-04-30"}},"brand":"Carrefour","services":["Vente de gaz domestique (Butane, Propane)","DAB (Distributeur automatique de billets)"]},{"id":76590003,"lat":49.809,"lng":1.172,"addr":"7 rue des forrières","city":"Torcy-le-petit","cp":"76590","fuels":{"Gazole":{"p":2.169,"d":"2026-04-25"},"E85":{"p":0.799,"d":"2026-04-10"},"E10":{"p":1.969,"d":"2026-04-25"},"SP98":{"p":2.049,"d":"2026-04-25"}},"h24":true,"services":["Relais colis","Piste poids lourds","Vente de gaz domestique (Butane, Propane)","Vente d'additifs carburants","Automate CB 24/24"]},{"id":76600014,"lat":49.83,"lng":1.404,"addr":"34 Route de Neufchâtel-en-Bray","city":"LONDINIERES","cp":"76660","fuels":{"Gazole":{"p":2.189,"d":"2026-04-30"},"SP95":{"p":2.049,"d":"2026-04-30"},"SP98":{"p":2.079,"d":"2026-04-30"}},"brand":"U express","services":["Laverie","Relais colis","Boutique alimentaire","Vente de fioul domestique","Vente de gaz domestique (Butane, Propane)","Wifi"]},{"id":76160002,"lat":49.441,"lng":1.148,"addr":"42 Rue Sadi Carnot","city":"Darnétal","cp":"76160","fuels":{"Gazole":{"p":2.208,"d":"2026-04-30"},"E10":{"p":2.058,"d":"2026-04-30"},"SP98":{"p":2.138,"d":"2026-04-30"}},"brand":"Esso"},{"id":76330003,"lat":49.489,"lng":0.566,"addr":"2 avenue du General DE GAULLE","city":"PORT JEROME SUR SEINE","cp":"76330","fuels":{"Gazole":{"p":2.208,"d":"2026-05-01"},"E85":{"p":0.928,"d":"2026-05-01"},"E10":{"p":2.009,"d":"2026-05-01"},"SP98":{"p":2.089,"d":"2026-05-01"}},"h24":true,"services":["Station de gonflage","Piste poids lourds","Lavage automatique","Lavage manuel","Automate CB 24/24"]},{"id":76600010,"lat":49.494,"lng":0.097,"addr":"8 Rue Béranger","city":"Le Havre","cp":"76600","fuels":{"Gazole":{"p":2.188,"d":"2026-05-01"},"E10":{"p":1.999,"d":"2026-05-01"},"SP98":{"p":2.079,"d":"2026-05-01"}},"brand":"Esso"},{"id":76380002,"lat":49.45879,"lng":1.04473,"addr":"40 Rue du Canal","city":"CANTELEU","cp":"76380","fuels":{"Gazole":{"p":2.157,"d":"2026-04-30"},"E10":{"p":2.006,"d":"2026-04-30"},"SP98":{"p":2.079,"d":"2026-04-30"}},"brand":"Leclerc","services":["Boutique alimentaire","Boutique non alimentaire","Vente de gaz domestique (Butane, Propane)"]},{"id":76600025,"lat":49.48837,"lng":0.1502,"addr":"174 BOULEVARD DE L'AMIRAL MOUCH","city":"LE HAVRE","cp":"76600","fuels":{"Gazole":{"p":2.09,"d":"2026-05-01"},"E10":{"p":1.99,"d":"2026-05-01"},"SP98":{"p":1.99,"d":"2026-05-01"}},"brand":"TotalEnergies","services":["Boutique alimentaire","Boutique non alimentaire","Station de gonflage","Lavage automatique","Lavage manuel","DAB (Distributeur automatique de billets)"]},{"id":76420006,"lat":49.458,"lng":1.108,"addr":"184 ROUTE DE NEUFCHATEL","city":"BIHOREL","cp":"76420","fuels":{"Gazole":{"p":2.09,"d":"2026-05-01"},"E85":{"p":0.834,"d":"2026-05-01"},"GPLc":{"p":1.004,"d":"2026-05-01"}},"brand":"TotalEnergies","h24":true,"services":["Boutique alimentaire","Boutique non alimentaire","Restauration à emporter","Station de gonflage","Carburant additivé","Lavage automatique","Vente de gaz domestique (Butane, Propane)","Automate CB 24/24"]},{"id":76600012,"lat":49.498,"lng":0.184,"addr":"490 Boulevard Jules Durand","city":"LE HAVRE","cp":"76600","fuels":{"Gazole":{"p":2.09,"d":"2026-04-30"},"SP95":{"p":1.99,"d":"2026-04-07"}},"brand":"TotalEnergies","h24":true,"services":["Toilettes publiques","Boutique alimentaire","Vente de fioul domestique","Carburant additivé","Piste poids lourds","Automate CB 24/24"]},{"id":76640002,"lat":49.652,"lng":0.6,"addr":"Rue de l'Europe","city":"FAUVILLE-EN-CAUX","cp":"76640","fuels":{"Gazole":{"p":2.149,"d":"2026-04-29"},"E85":{"p":0.799,"d":"2026-04-20"},"E10":{"p":1.989,"d":"2026-04-27"},"SP98":{"p":2.059,"d":"2026-04-27"}},"brand":"Système U","h24":true,"services":["Relais colis","Station de gonflage","Location de véhicule","Piste poids lourds","Lavage automatique","Lavage manuel","Vente de gaz domestique (Butane, Propane)","Bornes électriques","Automate CB 24/24"]},{"id":76560001,"lat":49.721,"lng":0.782,"addr":"6 rue Jean Varin","city":"DOUDEVILLE","cp":"76560","fuels":{"Gazole":{"p":2.129,"d":"2026-04-29"},"SP95":{"p":2.019,"d":"2026-04-24"},"SP98":{"p":2.099,"d":"2026-04-24"}},"brand":"Carrefour","services":["Laverie","Relais colis","Boutique alimentaire","Boutique non alimentaire","Vente de fioul domestique","Vente de pétrole lampant","Location de véhicule","Vente de gaz domestique (Butane, Propane)","Vente d'additifs carburants"]},{"id":76700004,"lat":49.503,"lng":0.21,"addr":"48 Route d'Oudalle","city":"GONFREVILLE-L'ORCHER","cp":"76700","fuels":{"Gazole":{"p":2.09,"d":"2026-04-30"},"SP95":{"p":1.99,"d":"2026-04-08"},"SP98":{"p":1.99,"d":"2026-04-08"}},"brand":"Elan","h24":true,"services":["Services réparation / entretien","Vente de gaz domestique (Butane, Propane)","Automate CB 24/24"]},{"id":76300009,"lat":49.404,"lng":1.111,"addr":"57 BD INDUSTRIEL","city":"Sotteville-lès-Rouen","cp":"76300","fuels":{"Gazole":{"p":2.09,"d":"2026-05-01"},"E10":{"p":1.99,"d":"2026-05-01"}},"brand":"TotalEnergies","h24":true,"services":["Toilettes publiques","Boutique alimentaire","Boutique non alimentaire","Station de gonflage","Carburant additivé","Piste poids lourds","Lavage automatique","Lavage manuel","Espace bébé","GNV","Vente de gaz domestique (Butane, Propane)","Bornes électriques","Vente d'additifs carburants","Wifi","Automate CB 24/24"]},{"id":76720002,"lat":49.634,"lng":1.044,"addr":"A29","city":"VARNEVILLE  BRETTEVILLE","cp":"76890","fuels":{"Gazole":{"p":2.179,"d":"2026-04-30"},"SP95":{"p":1.999,"d":"2026-04-17"},"E85":{"p":0.885,"d":"2026-04-30"},"E10":{"p":1.975,"d":"2026-04-30"},"SP98":{"p":2.079,"d":"2026-04-30"}},"brand":"Vallée","h24":true,"services":["Toilettes publiques","Douches","Restauration à emporter","Vente de fioul domestique","Station de gonflage","Carburant additivé","Piste poids lourds","Lavage automatique","Lavage manuel","Automate CB 24/24"]},{"id":76910002,"lat":50.022017766993,"lng":1.3257412969589,"addr":"100 ROUTE D'HAVELANGE","city":"CRIEL SUR MER","cp":"76910","fuels":{"Gazole":{"p":2.229,"d":"2026-04-20"},"E10":{"p":1.99,"d":"2026-04-20"},"SP98":{"p":1.99,"d":"2026-04-20"}},"h24":true,"services":["Relais colis","Boutique alimentaire","Boutique non alimentaire","Station de gonflage","Carburant additivé","Piste poids lourds","Services réparation / entretien","Vente de gaz domestique (Butane, Propane)","Vente d'additifs carburants","Automate CB 24/24"]},{"id":76170005,"lat":49.515547999999995,"lng":0.532634,"addr":"Bld de Lattre de Tassigny","city":"Lillebonne","cp":"76170","fuels":{"Gazole":{"p":2.149,"d":"2026-04-30"},"SP95":{"p":2.008,"d":"2026-04-30"},"E85":{"p":0.819,"d":"2026-04-16"},"SP98":{"p":2.079,"d":"2026-04-30"}},"h24":true,"services":["Laverie","Lavage automatique","Automate CB 24/24"]},{"id":76360004,"lat":49.557114000000006,"lng":0.952772,"addr":"168 AVENUE ANDRE MAUROIS","city":"BARENTIN","cp":"76360","fuels":{"Gazole":{"p":2.09,"d":"2026-05-01"},"E10":{"p":1.99,"d":"2026-04-29"},"SP98":{"p":1.99,"d":"2026-04-29"}},"h24":true,"services":["Boutique alimentaire","Boutique non alimentaire","Restauration à emporter","Station de gonflage","Lavage automatique","Vente de gaz domestique (Butane, Propane)","Vente d'additifs carburants","Automate CB 24/24"]},{"id":76450003,"lat":49.789896799213004,"lng":0.63955765642719,"addr":"30 ROUTE DE VEULETTE","city":"Cany-Barville","cp":"76450","fuels":{"Gazole":{"p":2.09,"d":"2026-05-01"}},"h24":true,"services":["Piste poids lourds","Automate CB 24/24"]},{"id":76220010,"lat":49.461,"lng":1.52,"addr":"23 RUE DU VAL LAURENT","city":"LA FEUILLIE","cp":"76220","fuels":{"Gazole":{"p":2.199,"d":"2026-04-30"},"E85":{"p":0.818,"d":"2026-04-23"},"E10":{"p":2.049,"d":"2026-04-30"},"SP98":{"p":2.139,"d":"2026-04-30"}},"brand":"Intermarché","h24":true,"services":["Toilettes publiques","Boutique alimentaire","Vente de pétrole lampant","Piste poids lourds","Lavage automatique","Lavage manuel","Automate CB 24/24"]},{"id":76240006,"lat":49.407,"lng":1.148,"addr":"37 ROUTE DE PARIS","city":"LE MESNIL ESNARD","cp":"76240","fuels":{"Gazole":{"p":2.09,"d":"2026-05-01"},"E10":{"p":1.99,"d":"2026-05-01"},"SP98":{"p":1.99,"d":"2026-05-01"}},"brand":"TotalEnergies","h24":true,"services":["Boutique alimentaire","Boutique non alimentaire","Station de gonflage","Carburant additivé","Lavage automatique","Vente de gaz domestique (Butane, Propane)","Automate CB 24/24"]},{"id":76720004,"lat":49.719,"lng":1.092,"addr":"28 RUE DE VERDUN, AUFFAY","city":"VAL DE SCIE","cp":"76720","fuels":{"Gazole":{"p":2.199,"d":"2026-04-28"},"SP95":{"p":2.099,"d":"2026-04-28"},"SP98":{"p":2.129,"d":"2026-04-28"}},"h24":true,"services":["Automate CB 24/24"]},{"id":76210009,"lat":49.57249,"lng":0.469096,"addr":"17 rue Jacques Fauquet","city":"BOLBEC","cp":"76210","fuels":{"Gazole":{"p":2.259,"d":"2026-04-29"},"E10":{"p":1.999,"d":"2026-04-29"},"SP98":{"p":2.099,"d":"2026-04-29"}},"services":["Carburant additivé","Automate CB 24/24"]},{"id":76430006,"lat":49.484,"lng":0.449,"addr":"RD 910","city":"TANCARVILLE","cp":"76430","fuels":{"Gazole":{"p":2.09,"d":"2026-05-01"},"E85":{"p":0.829,"d":"2026-05-01"},"E10":{"p":1.99,"d":"2026-05-01"},"SP98":{"p":1.99,"d":"2026-05-01"}},"brand":"TotalEnergies","services":["Boutique alimentaire","Boutique non alimentaire","Restauration à emporter","Restauration sur place","Vente de fioul domestique","Station de gonflage","Carburant additivé","Piste poids lourds","Lavage automatique","Vente de gaz domestique (Butane, Propane)"]},{"id":76800009,"lat":49.394,"lng":1.06,"addr":"63 AVENUE DES CANADIENS","city":"Saint-Étienne-du-Rouvray","cp":"76800","fuels":{"Gazole":{"p":2.09,"d":"2026-05-01"},"E10":{"p":1.99,"d":"2026-05-01"}},"brand":"TotalEnergies","services":["Boutique alimentaire","Boutique non alimentaire","Station de gonflage","Carburant additivé","Vente de gaz domestique (Butane, Propane)","Wifi"]},{"id":76400009,"lat":49.74544,"lng":0.37202,"addr":"2010 ROUTE DU HAVRE","city":"FECAMP-SAINT LEONARD","cp":"76400","fuels":{"Gazole":{"p":2.092,"d":"2026-04-30"},"SP95":{"p":2.028,"d":"2026-04-30"},"E85":{"p":0.712,"d":"2026-04-30"},"E10":{"p":1.997,"d":"2026-04-30"}},"brand":"Leclerc","services":["Toilettes publiques","Boutique alimentaire","Boutique non alimentaire","Restauration à emporter","Restauration sur place","Vente de pétrole lampant","Location de véhicule","Piste poids lourds","Espace bébé","Vente de gaz domestique (Butane, Propane)","DAB (Distributeur automatique de billets)"]},{"id":76410003,"lat":49.307,"lng":1.029,"addr":"ROUTE DE TOURVILLE","city":"Cléon","cp":"76410","fuels":{"Gazole":{"p":2.25,"d":"2026-04-25"},"E10":{"p":1.99,"d":"2026-04-25"},"SP98":{"p":1.99,"d":"2026-04-25"}},"brand":"TotalEnergies","h24":true,"services":["Boutique alimentaire","Boutique non alimentaire","Station de gonflage","Carburant additivé","Piste poids lourds","Lavage manuel","Vente de gaz domestique (Butane, Propane)","Automate CB 24/24"]},{"id":76620001,"lat":49.52315,"lng":0.10955,"addr":"centre commercial grand cap","city":"Le Havre","cp":"76620","fuels":{"Gazole":{"p":2.117,"d":"2026-04-30"},"E85":{"p":0.766,"d":"2026-04-30"},"GPLc":{"p":1.082,"d":"2026-04-30"},"E10":{"p":1.968,"d":"2026-04-30"},"SP98":{"p":2.058,"d":"2026-04-30"}},"brand":"Auchan","services":["Vente de pétrole lampant","Station de gonflage","Lavage manuel","DAB (Distributeur automatique de billets)"]}]