[{"id":84500006,"lat":44.258,"lng":4.65,"addr":"AV JEAN GIONO","city":"BOLLENE","cp":"84500","fuels":{"Gazole":{"p":2.09,"d":"2026-05-01"},"E85":{"p":0.835,"d":"2026-05-01"},"E10":{"p":1.99,"d":"2026-05-01"}},"brand":"TotalEnergies","services":["Boutique alimentaire","Boutique non alimentaire","Station de gonflage","Carburant additivé","Vente de gaz domestique (Butane, Propane)","Vente d'additifs carburants","Wifi"]},{"id":84840003,"lat":44.312,"lng":4.686,"addr":"81 Avenue de Montélimar","city":"Lapalud","cp":"84840","fuels":{"Gazole":{"p":2.239,"d":"2026-04-17"},"E10":{"p":1.999,"d":"2026-04-17"}},"brand":"U","services":["Laverie","Relais colis","Boutique alimentaire","Restauration à emporter","Carburant additivé","Vente de gaz domestique (Butane, Propane)","Bornes électriques"]},{"id":84200008,"lat":44.08,"lng":5.067,"addr":"2875 Route de malaucene","city":"Carpentras","cp":"84200","fuels":{"Gazole":{"p":2.329,"d":"2026-04-29"},"SP95":{"p":2.149,"d":"2026-04-16"},"E85":{"p":0.999,"d":"2026-03-04"},"SP98":{"p":2.219,"d":"2026-04-16"}},"brand":"Independent","h24":true,"services":["Automate CB 24/24"]},{"id":84220003,"lat":43.864,"lng":5.291,"addr":"ZA PIED ROUSSET LES DEVENS","city":"ROUSSILLON","cp":"84220","fuels":{"Gazole":{"p":2.292,"d":"2026-04-24"},"E85":{"p":0.899,"d":"2026-04-24"},"E10":{"p":2.028,"d":"2026-04-24"}},"h24":true,"services":["Piste poids lourds","Automate CB 24/24"]},{"id":84550004,"lat":44.195,"lng":4.731,"addr":"Aire de Mornas Village - Autoroute A7 - Sens Lyon Marseille","city":"Mornas","cp":"84550","fuels":{"Gazole":{"p":2.491,"d":"2026-05-01"},"E85":{"p":1.009,"d":"2026-05-01"},"GPLc":{"p":1.206,"d":"2026-05-01"},"E10":{"p":2.326,"d":"2026-05-01"},"SP98":{"p":2.45,"d":"2026-05-01"}},"brand":"Esso","h24":true,"services":["Toilettes publiques","Douches","Boutique alimentaire","Boutique non alimentaire","Restauration à emporter","Restauration sur place","Station de gonflage","Carburant additivé","Piste poids lourds","Espace bébé","GNV","Bornes électriques","Vente d'additifs carburants","Wifi","Automate CB 24/24","DAB (Distributeur automatique de billets)"]},{"id":84170001,"lat":44.033,"lng":4.995,"addr":"2 Boulevard d'Avignon","city":"Monteux","cp":"84170","fuels":{"Gazole":{"p":2.277,"d":"2026-04-28"},"E85":{"p":1.055,"d":"2026-04-30"},"E10":{"p":2.108,"d":"2026-04-30"},"SP98":{"p":2.169,"d":"2026-04-30"}},"brand":"Avia","h24":true,"services":["Boutique alimentaire","Boutique non alimentaire","Station de gonflage","Carburant additivé","Piste poids lourds","Lavage automatique","Services réparation / entretien","Vente de gaz domestique (Butane, Propane)","Automate CB 24/24"]},{"id":84000001,"lat":43.93,"lng":4.833,"addr":"162 Avenue Pierre Sémard","city":"Avignon","cp":"84000","fuels":{"Gazole":{"p":2.175,"d":"2026-04-29"},"E85":{"p":0.768,"d":"2026-04-27"},"GPLc":{"p":1.145,"d":"2026-04-07"},"E10":{"p":1.973,"d":"2026-04-30"},"SP98":{"p":2.105,"d":"2026-04-21"}},"brand":"Carrefour","h24":true,"services":["Station de gonflage","Carburant additivé","Vente de gaz domestique (Butane, Propane)","Automate CB 24/24"]},{"id":84200010,"lat":44.059915395230995,"lng":5.0704285376765,"addr":"1050 Chemin du Castellas Route de Mazan","city":"CARPENTRAS","cp":"84200","fuels":{"Gazole":{"p":2.199,"d":"2026-04-23"},"E10":{"p":2.019,"d":"2026-04-23"},"SP98":{"p":2.099,"d":"2026-04-08"}},"brand":"Système U","services":["Station de gonflage","Carburant additivé","DAB (Distributeur automatique de billets)"]},{"id":84330005,"lat":44.1,"lng":5.102,"addr":"169 ROUTE DE CARPENTRAS","city":"CAROMB","cp":"84330","fuels":{"Gazole":{"p":2.339,"d":"2026-04-02"},"E10":{"p":2.139,"d":"2026-04-02"},"SP98":{"p":2.149,"d":"2026-04-02"}},"brand":"cavaille Etienne","h24":true,"services":["Laverie","Relais colis","Boutique alimentaire","Station de gonflage","Lavage automatique","Lavage manuel","Vente de gaz domestique (Butane, Propane)","Vente d'additifs carburants","Automate CB 24/24"]},{"id":84700006,"lat":44.023,"lng":4.89,"addr":"Autoroute A7","city":"Sorgues","cp":"84700","fuels":{"Gazole":{"p":2.339,"d":"2026-04-28"},"E85":{"p":1.055,"d":"2026-04-28"},"GPLc":{"p":1.13,"d":"2026-04-28"},"E10":{"p":2.119,"d":"2026-04-28"},"SP98":{"p":2.199,"d":"2026-04-28"}},"brand":"Avia","h24":true,"services":["Toilettes publiques","Douches","Boutique alimentaire","Boutique non alimentaire","Restauration à emporter","Restauration sur place","Bar","Station de gonflage","Carburant additivé","Aire de camping-cars","Piste poids lourds","Espace bébé","Vente d'additifs carburants","Automate CB 24/24","DAB (Distributeur automatique de billets)"]},{"id":84500003,"lat":44.280839173,"lng":4.8021741693,"addr":"Route de Suze la Rousse","city":"BOLLèNE","cp":"84500","fuels":{"Gazole":{"p":2.36,"d":"2026-04-04"},"SP95":{"p":2.3,"d":"2026-04-04"}},"brand":"Independent"},{"id":84310002,"lat":43.94345,"lng":4.90789,"addr":"28 Chemin du Clos Neuf","city":"Morières-lès-Avignon","cp":"84310","fuels":{"Gazole":{"p":2.209,"d":"2026-04-20"},"E85":{"p":0.799,"d":"2026-04-24"},"E10":{"p":2.049,"d":"2026-04-28"},"SP98":{"p":2.129,"d":"2026-04-28"}},"brand":"Leclerc","services":["Location de véhicule","Lavage manuel","Vente de gaz domestique (Butane, Propane)","DAB (Distributeur automatique de billets)"]},{"id":84570002,"lat":44.057792672929,"lng":5.2314268211487,"addr":"24 AVENUE JEAN JAURES","city":"VILLES-SUR-AUZON","cp":"84570","fuels":{"Gazole":{"p":2.369,"d":"2026-04-14"},"SP95":{"p":2.179,"d":"2026-04-30"}}},{"id":84000023,"lat":43.929473098521,"lng":4.79102455869,"addr":"390 RUE JEAN MARIE TJIBAOU","city":"AVIGNON","cp":"84000","fuels":{"Gazole":{"p":2.235,"d":"2026-04-30"},"E10":{"p":1.965,"d":"2026-04-30"},"SP98":{"p":2.09,"d":"2026-04-30"}},"brand":"Carrefour","h24":true,"services":["Relais colis","Location de véhicule","Bornes électriques","Automate CB 24/24"]},{"id":84110006,"lat":44.229030660904,"lng":5.0139130168282,"addr":"2918 route de vaison la romaine","city":"SEGURET","cp":"84110","fuels":{"Gazole":{"p":2.269,"d":"2026-04-20"},"SP95":{"p":2.159,"d":"2026-04-24"}},"brand":"Avia","h24":true,"services":["Station de gonflage","Carburant additivé","Piste poids lourds","Vente de gaz domestique (Butane, Propane)","Vente d'additifs carburants","Automate CB 24/24"]},{"id":84290001,"lat":44.232,"lng":4.883,"addr":"80 route de travaillan","city":"ste cécile les vignes","cp":"84290","fuels":{"Gazole":{"p":2.179,"d":"2026-04-30"},"E10":{"p":2.039,"d":"2026-04-30"},"SP98":{"p":2.099,"d":"2026-04-30"}},"brand":"Système U","h24":true,"services":["Laverie","Relais colis","Boutique alimentaire","Boutique non alimentaire","Restauration à emporter","Vente de fioul domestique","Vente de pétrole lampant","Station de gonflage","Carburant additivé","Aire de camping-cars","Location de véhicule","Piste poids lourds","Lavage automatique","Vente de gaz domestique (Butane, Propane)","Bornes électriques","Vente d'additifs carburants","Wifi","Automate CB 24/24","DAB (Distributeur automatique de billets)"]},{"id":84270002,"lat":43.97813675,"lng":4.908116067437899,"addr":"AVENUE PIERRE DE COUBERTIN","city":"Vedène","cp":"84270","fuels":{"Gazole":{"p":2.225,"d":"2026-04-30"},"E10":{"p":2.069,"d":"2026-04-30"},"SP98":{"p":2.204,"d":"2026-04-30"}},"brand":"Carrefour","services":["Boutique alimentaire","Location de véhicule","Vente de gaz domestique (Butane, Propane)"]},{"id":84600003,"lat":44.394,"lng":4.942,"addr":"Route de Valréas . Quartier les Mouilieres","city":"Grillon","cp":"84600","fuels":{"Gazole":{"p":2.239,"d":"2026-04-21"},"E85":{"p":0.862,"d":"2026-04-11"},"E10":{"p":2.015,"d":"2026-04-21"},"SP98":{"p":2.079,"d":"2026-04-21"}},"brand":"Fage Energies","h24":true,"services":["Station de gonflage","Carburant additivé","Piste poids lourds","Lavage automatique","Vente d'additifs carburants","Automate CB 24/24","DAB (Distributeur automatique de billets)"]},{"id":84850002,"lat":44.160795619623,"lng":4.8743299834672005,"addr":"RD43 CHEMIN DE PIOLENC","city":"Camaret-sur-Aigues","cp":"84850","fuels":{"Gazole":{"p":2.235,"d":"2026-04-30"},"E85":{"p":0.819,"d":"2026-04-21"},"E10":{"p":1.998,"d":"2026-04-30"},"SP98":{"p":2.12,"d":"2026-04-30"}},"brand":"Intermarché","h24":true,"services":["Station de gonflage","Automate CB 24/24"]},{"id":84300013,"lat":43.83519894804,"lng":5.0442203664398,"addr":"250 route de pertuis","city":"CAVAILLON","cp":"84300","fuels":{"Gazole":{"p":2.199,"d":"2026-04-23"},"SP95":{"p":1.999,"d":"2026-04-23"},"E85":{"p":0.859,"d":"2026-04-23"}},"h24":true,"services":["Automate CB 24/24"]},{"id":84430005,"lat":44.235,"lng":4.711,"addr":"RN7 Gour Du Bidon","city":"Mondragon","cp":"84430","fuels":{"Gazole":{"p":2.219,"d":"2026-04-30"},"E10":{"p":1.999,"d":"2026-04-25"},"SP98":{"p":2.179,"d":"2026-04-30"}},"brand":"Carrefour","h24":true,"services":["Toilettes publiques","Boutique alimentaire","Restauration à emporter","Carburant additivé","Vente de gaz domestique (Butane, Propane)","Automate CB 24/24"]},{"id":84700007,"lat":44.00503690000001,"lng":4.8747561,"addr":"place Wettenberg","city":"Sorgues","cp":"84700","fuels":{"Gazole":{"p":2.229,"d":"2026-04-30"},"E10":{"p":2.029,"d":"2026-04-30"}},"brand":"Carrefour","services":["DAB (Distributeur automatique de billets)"]},{"id":84600002,"lat":44.373,"lng":4.981,"addr":"Route d'Orange","city":"Valréas","cp":"84600","fuels":{"Gazole":{"p":2.249,"d":"2026-04-29"},"E85":{"p":0.818,"d":"2026-04-29"},"E10":{"p":2.049,"d":"2026-04-29"},"SP98":{"p":2.119,"d":"2026-04-29"}},"brand":"Intermarché","h24":true,"services":["Toilettes publiques","Laverie","Relais colis","Restauration sur place","Bar","Station de gonflage","Aire de camping-cars","Piste poids lourds","Vente de gaz domestique (Butane, Propane)","Vente d'additifs carburants","Automate CB 24/24","DAB (Distributeur automatique de billets)"]},{"id":84000011,"lat":43.94,"lng":4.83,"addr":"37 route de Montfavet","city":"AVIGNON","cp":"84000","fuels":{"Gazole":{"p":2.245,"d":"2026-04-27"},"E85":{"p":0.819,"d":"2026-04-15"},"E10":{"p":2.076,"d":"2026-04-27"},"SP98":{"p":2.156,"d":"2026-04-15"}},"brand":"Intermarché","h24":true,"services":["Laverie","Station de gonflage","Piste poids lourds","Lavage automatique","Automate CB 24/24"]},{"id":84107001,"lat":44.12,"lng":4.84,"addr":"Route de Jonquieres","city":"ORANGE","cp":"84100","fuels":{"Gazole":{"p":2.235,"d":"2026-04-28"},"E85":{"p":0.819,"d":"2026-04-14"},"E10":{"p":1.998,"d":"2026-04-28"},"SP98":{"p":2.12,"d":"2026-04-28"}},"brand":"Carrefour","h24":true,"services":["Laverie","Relais colis","Boutique non alimentaire","Restauration à emporter","Restauration sur place","Bar","Station de gonflage","Carburant additivé","Location de véhicule","Lavage automatique","Lavage manuel","Vente de gaz domestique (Butane, Propane)","Bornes électriques","Wifi","Automate CB 24/24","DAB (Distributeur automatique de billets)"]},{"id":84140006,"lat":43.931,"lng":4.874,"addr":"950 CRS CARDINAL BERTRAND DE MON","city":"MONTFAVET","cp":"84140","fuels":{"Gazole":{"p":2.09,"d":"2026-05-01"},"E85":{"p":0.849,"d":"2026-05-01"},"E10":{"p":1.99,"d":"2026-05-01"},"SP98":{"p":1.99,"d":"2026-05-01"}},"brand":"TotalEnergies","h24":true,"services":["Toilettes publiques","Relais colis","Boutique alimentaire","Station de gonflage","Piste poids lourds","Vente de gaz domestique (Butane, Propane)","Wifi","Automate CB 24/24","DAB (Distributeur automatique de billets)"]},{"id":84170002,"lat":44.035,"lng":5.003,"addr":"7 Avenue René Cassin","city":"MONTEUX","cp":"84170","fuels":{"Gazole":{"p":2.219,"d":"2026-04-30"},"E85":{"p":1.099,"d":"2026-03-24"},"E10":{"p":2.069,"d":"2026-04-30"},"SP98":{"p":2.179,"d":"2026-04-30"}},"h24":true,"services":["Toilettes publiques","Boutique non alimentaire","Station de gonflage","Carburant additivé","Piste poids lourds","Services réparation / entretien","Vente de gaz domestique (Butane, Propane)","Automate CB 24/24"]},{"id":84130014,"lat":43.951587862436,"lng":4.858162032207,"addr":"276 RUE JEAN ET RENE REINAUDO","city":"LE PONTET","cp":"84130","fuels":{"Gazole":{"p":2.299,"d":"2026-04-24"},"E10":{"p":1.999,"d":"2026-04-24"},"SP98":{"p":2.139,"d":"2026-04-24"}},"h24":true,"services":["Automate CB 24/24"]},{"id":84507001,"lat":44.322,"lng":4.745,"addr":"Route de Saint-Paul-Trois-Chateaux","city":"BOLLèNE","cp":"84500","fuels":{"Gazole":{"p":2.189,"d":"2026-04-30"},"SP95":{"p":1.999,"d":"2026-04-21"},"E85":{"p":0.789,"d":"2026-04-21"},"GPLc":{"p":1.099,"d":"2026-04-15"},"E10":{"p":1.999,"d":"2026-04-30"}},"brand":"Leclerc","services":["Boutique alimentaire","Boutique non alimentaire","Vente de pétrole lampant","Station de gonflage","Carburant additivé","Piste poids lourds","Lavage manuel","Vente de gaz domestique (Butane, Propane)","DAB (Distributeur automatique de billets)"]},{"id":84301001,"lat":43.8365087192,"lng":5.0504459519600005,"addr":"28 Avenue des Taillades","city":"CAVAILLON","cp":"84300","fuels":{"Gazole":{"p":2.175,"d":"2026-04-29"},"E85":{"p":0.818,"d":"2026-04-29"},"E10":{"p":1.989,"d":"2026-04-29"},"SP98":{"p":2.099,"d":"2026-04-29"}},"brand":"Auchan","services":["Toilettes publiques","Boutique alimentaire","Boutique non alimentaire","Restauration à emporter","Restauration sur place","Bar","Station de gonflage","Carburant additivé","Vente de gaz domestique (Butane, Propane)","DAB (Distributeur automatique de billets)"]},{"id":84210001,"lat":44.00918,"lng":5.0511,"addr":"680 Route de la Buissonne","city":"PERNES-LES-FONTAINES","cp":"84210","fuels":{"Gazole":{"p":2.157,"d":"2026-04-30"},"E85":{"p":0.818,"d":"2026-04-24"},"E10":{"p":2.001,"d":"2026-04-30"},"SP98":{"p":2.121,"d":"2026-04-30"}},"brand":"Intermarché","services":["Vente de gaz domestique (Butane, Propane)","DAB (Distributeur automatique de billets)"]},{"id":84120007,"lat":43.679,"lng":5.497,"addr":"route d'aix en provence - lot. les prés verts","city":"Pertuis","cp":"84120","fuels":{"Gazole":{"p":2.231,"d":"2026-04-30"},"SP95":{"p":2.064,"d":"2026-04-30"},"E85":{"p":0.714,"d":"2026-04-27"},"E10":{"p":2.038,"d":"2026-04-30"},"SP98":{"p":2.127,"d":"2026-04-30"}},"brand":"Système U","h24":true,"services":["Laverie","Relais colis","Station de gonflage","Lavage manuel","Vente de gaz domestique (Butane, Propane)","Automate CB 24/24"]},{"id":84340002,"lat":44.176,"lng":5.129,"addr":"2 Rond Point des Remparts","city":"MALAUCENE","cp":"84340","fuels":{"Gazole":{"p":2.28,"d":"2026-04-29"},"SP95":{"p":2.19,"d":"2026-04-29"},"SP98":{"p":2.22,"d":"2026-04-29"}},"brand":"Elan","h24":true,"services":["Services réparation / entretien","Vente de gaz domestique (Butane, Propane)","Automate CB 24/24"]},{"id":84130010,"lat":43.978,"lng":4.858,"addr":"1661 RTE DE SORGUES - RN 7","city":"LE PONTET","cp":"84130","fuels":{"Gazole":{"p":2.09,"d":"2026-05-01"},"E85":{"p":0.879,"d":"2026-05-01"},"GPLc":{"p":1.119,"d":"2026-05-01"},"E10":{"p":1.99,"d":"2026-05-01"},"SP98":{"p":1.99,"d":"2026-05-01"}},"brand":"TotalEnergies","services":["Toilettes publiques","Boutique alimentaire","Boutique non alimentaire","Station de gonflage","Carburant additivé","Piste poids lourds","Lavage automatique","Vente de gaz domestique (Butane, Propane)","DAB (Distributeur automatique de billets)"]},{"id":84300011,"lat":43.831,"lng":5.054,"addr":"264 Avenue de Cheval Blanc","city":"CAVAILLON","cp":"84300","fuels":{"Gazole":{"p":2.09,"d":"2026-05-01"},"E85":{"p":0.819,"d":"2026-05-01"},"GPLc":{"p":1.119,"d":"2026-05-01"},"E10":{"p":1.99,"d":"2026-05-01"}},"brand":"TotalEnergies","h24":true,"services":["Boutique alimentaire","Boutique non alimentaire","Vente de fioul domestique","Station de gonflage","Carburant additivé","Piste poids lourds","Lavage automatique","Vente de gaz domestique (Butane, Propane)","Vente d'additifs carburants","Wifi","Automate CB 24/24"]},{"id":84800003,"lat":43.931,"lng":5.064,"addr":"Route de Carpentras","city":"L'ISLE-SUR-LA-SORGUE","cp":"84800","fuels":{"Gazole":{"p":2.149,"d":"2026-04-30"},"E85":{"p":0.819,"d":"2026-04-20"},"GPLc":{"p":1.089,"d":"2026-04-23"},"E10":{"p":1.999,"d":"2026-04-23"},"SP98":{"p":2.119,"d":"2026-04-28"}},"brand":"Intermarché","h24":true,"services":["Toilettes publiques","Laverie","Boutique alimentaire","Boutique non alimentaire","Restauration à emporter","Restauration sur place","Bar","Vente de pétrole lampant","Station de gonflage","Carburant additivé","Piste poids lourds","Lavage automatique","Espace bébé","Services réparation / entretien","Vente de gaz domestique (Butane, Propane)","Bornes électriques","Wifi","Automate CB 24/24"]},{"id":84200012,"lat":44.057,"lng":5.058,"addr":"417 bis avenue du Mont Ventoux","city":"Carpentras","cp":"84200","fuels":{"Gazole":{"p":2.189,"d":"2026-04-23"},"E85":{"p":0.748,"d":"2026-04-28"},"E10":{"p":2.009,"d":"2026-04-23"}},"brand":"Esso","h24":true,"services":["Relais colis","Station de gonflage","Carburant additivé","Automate CB 24/24"]},{"id":84260001,"lat":44.0812,"lng":4.98365,"addr":"Route de Carpentras","city":"Sarrians","cp":"84260","fuels":{"Gazole":{"p":2.189,"d":"2026-04-28"},"E85":{"p":0.759,"d":"2026-03-11"},"GPLc":{"p":1.079,"d":"2026-04-14"},"E10":{"p":2.029,"d":"2026-04-28"},"SP98":{"p":2.169,"d":"2026-04-29"}},"brand":"Intermarché","services":["Vente de gaz domestique (Butane, Propane)","DAB (Distributeur automatique de billets)"]},{"id":84470001,"lat":43.92849,"lng":4.93805,"addr":"778 Route d'Avignon","city":"Châteauneuf-de-Gadagne","cp":"84470","fuels":{"Gazole":{"p":2.29,"d":"2026-04-20"},"E10":{"p":2.03,"d":"2026-04-20"},"SP98":{"p":2.15,"d":"2026-04-20"}},"brand":"Esso","services":["Toilettes publiques","Boutique alimentaire","Station de gonflage","Lavage automatique","Services réparation / entretien","Vente de gaz domestique (Butane, Propane)"]},{"id":84800004,"lat":43.918,"lng":5.05,"addr":"RN 100 PL. EMILE CHAR","city":"L'Isle-sur-la-Sorgue","cp":"84800","fuels":{"Gazole":{"p":2.09,"d":"2026-05-01"},"E85":{"p":0.876,"d":"2026-05-01"}},"brand":"TotalEnergies","services":["Toilettes publiques","Boutique alimentaire","Restauration à emporter","Vente de fioul domestique","Station de gonflage","Lavage automatique","Vente de gaz domestique (Butane, Propane)"]},{"id":84000009,"lat":43.94,"lng":4.798,"addr":"10 Avenue Eisenhower","city":"Avignon","cp":"84000","fuels":{"Gazole":{"p":2.175,"d":"2026-04-24"},"SP95":{"p":2.085,"d":"2026-04-29"},"E10":{"p":2.015,"d":"2026-04-29"}},"brand":"Leclerc","services":["Boutique alimentaire","Boutique non alimentaire","Vente de gaz domestique (Butane, Propane)"]},{"id":84000017,"lat":43.918929139514,"lng":4.8094160710555,"addr":"191 Route de Tarascon","city":"AVIGNON","cp":"84000","fuels":{"Gazole":{"p":2.199,"d":"2026-04-30"},"SP95":{"p":2.079,"d":"2026-04-30"},"E85":{"p":0.939,"d":"2026-04-30"},"E10":{"p":2.037,"d":"2026-04-30"},"SP98":{"p":2.179,"d":"2026-04-30"}},"services":["Piste poids lourds","Lavage automatique","DAB (Distributeur automatique de billets)"]},{"id":84200003,"lat":44.05877,"lng":5.11102,"addr":"La Venue de Carpentras","city":"MAZAN","cp":"84380","fuels":{"Gazole":{"p":2.238,"d":"2026-04-24"},"SP95":{"p":2.196,"d":"2026-04-28"},"SP98":{"p":2.222,"d":"2026-04-28"}},"brand":"Independent"},{"id":84220002,"lat":43.88557,"lng":5.16824,"addr":"Les Imberts","city":"Gordes","cp":"84220","fuels":{"Gazole":{"p":2.32,"d":"2026-04-17"},"SP95":{"p":2.16,"d":"2026-04-28"}},"services":["Station de gonflage","Lavage automatique","Vente de gaz domestique (Butane, Propane)","DAB (Distributeur automatique de billets)"]},{"id":84700002,"lat":44.026,"lng":4.873,"addr":"ROUTE NATIONALE 7","city":"Sorgues","cp":"84700","fuels":{"Gazole":{"p":2.092,"d":"2026-05-01"},"E10":{"p":1.999,"d":"2026-05-01"},"SP98":{"p":2.079,"d":"2026-05-01"}},"brand":"Esso"},{"id":84230001,"lat":44.058,"lng":4.835,"addr":"Avenue Louis Pasteur","city":"Châteauneuf-du-Pape","cp":"84230","fuels":{"Gazole":{"p":2.229,"d":"2026-04-23"},"E10":{"p":1.999,"d":"2026-04-23"},"SP98":{"p":2.129,"d":"2026-04-23"}},"brand":"Système U","services":["Boutique alimentaire","Station de gonflage","Vente de gaz domestique (Butane, Propane)"]},{"id":84110005,"lat":44.247438008131006,"lng":5.0931422309044,"addr":"Route de Nyons","city":"SAINT-ROMAIN-EN-VIENNOIS","cp":"84110","fuels":{"Gazole":{"p":2.197,"d":"2026-04-30"},"E85":{"p":0.819,"d":"2026-04-17"},"GPLc":{"p":1.07,"d":"2026-04-17"},"E10":{"p":1.99,"d":"2026-04-27"},"SP98":{"p":2.099,"d":"2026-04-29"}},"brand":"Intermarché","services":["Laverie","Restauration à emporter","Restauration sur place","Vente de pétrole lampant","Station de gonflage","Carburant additivé","Location de véhicule","Piste poids lourds","Vente de gaz domestique (Butane, Propane)","DAB (Distributeur automatique de billets)"]},{"id":84130001,"lat":43.978935085346,"lng":4.87714859945,"addr":"ZAC DU SAINT TRONQUET, Rte de Carpentras","city":"Le Pontet","cp":"84130","fuels":{"Gazole":{"p":2.209,"d":"2026-04-20"},"E85":{"p":0.799,"d":"2026-04-28"},"GPLc":{"p":1.089,"d":"2026-04-17"},"E10":{"p":2.049,"d":"2026-04-28"},"SP98":{"p":2.129,"d":"2026-04-28"}},"brand":"Auchan","h24":true,"services":["Station de gonflage","Carburant additivé","Piste poids lourds","Vente de gaz domestique (Butane, Propane)","Automate CB 24/24"]},{"id":84100006,"lat":44.118,"lng":4.797,"addr":"Route de Roquemaure","city":"ORANGE","cp":"84100","fuels":{"Gazole":{"p":2.22,"d":"2026-04-21"},"E10":{"p":1.99,"d":"2026-04-21"},"SP98":{"p":1.99,"d":"2026-04-21"}},"brand":"TotalEnergies","h24":true,"services":["Toilettes publiques","Boutique alimentaire","Boutique non alimentaire","Restauration sur place","Vente de fioul domestique","Station de gonflage","Carburant additivé","Location de véhicule","Piste poids lourds","Lavage automatique","Vente de gaz domestique (Butane, Propane)","Vente d'additifs carburants","Automate CB 24/24"]},{"id":84120001,"lat":43.695,"lng":5.493,"addr":"Boulevard Jean Guigues (=des Jardins)","city":"PERTUIS","cp":"84120","fuels":{"Gazole":{"p":2.231,"d":"2026-04-30"},"SP95":{"p":2.064,"d":"2026-04-30"},"E85":{"p":0.714,"d":"2026-04-27"},"E10":{"p":2.038,"d":"2026-04-30"},"SP98":{"p":2.127,"d":"2026-04-30"}},"brand":"U","h24":true,"services":["Toilettes publiques","Relais colis","Boutique alimentaire","Boutique non alimentaire","Restauration à emporter","Restauration sur place","Vente de fioul domestique","Vente de pétrole lampant","Station de gonflage","Location de véhicule","Vente de gaz domestique (Butane, Propane)","Wifi","Automate CB 24/24","DAB (Distributeur automatique de billets)"]},{"id":84200006,"lat":44.034,"lng":5.039,"addr":"AVENUE DES MARCHES","city":"Carpentras","cp":"84200","fuels":{"Gazole":{"p":2.319,"d":"2026-04-23"},"SP95":{"p":2.119,"d":"2026-04-30"},"SP98":{"p":2.149,"d":"2026-04-30"}},"services":["Toilettes publiques","Vente de fioul domestique","Vente de pétrole lampant","Station de gonflage","Piste poids lourds","Lavage automatique","Vente de gaz domestique (Butane, Propane)"]},{"id":84130012,"lat":43.958,"lng":4.85,"addr":"36 av charles de Gaulle","city":"Le Pontet","cp":"84130","fuels":{"Gazole":{"p":2.359,"d":"2026-04-11"},"E10":{"p":2.029,"d":"2026-04-11"},"SP98":{"p":2.129,"d":"2026-04-11"}},"brand":"Système U","h24":true,"services":["Restauration à emporter","Location de véhicule","Vente de gaz domestique (Butane, Propane)","Bornes électriques","Automate CB 24/24"]},{"id":84400004,"lat":43.875,"lng":5.404,"addr":"Boulevard de la Libération","city":"Apt","cp":"84400","fuels":{"Gazole":{"p":2.399,"d":"2026-04-08"},"E85":{"p":0.999,"d":"2026-03-20"},"E10":{"p":2.149,"d":"2026-04-16"},"SP98":{"p":2.199,"d":"2026-04-16"}},"brand":"Intermarché","h24":true,"services":["Vente de pétrole lampant","Piste poids lourds","Services réparation / entretien","Vente de gaz domestique (Butane, Propane)","Automate CB 24/24"]},{"id":84000018,"lat":43.94285490520001,"lng":4.81584355961,"addr":"20 AVENUE PIERRE SEMARD","city":"AVIGNON","cp":"84000","fuels":{"Gazole":{"p":2.09,"d":"2026-05-01"},"E85":{"p":0.853,"d":"2026-05-01"},"E10":{"p":1.99,"d":"2026-05-01"}},"brand":"TotalEnergies"},{"id":84140007,"lat":43.907,"lng":4.89,"addr":"4316 RTE DE MARSEILLE","city":"MONTFAVET","cp":"84140","fuels":{"E10":{"p":1.99,"d":"2026-05-01"}},"brand":"TotalEnergies","h24":true,"services":["Boutique alimentaire","Station de gonflage","Carburant additivé","Piste poids lourds","Vente de gaz domestique (Butane, Propane)","Vente d'additifs carburants","Wifi","Automate CB 24/24","DAB (Distributeur automatique de billets)"]},{"id":84700005,"lat":44.027,"lng":4.874,"addr":"2232 AV. D'ORANGE","city":"SORGUES","cp":"84700","fuels":{"Gazole":{"p":2.09,"d":"2026-05-01"},"E10":{"p":1.99,"d":"2026-05-01"},"SP98":{"p":1.99,"d":"2026-05-01"}},"brand":"TotalEnergies","h24":true,"services":["Boutique alimentaire","Station de gonflage","Carburant additivé","Piste poids lourds","Lavage automatique","Vente de gaz domestique (Butane, Propane)","Wifi","Automate CB 24/24","DAB (Distributeur automatique de billets)"]},{"id":84320001,"lat":44.005,"lng":4.932,"addr":"515 Route de Carpentras","city":"ENTRAIGUES-SUR-LA-SORGUE","cp":"84320","fuels":{"Gazole":{"p":2.239,"d":"2026-04-27"},"E85":{"p":0.839,"d":"2026-04-27"},"E10":{"p":2.039,"d":"2026-04-27"},"SP98":{"p":2.109,"d":"2026-04-27"}},"brand":"Carrefour","services":["Piste poids lourds","Vente de gaz domestique (Butane, Propane)"]},{"id":84400007,"lat":43.883454,"lng":5.38128,"addr":"382 AV. DE LANCON RN 100","city":"APT","cp":"84400","fuels":{"Gazole":{"p":2.09,"d":"2026-05-01"},"E85":{"p":0.843,"d":"2026-05-01"},"GPLc":{"p":1.119,"d":"2026-05-01"},"E10":{"p":1.99,"d":"2026-05-01"},"SP98":{"p":1.99,"d":"2026-05-01"}},"brand":"TotalEnergies","h24":true,"services":["Boutique alimentaire","Station de gonflage","Carburant additivé","Piste poids lourds","Lavage automatique","Vente de gaz domestique (Butane, Propane)","Wifi","Automate CB 24/24","DAB (Distributeur automatique de billets)"]},{"id":84350002,"lat":44.0797107,"lng":4.8788574,"addr":"ROUTE DE CHATEAUNEUF DU PAPE","city":"COURTHEZON","cp":"84350","fuels":{"Gazole":{"p":2.199,"d":"2026-04-30"},"E10":{"p":1.999,"d":"2026-04-30"},"SP98":{"p":2.119,"d":"2026-04-30"}},"brand":"Système U","services":["Toilettes publiques","Restauration à emporter","Vente de pétrole lampant","Station de gonflage","Lavage automatique","Vente de gaz domestique (Butane, Propane)"]},{"id":84390001,"lat":44.1015,"lng":5.41452,"addr":"QUARTIER DE MOUGNE","city":"Sault","cp":"84390","fuels":{"Gazole":{"p":2.199,"d":"2026-04-28"},"E85":{"p":0.819,"d":"2026-04-28"},"E10":{"p":1.999,"d":"2026-04-28"},"SP98":{"p":2.119,"d":"2026-04-28"}},"brand":"Intermarché"},{"id":84660002,"lat":43.86696,"lng":5.1488199999999,"addr":"Avenue du Tourail","city":"Maubec","cp":"84660","fuels":{"Gazole":{"p":2.169,"d":"2026-04-30"},"E85":{"p":0.779,"d":"2026-04-20"},"E10":{"p":2.029,"d":"2026-04-27"},"SP98":{"p":2.109,"d":"2026-04-30"}},"brand":"Système U","services":["Boutique alimentaire","Station de gonflage","Location de véhicule","Piste poids lourds","Lavage automatique","Vente de gaz domestique (Butane, Propane)","DAB (Distributeur automatique de billets)"]},{"id":84850001,"lat":44.162822050066005,"lng":4.8767082703502,"addr":"110 Rte de Violès","city":"Camaret-sur-Aigues","cp":"84850","fuels":{"Gazole":{"p":2.235,"d":"2026-04-30"},"SP95":{"p":2.079,"d":"2026-04-08"},"E10":{"p":1.998,"d":"2026-04-30"},"SP98":{"p":2.12,"d":"2026-04-30"}},"brand":"Intermarché","services":["Piste poids lourds","DAB (Distributeur automatique de billets)"]},{"id":84550003,"lat":44.197,"lng":4.737,"addr":"Route d'orange","city":"Mornas","cp":"84550","fuels":{"Gazole":{"p":2.259,"d":"2026-04-23"},"E10":{"p":1.989,"d":"2026-04-30"}},"brand":"Carrefour","h24":true,"services":["Laverie","Relais colis","Boutique alimentaire","Restauration à emporter","Restauration sur place","Station de gonflage","Location de véhicule","Lavage automatique","Lavage manuel","Vente de gaz domestique (Butane, Propane)","Wifi","Automate CB 24/24"]},{"id":84660001,"lat":43.86584,"lng":5.14004,"addr":"Route de Cavaillon","city":"MAUBEC","cp":"84660","fuels":{"Gazole":{"p":2.24,"d":"2026-04-30"},"SP95":{"p":2.09,"d":"2026-04-30"},"SP98":{"p":2.13,"d":"2026-04-30"}},"services":["Boutique non alimentaire","Station de gonflage","Piste poids lourds","Lavage automatique","Lavage manuel","Vente de gaz domestique (Butane, Propane)","DAB (Distributeur automatique de billets)"]},{"id":84190001,"lat":44.116,"lng":5.016,"addr":"route de carpentras","city":"BEAUMES-DE-VENISE","cp":"84190","fuels":{"Gazole":{"p":2.359,"d":"2026-04-27"},"E85":{"p":1.069,"d":"2026-04-27"},"E10":{"p":2.139,"d":"2026-04-27"},"SP98":{"p":2.219,"d":"2026-04-27"}},"brand":"Avia","services":["Boutique alimentaire","Boutique non alimentaire","Station de gonflage","Piste poids lourds","Vente de gaz domestique (Butane, Propane)","DAB (Distributeur automatique de billets)"]},{"id":84500007,"lat":44.286892034091,"lng":4.7506355196328,"addr":"Avenue Jean Giono STATION 2 ROND POINT","city":"Bollène","cp":"84500","fuels":{"Gazole":{"p":2.199,"d":"2026-05-01"},"E85":{"p":0.818,"d":"2026-05-01"},"E10":{"p":2.008,"d":"2026-05-01"},"SP98":{"p":2.125,"d":"2026-05-01"}},"brand":"Intermarché","services":["Piste poids lourds"]},{"id":84120008,"lat":43.697,"lng":5.505,"addr":"408 rue de la Tour","city":"Pertuis","cp":"84120","fuels":{"Gazole":{"p":2.229,"d":"2026-04-30"},"E85":{"p":0.71,"d":"2026-04-28"},"E10":{"p":2.019,"d":"2026-04-28"},"SP98":{"p":2.099,"d":"2026-04-28"}},"brand":"Esso","h24":true,"services":["Station de gonflage","Carburant additivé","Vente de gaz domestique (Butane, Propane)","Automate CB 24/24","DAB (Distributeur automatique de billets)"]},{"id":84550005,"lat":44.216,"lng":4.723,"addr":"Autoroute A7 Aire de Mornas Les Adrets","city":"Mornas","cp":"84550","fuels":{"Gazole":{"p":2.273,"d":"2026-04-29"},"E85":{"p":0.942,"d":"2026-04-29"},"GPLc":{"p":1.129,"d":"2026-04-22"},"E10":{"p":2.085,"d":"2026-04-29"},"SP98":{"p":2.16,"d":"2026-04-29"}},"brand":"Leclerc","h24":true,"services":["Toilettes publiques","Douches","Laverie","Boutique alimentaire","Boutique non alimentaire","Restauration à emporter","Restauration sur place","Station de gonflage","Carburant additivé","Piste poids lourds","Espace bébé","Bornes électriques","Vente d'additifs carburants","Wifi","Automate CB 24/24"]},{"id":84250001,"lat":43.925,"lng":4.978,"addr":"Route d'Avignon","city":"Le Thor","cp":"84250","fuels":{"Gazole":{"p":2.179,"d":"2026-04-28"},"E85":{"p":0.818,"d":"2026-04-27"},"E10":{"p":1.999,"d":"2026-04-27"},"SP98":{"p":2.109,"d":"2026-04-28"}},"brand":"Intermarché","services":["Vente de gaz domestique (Butane, Propane)","DAB (Distributeur automatique de billets)"]},{"id":84150001,"lat":44.11569,"lng":4.89531,"addr":"85 Avenue de la Libération","city":"JONQUIERES","cp":"84150","fuels":{"Gazole":{"p":2.239,"d":"2026-04-30"},"E10":{"p":2.029,"d":"2026-04-30"},"SP98":{"p":2.149,"d":"2026-04-22"}},"brand":"Intermarché"},{"id":84100004,"lat":44.153,"lng":4.803,"addr":"RN 7 AVE DES FOURCHESVIEILLES","city":"ORANGE","cp":"84100","fuels":{"Gazole":{"p":2.189,"d":"2026-04-30"},"E10":{"p":1.99,"d":"2026-04-30"},"SP98":{"p":2.09,"d":"2026-04-30"}},"brand":"Groupement des Mousquetaires","h24":true,"services":["Laverie","Boutique alimentaire","Boutique non alimentaire","Station de gonflage","Lavage automatique","Vente de gaz domestique (Butane, Propane)","Automate CB 24/24","DAB (Distributeur automatique de billets)"]},{"id":84330004,"lat":44.096798967498,"lng":5.1409751479881,"addr":"ROUTE DE BEDOIN","city":"Saint-Pierre-de-Vassols","cp":"84330","fuels":{"Gazole":{"p":2.195,"d":"2026-04-30"},"E10":{"p":2.049,"d":"2026-04-30"},"SP98":{"p":2.165,"d":"2026-04-30"}},"brand":"Système U","h24":true,"services":["Toilettes publiques","Boutique alimentaire","Restauration à emporter","Station de gonflage","Lavage automatique","Automate CB 24/24"]},{"id":84110001,"lat":44.242,"lng":5.079,"addr":"AVENUE VICTOR HUGO","city":"Vaison-la-Romaine","cp":"84110","fuels":{"Gazole":{"p":2.209,"d":"2026-04-29"},"E85":{"p":0.849,"d":"2026-04-15"},"GPLc":{"p":1.07,"d":"2026-04-01"},"E10":{"p":1.99,"d":"2026-04-25"},"SP98":{"p":1.99,"d":"2026-04-29"}},"brand":"TotalEnergies","h24":true,"services":["Boutique non alimentaire","Vente de fioul domestique","Station de gonflage","Carburant additivé","Piste poids lourds","Vente de gaz domestique (Butane, Propane)","Automate CB 24/24"]},{"id":84601001,"lat":44.386,"lng":5.007,"addr":"Route de Nyons","city":"Valréas","cp":"84600","fuels":{"Gazole":{"p":2.196,"d":"2026-04-30"},"E85":{"p":0.726,"d":"2026-04-30"},"GPLc":{"p":1.041,"d":"2026-04-30"},"E10":{"p":2.018,"d":"2026-04-30"},"SP98":{"p":2.078,"d":"2026-04-30"}},"brand":"Leclerc","h24":true,"services":["Toilettes publiques","Relais colis","Boutique alimentaire","Boutique non alimentaire","Restauration à emporter","Restauration sur place","Vente de pétrole lampant","Station de gonflage","Piste poids lourds","Espace bébé","Vente de gaz domestique (Butane, Propane)","Vente d'additifs carburants","Automate CB 24/24","DAB (Distributeur automatique de billets)"]},{"id":84810002,"lat":44.0920453,"lng":5.0296613,"addr":"avenue Majoral Jouve","city":"aubignan","cp":"84810","fuels":{"Gazole":{"p":2.299,"d":"2026-04-28"},"SP95":{"p":2.049,"d":"2026-04-22"},"E10":{"p":2.029,"d":"2026-04-28"}},"brand":"Carrefour","services":["DAB (Distributeur automatique de billets)"]},{"id":84400001,"lat":43.88436599999999,"lng":5.3795969999999995,"addr":"Avenue lançon","city":"Apt","cp":"84400","fuels":{"Gazole":{"p":2.149,"d":"2026-04-23"},"E10":{"p":1.999,"d":"2026-04-30"},"SP98":{"p":2.081,"d":"2026-04-28"}},"brand":"Auchan","h24":true,"services":["Vente de gaz domestique (Butane, Propane)","Automate CB 24/24","DAB (Distributeur automatique de billets)"]},{"id":84000007,"lat":43.943,"lng":4.811,"addr":"16 Boulevard Saint-Michel","city":"AVIGNON","cp":"84000","fuels":{"Gazole":{"p":2.249,"d":"2026-04-22"},"E85":{"p":0.999,"d":"2026-04-17"},"E10":{"p":2.029,"d":"2026-04-29"}},"brand":"Avia","h24":true,"services":["Toilettes publiques","Relais colis","Boutique alimentaire","Boutique non alimentaire","Restauration à emporter","Station de gonflage","Carburant additivé","Location de véhicule","Lavage automatique","Vente de gaz domestique (Butane, Propane)","Bornes électriques","Vente d'additifs carburants","Automate CB 24/24"]},{"id":84500001,"lat":44.288678396899996,"lng":4.74894670835,"addr":"BP 24 QUARTIER LA DEVERASSE","city":"BOLLèNE","cp":"84500","fuels":{"Gazole":{"p":2.25,"d":"2026-04-22"},"E85":{"p":0.869,"d":"2026-04-20"},"E10":{"p":1.99,"d":"2026-04-20"}},"brand":"TotalEnergies","services":["Carburant additivé","Piste poids lourds","DAB (Distributeur automatique de billets)"]},{"id":84013001,"lat":43.921259562009,"lng":4.8670176328638,"addr":"Route de Marseille","city":"AVIGNON","cp":"84140","fuels":{"Gazole":{"p":2.175,"d":"2026-04-28"},"E85":{"p":0.768,"d":"2026-04-21"},"GPLc":{"p":1.145,"d":"2026-04-09"},"E10":{"p":1.98,"d":"2026-04-28"},"SP98":{"p":2.105,"d":"2026-04-21"}},"brand":"Auchan","services":["Vente de pétrole lampant","Station de gonflage","Carburant additivé","Vente de gaz domestique (Butane, Propane)","DAB (Distributeur automatique de billets)"]},{"id":84400003,"lat":43.883,"lng":5.381,"addr":"Chemin des Abattoirs","city":"APT","cp":"84400","fuels":{"Gazole":{"p":2.149,"d":"2026-04-23"},"SP95":{"p":2.029,"d":"2026-04-20"},"E85":{"p":0.799,"d":"2026-04-15"},"E10":{"p":1.989,"d":"2026-04-30"},"SP98":{"p":2.069,"d":"2026-04-20"}},"brand":"Leclerc","h24":true,"services":["Toilettes publiques","Boutique alimentaire","Boutique non alimentaire","Restauration à emporter","Restauration sur place","Bar","Location de véhicule","Piste poids lourds","Vente de gaz domestique (Butane, Propane)","Vente d'additifs carburants","Automate CB 24/24","DAB (Distributeur automatique de billets)"]},{"id":84110004,"lat":44.243,"lng":5.082,"addr":"Avenue Marcel Pagnol","city":"VAISON-LA-ROMAINE","cp":"84110","fuels":{"Gazole":{"p":2.197,"d":"2026-04-29"},"E85":{"p":0.727,"d":"2026-04-29"},"E10":{"p":2.01,"d":"2026-04-29"},"SP98":{"p":2.099,"d":"2026-04-29"}},"brand":"Système U","h24":true,"services":["Toilettes publiques","Laverie","Relais colis","Boutique alimentaire","Boutique non alimentaire","Restauration à emporter","Restauration sur place","Vente de fioul domestique","Station de gonflage","Location de véhicule","Espace bébé","Vente de gaz domestique (Butane, Propane)","Vente d'additifs carburants","Wifi","Automate CB 24/24","DAB (Distributeur automatique de billets)"]},{"id":84250002,"lat":43.9274359,"lng":4.9987912,"addr":"180 AVENUE DE LA LIBERATION","city":"Le Thor","cp":"84250","fuels":{"Gazole":{"p":2.29,"d":"2026-04-23"},"SP95":{"p":2.12,"d":"2026-04-23"},"SP98":{"p":2.17,"d":"2026-04-23"}},"services":["Station de gonflage","Lavage automatique","Services réparation / entretien","Vente de gaz domestique (Butane, Propane)","Vente d'additifs carburants"]},{"id":84120006,"lat":43.681,"lng":5.501,"addr":"Route d'Aix en Provence, Quartier Saint Martin","city":"Pertuis","cp":"84120","fuels":{"Gazole":{"p":2.246,"d":"2026-04-30"},"E85":{"p":0.731,"d":"2026-04-27"},"E10":{"p":2.022,"d":"2026-04-30"}},"brand":"Carrefour","services":["Carburant additivé","Piste poids lourds","Vente de gaz domestique (Butane, Propane)","DAB (Distributeur automatique de billets)"]},{"id":84160003,"lat":43.728,"lng":5.368,"addr":"4 impasse Louis Astic, Zone artisanale Les Meillères","city":"Cadenet","cp":"84160","fuels":{"Gazole":{"p":2.185,"d":"2026-04-30"},"SP95":{"p":2.054,"d":"2026-04-30"},"E85":{"p":0.789,"d":"2026-04-28"},"SP98":{"p":2.096,"d":"2026-04-30"}},"h24":true,"services":["Vente de fioul domestique","Station de gonflage","Piste poids lourds","Lavage automatique","Lavage manuel","Automate CB 24/24","DAB (Distributeur automatique de billets)"]},{"id":84976001,"lat":44.05145,"lng":5.04122,"addr":"Boulevard Naquet","city":"Carpentras","cp":"84200","fuels":{"Gazole":{"p":2.289,"d":"2026-04-30"},"SP95":{"p":2.049,"d":"2026-04-22"},"E85":{"p":0.749,"d":"2026-04-28"},"E10":{"p":2.029,"d":"2026-04-30"}},"brand":"Leclerc","services":["Boutique alimentaire","Boutique non alimentaire","Restauration sur place","Lavage manuel","Vente de gaz domestique (Butane, Propane)","DAB (Distributeur automatique de billets)"]},{"id":84510001,"lat":43.906,"lng":4.948,"addr":"65 route de Gadagne","city":"Caumont-sur-Durance","cp":"84510","fuels":{"Gazole":{"p":2.199,"d":"2026-04-25"},"E10":{"p":2.037,"d":"2026-04-25"}},"brand":"Système U","services":["Relais colis","Boutique alimentaire","Boutique non alimentaire","Station de gonflage","Carburant additivé","Aire de camping-cars","Location de véhicule","Lavage automatique"]},{"id":84360004,"lat":43.749371592296,"lng":5.309787745529699,"addr":"1 Avenue Philippe de Girard","city":"LAURIS","cp":"84360","fuels":{"Gazole":{"p":2.259,"d":"2026-04-24"},"SP95":{"p":2.129,"d":"2026-04-24"},"E85":{"p":1.12,"d":"2026-03-13"},"SP98":{"p":2.169,"d":"2026-04-24"}},"h24":true,"services":["Location de véhicule","Lavage automatique","Services réparation / entretien","Vente de gaz domestique (Butane, Propane)","Automate CB 24/24"]},{"id":84310004,"lat":43.925,"lng":4.913,"addr":"Autoroute A7 (Sens Lyon - Marseille)","city":"Morières-lès-Avignon","cp":"84310","fuels":{"Gazole":{"p":2.405,"d":"2026-05-01"},"GPLc":{"p":1.129,"d":"2026-05-01"},"E10":{"p":2.199,"d":"2026-05-01"},"SP98":{"p":2.299,"d":"2026-05-01"}},"brand":"Esso","services":["Toilettes publiques","Boutique alimentaire","Boutique non alimentaire","Restauration à emporter","Station de gonflage","Carburant additivé","Piste poids lourds","DAB (Distributeur automatique de billets)"]},{"id":84000008,"lat":43.951,"lng":4.825,"addr":"18 Route de Lyon","city":"Avignon","cp":"84000","fuels":{"Gazole":{"p":2.222,"d":"2026-05-01"},"E85":{"p":0.967,"d":"2026-05-01"},"E10":{"p":1.99,"d":"2026-05-01"},"SP98":{"p":2.07,"d":"2026-05-01"}},"brand":"Esso"},{"id":84700004,"lat":44.009,"lng":4.873,"addr":"1238 ROUTE D'ORANGE","city":"Sorgues","cp":"84700","fuels":{"Gazole":{"p":2.204,"d":"2026-04-30"},"E85":{"p":0.818,"d":"2026-04-30"},"E10":{"p":1.999,"d":"2026-04-30"},"SP98":{"p":2.099,"d":"2026-04-30"}},"brand":"Intermarché","h24":true,"services":["Laverie","Vente de pétrole lampant","Station de gonflage","Piste poids lourds","Lavage automatique","Lavage manuel","Vente de gaz domestique (Butane, Propane)","Automate CB 24/24"]},{"id":84210003,"lat":44.005,"lng":5.051,"addr":"542 Avenue Charles de Gaulle","city":"Pernes-les-Fontaines","cp":"84210","fuels":{"Gazole":{"p":2.36,"d":"2026-04-23"},"E85":{"p":0.899,"d":"2026-04-07"},"E10":{"p":2.05,"d":"2026-04-23"}},"brand":"Dyneff","h24":true,"services":["Vente de fioul domestique","Station de gonflage","Carburant additivé","Piste poids lourds","Services réparation / entretien","Vente de gaz domestique (Butane, Propane)","Automate CB 24/24","DAB (Distributeur automatique de billets)"]},{"id":84300003,"lat":43.856,"lng":5.018,"addr":"ROUTE D'AVIGNON","city":"Cavaillon","cp":"84300","fuels":{"Gazole":{"p":2.25,"d":"2026-04-30"},"E10":{"p":1.99,"d":"2026-04-30"}},"brand":"TotalEnergies","h24":true,"services":["Boutique alimentaire","Boutique non alimentaire","Vente de fioul domestique","Station de gonflage","Carburant additivé","Piste poids lourds","Lavage automatique","Vente de gaz domestique (Butane, Propane)","Vente d'additifs carburants","Wifi","Automate CB 24/24","DAB (Distributeur automatique de billets)"]},{"id":84160001,"lat":43.747,"lng":5.337,"addr":"17 RD 973, Domaine de la VALETTE","city":"PUYVERT","cp":"84160","fuels":{"Gazole":{"p":2.189,"d":"2026-04-29"},"E85":{"p":0.713,"d":"2026-04-29"},"E10":{"p":2.021,"d":"2026-04-29"},"SP98":{"p":2.098,"d":"2026-04-29"}},"brand":"Système U","h24":true,"services":["Toilettes publiques","Laverie","Relais colis","Boutique alimentaire","Boutique non alimentaire","Restauration à emporter","Vente de pétrole lampant","Station de gonflage","Aire de camping-cars","Location de véhicule","Lavage automatique","Lavage manuel","Vente de gaz domestique (Butane, Propane)","Bornes électriques","Vente d'additifs carburants","Wifi","Automate CB 24/24","DAB (Distributeur automatique de billets)"]},{"id":84240001,"lat":43.721,"lng":5.542,"addr":"428 Boulevard St Roch","city":"LA TOUR-D'AIGUES","cp":"84240","fuels":{"Gazole":{"p":2.09,"d":"2026-05-01"}},"brand":"TotalEnergies","h24":true,"services":["Toilettes publiques","Relais colis","Boutique alimentaire","Boutique non alimentaire","Restauration à emporter","Vente de fioul domestique","Vente de pétrole lampant","Station de gonflage","Carburant additivé","Location de véhicule","Piste poids lourds","Lavage manuel","Espace bébé","Vente de gaz domestique (Butane, Propane)","Bornes électriques","Vente d'additifs carburants","Wifi","Automate CB 24/24"]},{"id":84100011,"lat":44.134,"lng":4.817,"addr":"QUARTIER DE L'ARGENSOL","city":"ORANGE","cp":"84100","fuels":{"Gazole":{"p":2.235,"d":"2026-04-30"},"E85":{"p":0.819,"d":"2026-04-20"},"E10":{"p":1.998,"d":"2026-04-30"}},"brand":"Netto","h24":true,"services":["Automate CB 24/24"]},{"id":84800001,"lat":43.925,"lng":5.063,"addr":"82 CHEMIN DES ESPELUGUES","city":"L'Isle-sur-la-Sorgue","cp":"84800","fuels":{"Gazole":{"p":2.149,"d":"2026-04-30"},"E85":{"p":0.819,"d":"2026-04-21"},"E10":{"p":1.999,"d":"2026-04-28"},"SP98":{"p":2.119,"d":"2026-04-30"}},"brand":"Système U","h24":true,"services":["Restauration à emporter","Carburant additivé","Toilettes publiques","Boutique alimentaire","Station de gonflage","Espace bébé","Boutique non alimentaire","Laverie","Vente de gaz domestique (Butane, Propane)","Location de véhicule","Relais colis","Aire de camping-cars","Piste poids lourds","Lavage automatique","Automate CB 24/24"]},{"id":84100005,"lat":44.136,"lng":4.801,"addr":"286 Avenue Charles de Gaulle","city":"ORANGE","cp":"84100","fuels":{"Gazole":{"p":2.189,"d":"2026-04-30"},"E85":{"p":0.819,"d":"2026-04-16"},"GPLc":{"p":1.089,"d":"2026-04-16"},"E10":{"p":1.99,"d":"2026-04-30"},"SP98":{"p":2.09,"d":"2026-04-30"}},"brand":"Intermarché","h24":true,"services":["Toilettes publiques","Laverie","Boutique alimentaire","Boutique non alimentaire","Restauration à emporter","Station de gonflage","Carburant additivé","Location de véhicule","Piste poids lourds","Lavage automatique","Vente de gaz domestique (Butane, Propane)","Automate CB 24/24","DAB (Distributeur automatique de billets)"]},{"id":84300006,"lat":43.829,"lng":5.035,"addr":"130 allée Roch Pape","city":"CAVAILLON","cp":"84300","fuels":{"Gazole":{"p":2.175,"d":"2026-04-29"},"E85":{"p":0.818,"d":"2026-04-27"},"E10":{"p":1.989,"d":"2026-04-28"},"SP98":{"p":2.099,"d":"2026-04-29"}},"brand":"Intermarché","h24":true,"services":["Toilettes publiques","Restauration à emporter","Restauration sur place","Station de gonflage","Piste poids lourds","Lavage automatique","Vente de gaz domestique (Butane, Propane)","Vente d'additifs carburants","Automate CB 24/24","DAB (Distributeur automatique de billets)"]},{"id":84000020,"lat":43.932,"lng":4.783,"addr":"COURTINE OUEST-ROCADE CH. DE GAU","city":"AVIGNON","cp":"84000","fuels":{"Gazole":{"p":2.09,"d":"2026-05-01"},"E85":{"p":0.849,"d":"2026-05-01"}},"brand":"TotalEnergies","services":["Boutique alimentaire","Boutique non alimentaire","Restauration à emporter","Station de gonflage","Carburant additivé","Piste poids lourds","Lavage automatique","Vente de gaz domestique (Butane, Propane)","Bornes électriques","Vente d'additifs carburants","Wifi"]},{"id":84200011,"lat":44.055,"lng":5.054,"addr":"80 chemin de la Lègue","city":"Carpentras","cp":"84200","fuels":{"Gazole":{"p":2.299,"d":"2026-04-30"},"E85":{"p":0.819,"d":"2026-04-24"},"E10":{"p":2.039,"d":"2026-04-30"},"SP98":{"p":2.099,"d":"2026-04-08"}},"brand":"Intermarché","h24":true,"services":["Laverie","Relais colis","Vente de pétrole lampant","Carburant additivé","Lavage automatique","Vente de gaz domestique (Butane, Propane)","Automate CB 24/24"]},{"id":84440001,"lat":43.847268,"lng":5.105559,"addr":"74 avenue de provence","city":"Robion","cp":"84440","fuels":{"Gazole":{"p":2.449,"d":"2026-04-14"},"E10":{"p":2.22,"d":"2026-04-14"},"SP98":{"p":2.29,"d":"2026-04-14"}},"h24":true,"services":["Boutique alimentaire","Vente de fioul domestique","Lavage automatique","Services réparation / entretien","Vente de gaz domestique (Butane, Propane)","Automate CB 24/24"]},{"id":84130011,"lat":43.963,"lng":4.853,"addr":"CD 225 RTE DES BORDS DU RHONE","city":"LE PONTET","cp":"84130","fuels":{"Gazole":{"p":2.09,"d":"2026-05-01"},"E10":{"p":1.99,"d":"2026-05-01"}},"brand":"TotalEnergies","h24":true,"services":["Boutique alimentaire","Boutique non alimentaire","Restauration à emporter","Restauration sur place","Station de gonflage","Carburant additivé","Piste poids lourds","Espace bébé","Vente de gaz domestique (Butane, Propane)","Automate CB 24/24"]},{"id":84120009,"lat":43.68672,"lng":5.502143,"addr":"80 Avenue du 8 Mai 1945","city":"PERTUIS","cp":"84120","fuels":{"Gazole":{"p":2.3,"d":"2026-04-30"},"SP95":{"p":2.15,"d":"2026-04-08"},"SP98":{"p":2.19,"d":"2026-04-08"}},"services":["Vente de fioul domestique","Vente de gaz domestique (Butane, Propane)"]},{"id":84740002,"lat":43.957,"lng":5.029,"addr":"319, ROUTE DE CAVAILLON - D31","city":"VELLERON","cp":"84740","fuels":{"Gazole":{"p":2.25,"d":"2026-04-22"},"E85":{"p":0.876,"d":"2026-04-21"},"E10":{"p":1.99,"d":"2026-04-28"},"SP98":{"p":1.99,"d":"2026-04-28"}},"brand":"Independent","h24":true,"services":["Toilettes publiques","Boutique alimentaire","Boutique non alimentaire","Restauration à emporter","Restauration sur place","Carburant additivé","Aire de camping-cars","Piste poids lourds","Services réparation / entretien","Vente de gaz domestique (Butane, Propane)","Automate CB 24/24"]},{"id":84100009,"lat":44.13559,"lng":4.81309,"addr":"R N 7 - AV. DE LATTRE DE TASSIG","city":"ORANGE","cp":"84100","fuels":{"Gazole":{"p":2.09,"d":"2026-05-01"},"E85":{"p":0.849,"d":"2026-05-01"},"E10":{"p":1.99,"d":"2026-05-01"},"SP98":{"p":1.99,"d":"2026-05-01"}},"brand":"TotalEnergies"}]