[{"id":89100001,"lat":48.183,"lng":3.309,"addr":"84 ROUTE DE MAILLOT","city":"SENS","cp":"89100","fuels":{"Gazole":{"p":2.178,"d":"2026-04-28"},"E85":{"p":0.829,"d":"2026-04-24"},"E10":{"p":2.029,"d":"2026-04-30"},"SP98":{"p":2.099,"d":"2026-04-24"}},"brand":"Carrefour","services":["Toilettes publiques","Location de véhicule","Vente de gaz domestique (Butane, Propane)","Wifi","DAB (Distributeur automatique de billets)"]},{"id":89330001,"lat":48.0361,"lng":3.30502,"addr":"Route de Villeneuve","city":"Saint-Julien-du-Sault","cp":"89330","fuels":{"Gazole":{"p":2.139,"d":"2026-04-25"},"E10":{"p":1.985,"d":"2026-04-25"},"SP98":{"p":2.087,"d":"2026-04-25"}},"brand":"Intermarché","services":["Vente de gaz domestique (Butane, Propane)","DAB (Distributeur automatique de billets)"]},{"id":89690001,"lat":48.2,"lng":2.992,"addr":"ROUTE DES BEDETS","city":"CHEROY","cp":"89690","fuels":{"Gazole":{"p":2.198,"d":"2026-04-29"},"E85":{"p":0.818,"d":"2026-04-29"},"E10":{"p":1.979,"d":"2026-04-29"},"SP98":{"p":2.088,"d":"2026-04-29"}},"brand":"Intermarché","h24":true,"services":["Toilettes publiques","Laverie","Station de gonflage","Location de véhicule","Lavage automatique","Lavage manuel","Vente de gaz domestique (Butane, Propane)","Bornes électriques","Wifi","Automate CB 24/24"]},{"id":89380001,"lat":47.880826805196,"lng":3.5268365139365,"addr":"ROUTE DE JOIGNY","city":"APPOIGNY","cp":"89380","fuels":{"Gazole":{"p":2.289,"d":"2026-04-22"},"SP95":{"p":2.099,"d":"2026-04-14"},"SP98":{"p":2.199,"d":"2026-04-14"}},"h24":true,"services":["Automate CB 24/24"]},{"id":89000004,"lat":47.793,"lng":3.575,"addr":"16 Boulevard Vaulabelle","city":"Auxerre","cp":"89000","fuels":{"Gazole":{"p":2.09,"d":"2026-05-01"},"E10":{"p":1.99,"d":"2026-04-30"},"SP98":{"p":1.99,"d":"2026-04-30"}},"brand":"TotalEnergies","h24":true,"services":["Boutique non alimentaire","Station de gonflage","Carburant additivé","Piste poids lourds","Lavage automatique","Lavage manuel","Services réparation / entretien","Automate CB 24/24"]},{"id":89140004,"lat":48.284,"lng":3.212,"addr":"32 B AVENUE GENERAL LECLERC","city":"Pont-sur-Yonne","cp":"89140","fuels":{"Gazole":{"p":2.09,"d":"2026-05-01"},"E10":{"p":1.99,"d":"2026-04-23"},"SP98":{"p":1.99,"d":"2026-04-23"}},"brand":"Esso","h24":true,"services":["Automate CB 24/24"]},{"id":89290001,"lat":47.74,"lng":3.599,"addr":"CENTRE ARTISANAL","city":"CHAMPS-SUR-YONNE","cp":"89290","fuels":{"Gazole":{"p":2.289,"d":"2026-04-22"},"SP95":{"p":2.099,"d":"2026-04-14"},"SP98":{"p":2.199,"d":"2026-04-14"}},"h24":true,"services":["Automate CB 24/24"]},{"id":89250001,"lat":47.902354808005,"lng":3.6105720708072,"addr":"ROUTE D HERY","city":"SEIGNELAY","cp":"89250","fuels":{"Gazole":{"p":2.289,"d":"2026-04-22"},"SP95":{"p":2.099,"d":"2026-04-14"},"SP98":{"p":2.199,"d":"2026-04-14"}},"brand":"Avia","h24":true,"services":["Automate CB 24/24"]},{"id":89420003,"lat":47.504517327111,"lng":4.0382550768547,"addr":"Autoroute A6 Aire de Maison Dieu - Sens Lyon Paris","city":"Sceaux","cp":"89420","fuels":{"Gazole":{"p":2.339,"d":"2026-04-25"},"E85":{"p":1.055,"d":"2026-04-25"},"GPLc":{"p":1.13,"d":"2026-04-25"},"E10":{"p":2.119,"d":"2026-04-25"},"SP98":{"p":2.199,"d":"2026-04-25"}},"brand":"Avia","h24":true,"services":["Toilettes publiques","Douches","Boutique alimentaire","Boutique non alimentaire","Station de gonflage","Carburant additivé","Piste poids lourds","Espace bébé","Wifi","Automate CB 24/24","DAB (Distributeur automatique de billets)"]},{"id":89000012,"lat":47.809074609693,"lng":3.5588100228173,"addr":"Boulevard de Verdun","city":"AUXERRE","cp":"89000","fuels":{"Gazole":{"p":2.259,"d":"2026-04-29"},"E85":{"p":0.818,"d":"2026-04-20"},"E10":{"p":2.039,"d":"2026-04-29"},"SP98":{"p":2.149,"d":"2026-04-29"}},"brand":"Intermarché","h24":true,"services":["Piste poids lourds","Automate CB 24/24"]},{"id":89190008,"lat":48.247221052308,"lng":3.5555068346406,"addr":"Aire de Villeneuve Vauluisant Autoroute A5 Sens TROYES PARIS","city":"Villeneuve-l'Archevêque","cp":"89190","fuels":{"Gazole":{"p":2.243,"d":"2026-04-28"},"GPLc":{"p":1.108,"d":"2026-04-28"},"E10":{"p":2.156,"d":"2026-04-28"},"SP98":{"p":2.249,"d":"2026-04-28"}},"brand":"Shell","h24":true,"services":["Toilettes publiques","Douches","Boutique alimentaire","Boutique non alimentaire","Restauration à emporter","Restauration sur place","Bar","Station de gonflage","Carburant additivé","Aire de camping-cars","Piste poids lourds","Espace bébé","Vente d'additifs carburants","Wifi","Automate CB 24/24"]},{"id":89700001,"lat":47.852,"lng":3.985,"addr":"ROUTE DE DIJON","city":"Tonnerre","cp":"89700","fuels":{"Gazole":{"p":2.289,"d":"2026-04-22"},"SP95":{"p":2.099,"d":"2026-04-14"},"SP98":{"p":2.199,"d":"2026-04-14"}},"brand":"Auchan"},{"id":89130001,"lat":47.762,"lng":3.254,"addr":"Rue de la Chatterie","city":"TOUCY","cp":"89130","fuels":{"Gazole":{"p":2.289,"d":"2026-04-22"},"E10":{"p":2.099,"d":"2026-04-14"},"SP98":{"p":2.199,"d":"2026-04-14"}},"brand":"bi1","h24":true,"services":["Automate CB 24/24"]},{"id":89200009,"lat":47.491,"lng":3.902,"addr":"AVENUE DE LA MORLANDE","city":"AVALLON","cp":"89200","fuels":{"Gazole":{"p":2.245,"d":"2026-04-30"},"SP95":{"p":2.065,"d":"2026-04-30"},"E10":{"p":1.995,"d":"2026-04-30"}},"brand":"Intermarché","h24":true,"services":["Laverie","Relais colis","Station de gonflage","Lavage automatique","Vente de gaz domestique (Butane, Propane)","Automate CB 24/24"]},{"id":89000013,"lat":47.815,"lng":3.573,"addr":"AVENUE HAUSSMANN","city":"AUXERRE","cp":"89000","fuels":{"Gazole":{"p":2.171,"d":"2026-04-30"},"E85":{"p":0.744,"d":"2026-04-30"},"GPLc":{"p":1.07,"d":"2026-04-30"},"E10":{"p":2.012,"d":"2026-04-30"}},"brand":"Auchan","services":["Carburant additivé","Lavage automatique","Vente de gaz domestique (Butane, Propane)","Wifi","DAB (Distributeur automatique de billets)"]},{"id":89100007,"lat":48.198,"lng":3.277,"addr":"4 Quai Jean Moulin","city":"Sens","cp":"89100","fuels":{"Gazole":{"p":2.319,"d":"2026-04-21"},"E10":{"p":2.149,"d":"2026-04-21"},"SP98":{"p":2.169,"d":"2026-04-21"}},"brand":"BP","services":["Boutique non alimentaire","Station de gonflage","Carburant additivé","Lavage manuel","Services réparation / entretien"]},{"id":89190006,"lat":48.237,"lng":3.552,"addr":"Avenue de la gare","city":"Villeneuve-l'Archevêque","cp":"89190","fuels":{"Gazole":{"p":2.219,"d":"2026-04-30"},"SP95":{"p":2.079,"d":"2026-04-29"},"SP98":{"p":2.119,"d":"2026-04-29"}},"brand":"Carrefour","h24":true,"services":["Laverie","Relais colis","Boutique alimentaire","Boutique non alimentaire","Restauration à emporter","Restauration sur place","Vente de pétrole lampant","Location de véhicule","Vente de gaz domestique (Butane, Propane)","Automate CB 24/24"]},{"id":89400003,"lat":47.973,"lng":3.511,"addr":"Voie Nouvelle Les Latteux","city":"Migennes","cp":"89400","fuels":{"Gazole":{"p":2.16,"d":"2026-04-30"},"E85":{"p":0.817,"d":"2026-04-30"},"E10":{"p":1.996,"d":"2026-04-30"},"SP98":{"p":2.059,"d":"2026-04-30"}},"brand":"Leclerc","services":["Boutique alimentaire","Boutique non alimentaire","Vente de gaz domestique (Butane, Propane)"]},{"id":89270001,"lat":47.664130022077,"lng":3.7387714294689,"addr":"Rue Restif de la Bretonne","city":"VERMENTON","cp":"89270","fuels":{"Gazole":{"p":2.199,"d":"2026-04-27"},"SP95":{"p":2.079,"d":"2026-04-25"},"SP98":{"p":2.159,"d":"2026-04-25"}},"brand":"Atac"},{"id":89170001,"lat":47.642,"lng":3.068,"addr":"RUE DU MOULIN DE L ARCHE","city":"Saint-Fargeau","cp":"89170","fuels":{"Gazole":{"p":2.289,"d":"2026-04-22"},"SP95":{"p":2.199,"d":"2026-04-14"},"E10":{"p":2.099,"d":"2026-04-14"}},"brand":"Avia","h24":true,"services":["Automate CB 24/24"]},{"id":89200002,"lat":47.49,"lng":3.9,"addr":"RUE DE LA GOULOTTE","city":"Avallon","cp":"89200","fuels":{"Gazole":{"p":2.289,"d":"2026-04-22"},"SP95":{"p":2.099,"d":"2026-04-14"}},"brand":"Avia","h24":true,"services":["Automate CB 24/24"]},{"id":89520001,"lat":47.62,"lng":3.198,"addr":"Route de Ouanne","city":"SAINT-SAUVEUR-EN-PUISAYE","cp":"89520","fuels":{"Gazole":{"p":2.289,"d":"2026-04-22"},"SP95":{"p":2.099,"d":"2026-04-14"},"SP98":{"p":2.199,"d":"2026-04-14"}},"brand":"Système U","h24":true,"services":["Automate CB 24/24"]},{"id":89200008,"lat":47.491,"lng":3.912,"addr":"6 Rue de Lyon","city":"Avallon","cp":"89200","fuels":{"Gazole":{"p":2.289,"d":"2026-04-22"},"SP95":{"p":2.099,"d":"2026-04-14"},"E85":{"p":0.949,"d":"2026-04-14"},"GPLc":{"p":1.198,"d":"2026-04-24"},"SP98":{"p":2.199,"d":"2026-04-14"}},"brand":"Avia","h24":true,"services":["Automate CB 24/24"]},{"id":89500002,"lat":48.087524187696,"lng":3.2972951411349,"addr":"4 rue de Braubach","city":"Villeneuve-sur-Yonne","cp":"89500","fuels":{"Gazole":{"p":2.199,"d":"2026-04-29"},"E85":{"p":0.819,"d":"2026-04-20"},"E10":{"p":1.999,"d":"2026-04-29"},"SP98":{"p":2.099,"d":"2026-04-29"}},"brand":"Intermarché","h24":true,"services":["Laverie","Boutique alimentaire","Station de gonflage","Vente de gaz domestique (Butane, Propane)","Automate CB 24/24"]},{"id":89130003,"lat":47.732,"lng":3.31,"addr":"ROUTE DAUXERRE","city":"TOUCY","cp":"89130","fuels":{"Gazole":{"p":2.289,"d":"2026-04-22"},"SP95":{"p":2.169,"d":"2026-04-14"},"E85":{"p":0.899,"d":"2026-04-14"}},"brand":"Avia","h24":true,"services":["Toilettes publiques","Services réparation / entretien","Automate CB 24/24","DAB (Distributeur automatique de billets)"]},{"id":89290002,"lat":47.705,"lng":3.634,"addr":"ROUTE DE VINCELOTTES","city":"VINCELLES","cp":"89290","fuels":{"Gazole":{"p":2.499,"d":"2026-04-08"},"SP95":{"p":2.09,"d":"2026-04-08"}},"brand":"Atac","services":["Laverie","Vente de gaz domestique (Butane, Propane)","DAB (Distributeur automatique de billets)"]},{"id":89100013,"lat":48.172,"lng":3.292,"addr":"Centre commercial ChampBertrand","city":"Sens","cp":"89100","fuels":{"Gazole":{"p":2.289,"d":"2026-04-22"},"SP95":{"p":2.099,"d":"2026-04-14"},"E10":{"p":2.079,"d":"2026-04-14"},"SP98":{"p":2.199,"d":"2026-04-14"}},"h24":true,"services":["Automate CB 24/24"]},{"id":89520003,"lat":47.518,"lng":3.26,"addr":"2 Rue de la Montagne","city":"Sainpuits","cp":"89520","fuels":{"Gazole":{"p":2.39,"d":"2026-04-14"},"SP95":{"p":2.2,"d":"2026-04-06"},"SP98":{"p":2.27,"d":"2026-04-06"}},"brand":"Avia","services":["Toilettes publiques","Relais colis","Boutique alimentaire","Bar","Station de gonflage","Carburant additivé","Vente de gaz domestique (Butane, Propane)","Wifi"]},{"id":89160001,"lat":47.77,"lng":4.175,"addr":"21, rue du collège","city":"Ancy-le-Franc","cp":"89160","fuels":{"Gazole":{"p":2.39,"d":"2026-04-22"},"SP95":{"p":1.965,"d":"2026-04-22"},"E85":{"p":0.959,"d":"2026-04-22"},"SP98":{"p":2.005,"d":"2026-04-22"}},"brand":"bi1","h24":true,"services":["Toilettes publiques","Laverie","Station de gonflage","Piste poids lourds","Lavage automatique","Vente de gaz domestique (Butane, Propane)","Automate CB 24/24"]},{"id":89470004,"lat":47.846,"lng":3.55,"addr":"ROUTE DE PARIS RN 6","city":"MONETEAU","cp":"89470","fuels":{"Gazole":{"p":2.09,"d":"2026-05-01"},"E85":{"p":0.849,"d":"2026-05-01"},"E10":{"p":1.99,"d":"2026-05-01"},"SP98":{"p":1.99,"d":"2026-05-01"}},"brand":"TotalEnergies","services":["Toilettes publiques","Douches","Boutique alimentaire","Boutique non alimentaire","Station de gonflage","Carburant additivé","Piste poids lourds","Lavage automatique","Espace bébé"]},{"id":89140001,"lat":48.294584699999994,"lng":3.195853,"addr":"LES HAUTES VEUVES","city":"Pont-sur-Yonne","cp":"89140","fuels":{"Gazole":{"p":2.289,"d":"2026-04-22"},"SP95":{"p":2.199,"d":"2026-04-14"},"E85":{"p":0.849,"d":"2026-04-14"}},"h24":true,"services":["Automate CB 24/24"]},{"id":89350001,"lat":47.779,"lng":3.077,"addr":"LOT ST MICHEL","city":"Champignelles","cp":"89350","fuels":{"Gazole":{"p":2.289,"d":"2026-04-22"},"SP95":{"p":2.099,"d":"2026-04-14"},"SP98":{"p":2.199,"d":"2026-04-14"}},"h24":true,"services":["Automate CB 24/24"]},{"id":89560001,"lat":47.616,"lng":3.497,"addr":"ROUTE NATIONALE 151","city":"COURSON-LES-CARRIèRES","cp":"89560","fuels":{"Gazole":{"p":2.09,"d":"2026-05-01"},"E10":{"p":1.99,"d":"2026-05-01"}},"brand":"TotalEnergies","h24":true,"services":["Douches","Boutique alimentaire","Boutique non alimentaire","Restauration à emporter","Restauration sur place","Bar","Station de gonflage","Carburant additivé","Piste poids lourds","Vente de gaz domestique (Butane, Propane)","Automate CB 24/24"]},{"id":89000008,"lat":47.797,"lng":3.579,"addr":"14 Avenue Jean Jaurès","city":"Auxerre","cp":"89000","fuels":{"Gazole":{"p":2.161,"d":"2026-04-30"},"E85":{"p":0.719,"d":"2026-04-30"},"E10":{"p":2.002,"d":"2026-04-30"},"SP98":{"p":2.075,"d":"2026-04-30"}},"brand":"Leclerc","services":["Boutique alimentaire","Boutique non alimentaire","Vente de gaz domestique (Butane, Propane)"]},{"id":89600001,"lat":48,"lng":3.718,"addr":"avenue du 8 mai 1945","city":"Saint-Florentin","cp":"89600","fuels":{"Gazole":{"p":2.289,"d":"2026-04-22"},"E10":{"p":2.099,"d":"2026-04-14"},"SP98":{"p":2.199,"d":"2026-04-14"}},"brand":"Atac","h24":true,"services":["Automate CB 24/24"]},{"id":89100006,"lat":48.216605760092996,"lng":3.2771067499518,"addr":"Près Aubert St Denis les Sens","city":"Saint-Denis-lès-Sens","cp":"89100","fuels":{"Gazole":{"p":2.169,"d":"2026-04-30"},"E85":{"p":0.799,"d":"2026-04-20"},"GPLc":{"p":1.059,"d":"2026-04-24"},"E10":{"p":1.979,"d":"2026-04-29"},"SP98":{"p":2.079,"d":"2026-04-29"}},"brand":"Leclerc","h24":true,"services":["Toilettes publiques","Laverie","Boutique alimentaire","Boutique non alimentaire","Restauration à emporter","Restauration sur place","Vente de fioul domestique","Station de gonflage","Location de véhicule","Piste poids lourds","Lavage automatique","Espace bébé","Services réparation / entretien","Vente de gaz domestique (Butane, Propane)","Wifi","Automate CB 24/24","DAB (Distributeur automatique de billets)"]},{"id":89100015,"lat":48.204,"lng":3.271,"addr":"7 boulevard du pont neuf","city":"Sens","cp":"89100","fuels":{"E85":{"p":0.845,"d":"2026-05-01"}},"brand":"TotalEnergies","h24":true,"services":["Boutique alimentaire","Boutique non alimentaire","Station de gonflage","Piste poids lourds","Lavage automatique","Automate CB 24/24"]},{"id":89000007,"lat":47.799,"lng":3.553,"addr":"Boulevard Gallieni","city":"Auxerre","cp":"89000","fuels":{"Gazole":{"p":2.182,"d":"2026-05-01"},"E10":{"p":1.995,"d":"2026-05-01"},"SP98":{"p":2.075,"d":"2026-05-01"}},"brand":"Esso"},{"id":89150002,"lat":48.166,"lng":3.172,"addr":"AUTOROUTE A 19","city":"Fouchères","cp":"89150","fuels":{"Gazole":{"p":2.346,"d":"2026-04-30"},"GPLc":{"p":1.089,"d":"2026-04-30"},"E10":{"p":2.132,"d":"2026-04-30"},"SP98":{"p":2.232,"d":"2026-04-30"}},"brand":"Esso"},{"id":89330002,"lat":48.032,"lng":3.304,"addr":"2 Avenue Pasteur","city":"SAINT-JULIEN-DU-SAULT","cp":"89330","fuels":{"Gazole":{"p":2.232,"d":"2026-04-29"},"SP95":{"p":2.132,"d":"2026-04-29"}},"brand":"Esso","services":["Station de gonflage"]},{"id":89380006,"lat":47.880994937581995,"lng":3.5280124431542,"addr":"RN 6 - 29 ROUTE DE PARIS","city":"APPOIGNY","cp":"89380","fuels":{"Gazole":{"p":2.09,"d":"2026-05-01"},"E85":{"p":0.849,"d":"2026-05-01"},"E10":{"p":1.99,"d":"2026-05-01"}},"brand":"TotalEnergies"},{"id":89400002,"lat":47.963,"lng":3.502,"addr":"129 Avenue Jean Jaurès","city":"Migennes","cp":"89400","fuels":{"Gazole":{"p":2.169,"d":"2026-04-30"},"E10":{"p":2.005,"d":"2026-04-30"},"SP98":{"p":2.085,"d":"2026-04-30"}},"brand":"Esso"},{"id":89600003,"lat":48.001,"lng":3.726,"addr":"ROUTE DE PARIS","city":"SAINT-FLORENTIN","cp":"89600","fuels":{"Gazole":{"p":2.09,"d":"2026-05-01"},"E10":{"p":1.99,"d":"2026-05-01"},"SP98":{"p":1.99,"d":"2026-05-01"}},"brand":"TotalEnergies","services":["Boutique alimentaire","Boutique non alimentaire","Vente de fioul domestique","Station de gonflage","Carburant additivé","Piste poids lourds","Lavage automatique","Lavage manuel","Services réparation / entretien","DAB (Distributeur automatique de billets)"]},{"id":89100014,"lat":48.148,"lng":3.307,"addr":"RN 6","city":"SENS","cp":"89100","fuels":{"Gazole":{"p":2.09,"d":"2026-05-01"},"E85":{"p":0.829,"d":"2026-05-01"},"E10":{"p":1.99,"d":"2026-05-01"}},"brand":"TotalEnergies","h24":true,"services":["Toilettes publiques","Boutique alimentaire","Boutique non alimentaire","Restauration à emporter","Bar","Station de gonflage","Carburant additivé","Piste poids lourds","Vente de gaz domestique (Butane, Propane)","Wifi","Automate CB 24/24"]},{"id":89290007,"lat":47.78765,"lng":3.67211,"addr":"AUTOROUTE A6 - AIRE DE VENOY-GROSSE-PIERRE","city":"VENOY","cp":"89290","fuels":{"Gazole":{"p":2.09,"d":"2026-05-01"},"E85":{"p":0.999,"d":"2026-05-01"},"GPLc":{"p":1.099,"d":"2026-05-01"},"E10":{"p":1.99,"d":"2026-05-01"}},"brand":"TotalEnergies","services":["Toilettes publiques","Douches","Boutique alimentaire","Boutique non alimentaire","Station de gonflage","Carburant additivé","Piste poids lourds","Espace bébé","DAB (Distributeur automatique de billets)"]},{"id":89000003,"lat":47.811,"lng":3.536,"addr":"route de Perrigny","city":"SAINT-GEORGES-SUR-BAULCHE","cp":"89000","fuels":{"Gazole":{"p":2.289,"d":"2026-04-22"},"E10":{"p":2.079,"d":"2026-04-14"},"SP98":{"p":2.199,"d":"2026-04-14"}},"brand":"Bi1","h24":true,"services":["Automate CB 24/24"]},{"id":89116003,"lat":47.97408,"lng":3.19921,"addr":"AUTOROUTE A6 - AIRE DE LA COULINE","city":"Précy-sur-Vrin","cp":"89116","fuels":{"Gazole":{"p":2.09,"d":"2026-05-01"},"E85":{"p":0.999,"d":"2026-05-01"},"GPLc":{"p":1.089,"d":"2026-05-01"},"E10":{"p":1.99,"d":"2026-05-01"},"SP98":{"p":1.99,"d":"2026-05-01"}},"brand":"TotalEnergies"},{"id":89110001,"lat":47.876,"lng":3.353,"addr":"CHEMIN DE NEUILLY","city":"AILLANT-SUR-THOLON","cp":"89110","fuels":{"Gazole":{"p":2.289,"d":"2026-04-22"},"SP95":{"p":2.099,"d":"2026-04-14"},"SP98":{"p":2.199,"d":"2026-04-14"}},"brand":"Système U","h24":true,"services":["Automate CB 24/24"]},{"id":89630001,"lat":47.371,"lng":3.998,"addr":"RUE DE L'ETANG","city":"Quarré-les-Tombes","cp":"89630","fuels":{"Gazole":{"p":2.338,"d":"2026-04-17"},"E10":{"p":2.148,"d":"2026-04-17"}},"brand":"Rousseau carburant","h24":true,"services":["Automate CB 24/24"]},{"id":89400001,"lat":47.962,"lng":3.505,"addr":"Rue Pierre et Marie Curie","city":"MIGENNES","cp":"89400","fuels":{"Gazole":{"p":2.289,"d":"2026-04-22"},"SP95":{"p":2.099,"d":"2026-04-14"},"SP98":{"p":2.199,"d":"2026-04-14"}},"brand":"Atac","h24":true,"services":["Automate CB 24/24"]},{"id":89340004,"lat":48.336,"lng":3.08,"addr":"150 RN6 le petit Villeblevin","city":"Villeblevin","cp":"89340","fuels":{"Gazole":{"p":2.655,"d":"2026-04-09"},"SP95":{"p":2.358,"d":"2026-04-09"}},"brand":"Esso","services":["Toilettes publiques","Boutique alimentaire","Boutique non alimentaire","Restauration à emporter","Restauration sur place","Bar","Vente de fioul domestique","Vente de pétrole lampant","Station de gonflage","Carburant additivé","Piste poids lourds","Lavage automatique","Lavage manuel","Services réparation / entretien","Vente de gaz domestique (Butane, Propane)","Vente d'additifs carburants"]},{"id":89420007,"lat":47.467419859402,"lng":4.0803019554445,"addr":"Route nationale 6","city":"Cussy les Forges","cp":"89420","fuels":{"Gazole":{"p":2.29,"d":"2026-04-17"},"E85":{"p":0.999,"d":"2026-03-30"},"E10":{"p":1.999,"d":"2026-04-17"},"SP98":{"p":2.119,"d":"2026-04-17"}},"brand":"Esso","h24":true,"services":["Carburant additivé","Piste poids lourds","Automate CB 24/24"]},{"id":89000002,"lat":47.792,"lng":3.58,"addr":"RUE DE PREUILLY","city":"Auxerre","cp":"89000","fuels":{"Gazole":{"p":2.289,"d":"2026-04-22"},"SP95":{"p":2.099,"d":"2026-04-14"},"E10":{"p":2.079,"d":"2026-04-14"}},"brand":"Avia","services":["DAB (Distributeur automatique de billets)"]},{"id":89800001,"lat":47.81846,"lng":3.78141,"addr":"Route d'Auxerre","city":"Chablis","cp":"89800","fuels":{"Gazole":{"p":2.239,"d":"2026-04-30"},"E10":{"p":2.019,"d":"2026-04-30"},"SP98":{"p":2.129,"d":"2026-04-30"}},"brand":"Intermarché","services":["Station de gonflage","Lavage automatique","Lavage manuel","DAB (Distributeur automatique de billets)"]},{"id":89220001,"lat":47.694,"lng":2.95,"addr":"RUE DES VALLEES","city":"BLéNEAU","cp":"89220","fuels":{"Gazole":{"p":2.289,"d":"2026-04-22"},"E10":{"p":2.099,"d":"2026-04-14"},"SP98":{"p":2.199,"d":"2026-04-14"}},"brand":"Atac","h24":true,"services":["Automate CB 24/24"]},{"id":89200006,"lat":47.4982722302,"lng":3.89684379984,"addr":"Route Nationale 6","city":"AVALLON","cp":"89200","fuels":{"Gazole":{"p":2.29,"d":"2026-04-17"},"SP95":{"p":2.069,"d":"2026-04-17"},"E10":{"p":1.999,"d":"2026-04-17"},"SP98":{"p":2.119,"d":"2026-04-17"}},"brand":"Esso","services":["Toilettes publiques","Boutique alimentaire","Boutique non alimentaire","Vente de fioul domestique","Vente de pétrole lampant","Station de gonflage","Carburant additivé","Piste poids lourds","Lavage automatique","Lavage manuel","DAB (Distributeur automatique de billets)"]},{"id":89700002,"lat":47.873,"lng":3.967,"addr":"route de Paris","city":"TONNERRE","cp":"89700","fuels":{"Gazole":{"p":2.174,"d":"2026-04-30"},"E85":{"p":0.817,"d":"2026-04-30"},"E10":{"p":2.003,"d":"2026-04-30"},"SP98":{"p":2.109,"d":"2026-04-30"}},"brand":"Leclerc","h24":true,"services":["Toilettes publiques","Laverie","Boutique alimentaire","Boutique non alimentaire","Restauration à emporter","Restauration sur place","Bar","Vente de pétrole lampant","Station de gonflage","Carburant additivé","Location de véhicule","Piste poids lourds","Lavage automatique","Lavage manuel","Espace bébé","Services réparation / entretien","Vente de gaz domestique (Butane, Propane)","Bornes électriques","Vente d'additifs carburants","Wifi","Automate CB 24/24","DAB (Distributeur automatique de billets)"]},{"id":89150004,"lat":48.178,"lng":3.11,"addr":"Route de Sens","city":"SAINT-VALERIEN","cp":"89150","fuels":{"Gazole":{"p":2.289,"d":"2026-04-22"},"SP95":{"p":2.099,"d":"2026-04-14"},"SP98":{"p":2.199,"d":"2026-04-14"}},"brand":"Schiever","h24":true,"services":["Automate CB 24/24"]},{"id":89290008,"lat":47.703,"lng":3.628,"addr":"RD 606","city":"Vincelles","cp":"89290","fuels":{"Gazole":{"p":2.399,"d":"2026-04-25"},"E10":{"p":2.099,"d":"2026-04-25"},"SP98":{"p":2.259,"d":"2026-04-25"}},"brand":"Esso","h24":true,"services":["Boutique alimentaire","Boutique non alimentaire","Bar","Station de gonflage","Carburant additivé","Piste poids lourds","Vente de gaz domestique (Butane, Propane)","Automate CB 24/24"]},{"id":89400004,"lat":47.95,"lng":3.469,"addr":"48, route de Sens","city":"Épineau-les-Voves","cp":"89400","fuels":{"Gazole":{"p":2.171,"d":"2026-04-30"},"E85":{"p":0.815,"d":"2026-04-30"},"E10":{"p":1.988,"d":"2026-04-30"},"SP98":{"p":2.051,"d":"2026-04-30"}},"brand":"Leclerc","services":["Toilettes publiques","Douches","Boutique alimentaire","Station de gonflage","Piste poids lourds","DAB (Distributeur automatique de billets)"]},{"id":89210002,"lat":47.99,"lng":3.606,"addr":"Route de Joigny","city":"Brienon-sur-Armançon","cp":"89210","fuels":{"Gazole":{"p":2.25,"d":"2026-04-28"},"E10":{"p":1.99,"d":"2026-04-28"},"SP98":{"p":1.99,"d":"2026-04-28"}},"brand":"TotalEnergies","services":["DAB (Distributeur automatique de billets)"]},{"id":89120001,"lat":47.887,"lng":3.096,"addr":"34 GRANDE RUE","city":"Charny","cp":"89120","fuels":{"Gazole":{"p":2.289,"d":"2026-04-22"},"SP95":{"p":2.099,"d":"2026-04-14"},"SP98":{"p":2.199,"d":"2026-04-14"}},"brand":"bi1","h24":true,"services":["Automate CB 24/24"]},{"id":89132001,"lat":47.974,"lng":3.198,"addr":"AUT A 6","city":"PRECY-SUR-VRIN","cp":"89116","fuels":{"Gazole":{"p":2.339,"d":"2026-05-01"},"E85":{"p":1.055,"d":"2026-05-01"},"GPLc":{"p":1.13,"d":"2026-05-01"},"E10":{"p":2.119,"d":"2026-05-01"},"SP98":{"p":2.199,"d":"2026-05-01"}},"brand":"Avia","h24":true,"services":["Toilettes publiques","Douches","Boutique alimentaire","Boutique non alimentaire","Restauration à emporter","Station de gonflage","Carburant additivé","Piste poids lourds","Espace bébé","Bornes électriques","Wifi","Automate CB 24/24","DAB (Distributeur automatique de billets)"]},{"id":89190007,"lat":48.242996678371,"lng":3.5544017645264,"addr":"Aire de Villeneuve l'Archevêque autoroute A5 Sens PARIS TROYES","city":"Villeneuve-l'Archevêque","cp":"89190","fuels":{"Gazole":{"p":2.243,"d":"2026-04-28"},"GPLc":{"p":1.108,"d":"2026-04-28"},"E10":{"p":2.156,"d":"2026-04-28"},"SP98":{"p":2.249,"d":"2026-04-28"}},"brand":"Shell","h24":true,"services":["Toilettes publiques","Douches","Boutique alimentaire","Boutique non alimentaire","Restauration à emporter","Restauration sur place","Bar","Station de gonflage","Carburant additivé","Aire de camping-cars","Piste poids lourds","Espace bébé","Vente d'additifs carburants","Wifi","Automate CB 24/24"]},{"id":89600004,"lat":47.99973,"lng":3.71494,"addr":"Route d'Avrolles","city":"Saint-Florentin","cp":"89600","fuels":{"Gazole":{"p":2.199,"d":"2026-04-30"},"E85":{"p":0.819,"d":"2026-04-18"},"E10":{"p":1.999,"d":"2026-04-30"},"SP98":{"p":2.099,"d":"2026-04-30"}},"brand":"Intermarché","services":["Lavage manuel","Vente de gaz domestique (Butane, Propane)","DAB (Distributeur automatique de billets)"]},{"id":89000011,"lat":47.797,"lng":3.547,"addr":"97-99 Avenue de Saint-Georges","city":"Auxerre","cp":"89000","fuels":{"Gazole":{"p":2.179,"d":"2026-04-29"},"SP95":{"p":2.059,"d":"2026-04-30"},"SP98":{"p":2.079,"d":"2026-04-24"}},"brand":"Carrefour","h24":true,"services":["Toilettes publiques","Relais colis","Location de véhicule","Vente de gaz domestique (Butane, Propane)","Automate CB 24/24","DAB (Distributeur automatique de billets)"]},{"id":89100002,"lat":48.197,"lng":3.266,"addr":"8 Route de Voulx","city":"SENS","cp":"89100","fuels":{"Gazole":{"p":2.178,"d":"2026-04-28"},"SP95":{"p":2.079,"d":"2026-04-29"},"E10":{"p":2.029,"d":"2026-04-30"}},"brand":"Carrefour","h24":true,"services":["Station de gonflage","Piste poids lourds","Vente de gaz domestique (Butane, Propane)","Automate CB 24/24"]},{"id":89200003,"lat":47.499,"lng":3.908,"addr":"ROUTE DE TONNERRE","city":"AVALLON","cp":"89200","fuels":{"Gazole":{"p":2.289,"d":"2026-04-22"},"SP95":{"p":2.099,"d":"2026-04-14"},"GPLc":{"p":1.199,"d":"2026-04-02"},"E10":{"p":2.079,"d":"2026-04-14"},"SP98":{"p":2.199,"d":"2026-04-14"}},"brand":"Avia Xpress","h24":true,"services":["Automate CB 24/24"]},{"id":89300002,"lat":47.9797,"lng":3.38167,"addr":"Rue des Entrepreneurs","city":"Joigny","cp":"89300","fuels":{"Gazole":{"p":2.201,"d":"2026-04-29"},"E85":{"p":0.818,"d":"2026-04-21"},"E10":{"p":1.981,"d":"2026-04-29"},"SP98":{"p":2.078,"d":"2026-04-27"}},"brand":"Intermarché","services":["Vente de gaz domestique (Butane, Propane)","DAB (Distributeur automatique de billets)"]},{"id":89130002,"lat":47.7217607339,"lng":3.3131277129499996,"addr":"Avenue du Général de Gaulle","city":"TOUCY","cp":"89130","fuels":{"Gazole":{"p":2.169,"d":"2026-04-29"},"E85":{"p":0.818,"d":"2026-04-16"},"E10":{"p":1.999,"d":"2026-04-29"},"SP98":{"p":2.099,"d":"2026-04-14"}},"brand":"Intermarché","services":["Toilettes publiques","Boutique alimentaire","Location de véhicule","Piste poids lourds","Vente de gaz domestique (Butane, Propane)","DAB (Distributeur automatique de billets)"]},{"id":89450002,"lat":47.462,"lng":3.768,"addr":"2 ROUTE DE NANCHEVRE","city":"ST PERE SOUS VEZELAY","cp":"89450","fuels":{"Gazole":{"p":2.199,"d":"2026-04-30"},"SP95":{"p":2.06,"d":"2026-04-30"}},"h24":true,"services":["Automate CB 24/24"]},{"id":89920001,"lat":47.79,"lng":3.673,"addr":"Aire de Venoy Soleil Levant A6","city":"Champs-sur-Yonne","cp":"89290","fuels":{"Gazole":{"p":2.249,"d":"2026-04-30"},"E85":{"p":0.927,"d":"2026-04-30"},"GPLc":{"p":1.089,"d":"2026-04-30"},"E10":{"p":2.07,"d":"2026-04-30"},"SP98":{"p":2.165,"d":"2026-04-30"}},"h24":true,"services":["Toilettes publiques","Douches","Laverie","Boutique alimentaire","Boutique non alimentaire","Restauration à emporter","Restauration sur place","Station de gonflage","Carburant additivé","Piste poids lourds","Espace bébé","Automate CB 24/24"]},{"id":89340003,"lat":48.335,"lng":3.065,"addr":"1 rue Guillaume des Barres","city":"VILLENEUVE-LA-GUYARD","cp":"89340","fuels":{"Gazole":{"p":2.199,"d":"2026-04-30"},"E85":{"p":0.818,"d":"2026-04-22"},"E10":{"p":2.039,"d":"2026-04-30"},"SP98":{"p":2.149,"d":"2026-04-30"}},"brand":"Intermarché","h24":true,"services":["Toilettes publiques","Laverie","Boutique alimentaire","Boutique non alimentaire","Restauration sur place","Vente de pétrole lampant","Station de gonflage","Location de véhicule","Piste poids lourds","Lavage automatique","Lavage manuel","Vente de gaz domestique (Butane, Propane)","Automate CB 24/24","DAB (Distributeur automatique de billets)"]},{"id":89100009,"lat":48.187222861284,"lng":3.3178043719670995,"addr":"RN 60","city":"MALAY-LE-GRAND","cp":"89100","fuels":{"Gazole":{"p":2.169,"d":"2026-04-28"},"E85":{"p":0.819,"d":"2026-04-17"},"E10":{"p":1.979,"d":"2026-04-28"},"SP98":{"p":2.079,"d":"2026-04-28"}},"brand":"Intermarché","services":["Vente de pétrole lampant","Piste poids lourds","DAB (Distributeur automatique de billets)"]},{"id":89144002,"lat":47.895,"lng":3.758,"addr":"13 Avenue de Chablis","city":"Ligny-le-Châtel","cp":"89144","fuels":{"Gazole":{"p":2.248,"d":"2026-04-28"},"E85":{"p":0.879,"d":"2026-04-28"},"E10":{"p":2.027,"d":"2026-04-28"}},"brand":"Carrefour","h24":true,"services":["Boutique alimentaire","Vente de pétrole lampant","Vente de gaz domestique (Butane, Propane)","Bornes électriques","Automate CB 24/24"]},{"id":89000005,"lat":47.804,"lng":3.589,"addr":"2 Avenue Jean Mermoz","city":"AUXERRE","cp":"89000","fuels":{"Gazole":{"p":2.09,"d":"2026-05-01"},"GPLc":{"p":1.07,"d":"2026-05-01"},"E10":{"p":1.99,"d":"2026-05-01"}},"brand":"TotalEnergies","h24":true,"services":["Toilettes publiques","Boutique alimentaire","Boutique non alimentaire","Carburant additivé","Location de véhicule","Piste poids lourds","Lavage automatique","Vente de gaz domestique (Butane, Propane)","Vente d'additifs carburants","Automate CB 24/24"]},{"id":89100004,"lat":48.184,"lng":3.287,"addr":"Route de Lyon","city":"SENS","cp":"89100","fuels":{"Gazole":{"p":2.25,"d":"2026-04-24"},"E10":{"p":1.99,"d":"2026-04-21"},"SP98":{"p":1.99,"d":"2026-04-21"}},"brand":"TotalEnergies","services":["Toilettes publiques","Boutique non alimentaire","Station de gonflage","Carburant additivé","Location de véhicule","Piste poids lourds","Services réparation / entretien"]},{"id":89100017,"lat":48.204847767689,"lng":3.2890251042323,"addr":"17 boulevard de Verdun","city":"SENS","cp":"89100","fuels":{"Gazole":{"p":2.249,"d":"2026-04-29"},"E85":{"p":0.965,"d":"2026-04-29"},"GPLc":{"p":1.059,"d":"2026-04-29"},"E10":{"p":2.029,"d":"2026-04-29"},"SP98":{"p":2.159,"d":"2026-04-29"}},"brand":"Avia","h24":true,"services":["Carburant additivé","Automate CB 24/24"]},{"id":89120003,"lat":47.877,"lng":3.095,"addr":"86 Route de Saint-Martin","city":"Charny-Orée-de-Puisaye","cp":"89120","fuels":{"Gazole":{"p":2.126,"d":"2026-04-28"},"E85":{"p":0.818,"d":"2026-04-24"},"E10":{"p":2.039,"d":"2026-04-28"},"SP98":{"p":2.14,"d":"2026-04-28"}},"brand":"Intermarché","services":["Boutique alimentaire","Station de gonflage","Location de véhicule","Lavage automatique","Lavage manuel","Vente de gaz domestique (Butane, Propane)"]},{"id":89470001,"lat":47.844,"lng":3.551,"addr":"53 Avenue de Paris","city":"MONETEAU","cp":"89470","fuels":{"Gazole":{"p":2.162,"d":"2026-04-30"},"GPLc":{"p":1.082,"d":"2026-04-30"},"E10":{"p":2.003,"d":"2026-04-30"},"SP98":{"p":2.136,"d":"2026-04-30"}},"brand":"Carrefour","services":["Piste poids lourds","Vente de gaz domestique (Butane, Propane)"]},{"id":89300003,"lat":47.977,"lng":3.411,"addr":"31 Avenue Jean Hemery","city":"JOIGNY","cp":"89300","fuels":{"Gazole":{"p":2.09,"d":"2026-05-01"}},"h24":true,"services":["Toilettes publiques","Relais colis","Boutique alimentaire","Boutique non alimentaire","Station de gonflage","Carburant additivé","Piste poids lourds","Lavage automatique","Lavage manuel","Vente de gaz domestique (Butane, Propane)","Automate CB 24/24"]},{"id":89470005,"lat":47.847,"lng":3.58,"addr":"RUE D'AUXERRE","city":"MONETEAU","cp":"89470","fuels":{"Gazole":{"p":2.09,"d":"2026-05-01"},"E85":{"p":0.859,"d":"2026-04-15"},"E10":{"p":1.99,"d":"2026-04-21"},"SP98":{"p":1.99,"d":"2026-05-01"}},"h24":true,"services":["Relais colis","Automate CB 24/24"]},{"id":89440001,"lat":47.591429000000005,"lng":4.002189,"addr":"9 Route de Dissangis","city":"L'ISLE SUR SEREIN","cp":"89440","fuels":{"Gazole":{"p":2.289,"d":"2026-04-25"},"SP95":{"p":2.099,"d":"2026-04-25"},"SP98":{"p":2.199,"d":"2026-04-25"}},"h24":true,"services":["Boutique non alimentaire","Station de gonflage","Lavage automatique","Services réparation / entretien","Automate CB 24/24"]},{"id":89420008,"lat":47.503302875357996,"lng":4.0352394865034,"addr":"AIRE DE LA CHAPONNE AUTOROUTEA6","city":"guillon en terre plaine","cp":"89420","fuels":{"Gazole":{"p":2.243,"d":"2026-04-28"},"E85":{"p":0.982,"d":"2026-04-28"},"GPLc":{"p":1.13,"d":"2026-04-21"},"E10":{"p":2.054,"d":"2026-04-28"},"SP98":{"p":2.129,"d":"2026-04-28"}},"h24":true,"services":["Toilettes publiques","Douches","Laverie","Boutique alimentaire","Boutique non alimentaire","Restauration à emporter","Restauration sur place","Station de gonflage","Piste poids lourds","Espace bébé","Bornes électriques","Vente d'additifs carburants","Wifi","Automate CB 24/24"]}]