[{"id":93380009,"lat":48.9660970452,"lng":2.36413094302,"addr":"42, BOULEVARD JEAN MERMOZ","city":"Pierrefitte-sur-Seine","cp":"93380","fuels":{"Gazole":{"p":2.09,"d":"2026-05-01"},"E85":{"p":0.839,"d":"2026-05-01"},"E10":{"p":1.99,"d":"2026-05-01"},"SP98":{"p":1.99,"d":"2026-05-01"}},"brand":"TotalEnergies","services":["Boutique alimentaire","Boutique non alimentaire","Station de gonflage","Carburant additivé","Vente de gaz domestique (Butane, Propane)","DAB (Distributeur automatique de billets)"]},{"id":93150009,"lat":48.935,"lng":2.473,"addr":"140 AVENUE DE LA REPUBLIQUE","city":"Le Blanc-Mesnil","cp":"93150","fuels":{"Gazole":{"p":2.09,"d":"2026-05-01"},"E85":{"p":0.884,"d":"2026-05-01"},"E10":{"p":1.99,"d":"2026-05-01"},"SP98":{"p":1.99,"d":"2026-05-01"}},"brand":"TotalEnergies","services":["Toilettes publiques","Boutique alimentaire","Carburant additivé","Lavage automatique","Vente de gaz domestique (Butane, Propane)"]},{"id":93160006,"lat":48.845,"lng":2.528,"addr":"4 Boulevard du Maréchal Foch","city":"Noisy-le-Grand","cp":"93160","fuels":{"Gazole":{"p":2.206,"d":"2026-04-29"},"SP95":{"p":2.053,"d":"2026-04-27"},"E10":{"p":1.99,"d":"2026-04-27"},"SP98":{"p":2.099,"d":"2026-04-27"}},"brand":"Intermarché","h24":true,"services":["Toilettes publiques","Boutique alimentaire","Boutique non alimentaire","Restauration à emporter","Station de gonflage","Location de véhicule","Lavage automatique","Automate CB 24/24","DAB (Distributeur automatique de billets)"]},{"id":93160004,"lat":48.843,"lng":2.577,"addr":"2 Rue des Hauts-Châteaux","city":"Noisy-le-Grand","cp":"93160","fuels":{"Gazole":{"p":2.25,"d":"2026-05-01"},"E10":{"p":1.993,"d":"2026-05-01"},"SP98":{"p":2.078,"d":"2026-05-01"}},"brand":"Esso"},{"id":93140003,"lat":48.907,"lng":2.489,"addr":"205 Avenue Gallieni","city":"Bondy","cp":"93140","fuels":{"Gazole":{"p":2.201,"d":"2026-05-01"},"E10":{"p":2.001,"d":"2026-05-01"},"SP98":{"p":2.101,"d":"2026-05-01"}},"brand":"Esso"},{"id":93160005,"lat":48.851,"lng":2.535,"addr":"22 Route de Neuilly","city":"Noisy-le-Grand","cp":"93160","fuels":{"Gazole":{"p":2.205,"d":"2026-05-01"},"E10":{"p":1.993,"d":"2026-05-01"},"SP98":{"p":2.092,"d":"2026-05-01"}},"brand":"Esso"},{"id":93800003,"lat":48.96,"lng":2.304,"addr":"86 Avenue de Lattre de Tassigny","city":"Épinay-sur-Seine","cp":"93800","fuels":{"Gazole":{"p":2.188,"d":"2026-05-01"},"E10":{"p":1.99,"d":"2026-05-01"},"SP98":{"p":2.075,"d":"2026-05-01"}},"brand":"Esso"},{"id":93410002,"lat":48.935,"lng":2.567,"addr":"64 Rue de Meaux","city":"Vaujours","cp":"93410","fuels":{"Gazole":{"p":2.269,"d":"2026-04-30"},"GPLc":{"p":1.249,"d":"2026-04-30"},"E10":{"p":2.099,"d":"2026-04-30"},"SP98":{"p":2.249,"d":"2026-04-30"}},"brand":"Esso","services":["Boutique alimentaire","Boutique non alimentaire","Station de gonflage","Carburant additivé","Lavage automatique","Vente de gaz domestique (Butane, Propane)"]},{"id":93300001,"lat":48.918,"lng":2.379,"addr":"43 Avenue du Président Roosevelt","city":"Aubervilliers","cp":"93300","fuels":{"Gazole":{"p":2.259,"d":"2026-05-01"},"E10":{"p":2.089,"d":"2026-05-01"},"SP98":{"p":2.239,"d":"2026-05-01"}},"brand":"BP","h24":true,"services":["Station de gonflage","Carburant additivé","Automate CB 24/24"]},{"id":93140002,"lat":48.905736767977004,"lng":2.4814502497433,"addr":"108 Avenue Gallieni","city":"Bondy","cp":"93140","fuels":{"Gazole":{"p":2.201,"d":"2026-05-01"},"E10":{"p":1.99,"d":"2026-05-01"},"SP98":{"p":2.088,"d":"2026-05-01"}},"brand":"Esso"},{"id":93290003,"lat":48.9467460327,"lng":2.57048818541,"addr":"AV GILBERT BERGER","city":"TREMBLAY-EN-FRANCE","cp":"93290","fuels":{"Gazole":{"p":2.16,"d":"2026-04-24"},"SP95":{"p":2.037,"d":"2026-04-24"},"E10":{"p":1.99,"d":"2026-04-24"}},"brand":"Carrefour","services":["Carburant additivé","Lavage manuel","DAB (Distributeur automatique de billets)"]},{"id":93210003,"lat":48.912,"lng":2.358,"addr":"207-213 AVENUE DU PDT WILSON","city":"La plaine-saint-denis","cp":"93210","fuels":{"Gazole":{"p":2.09,"d":"2026-05-01"},"E10":{"p":1.99,"d":"2026-05-01"}},"brand":"TotalEnergies","services":["Toilettes publiques","Boutique alimentaire","Boutique non alimentaire","Station de gonflage","Carburant additivé","Lavage automatique","Vente de gaz domestique (Butane, Propane)"]},{"id":93150012,"lat":48.928,"lng":2.474,"addr":"60 - 68 PAUL VAILLANT COUTURIER","city":"Le Blanc-Mesnil","cp":"93150","fuels":{"Gazole":{"p":2.319,"d":"2026-05-01"},"GPLc":{"p":1.169,"d":"2026-05-01"},"E10":{"p":2.149,"d":"2026-05-01"},"SP98":{"p":2.299,"d":"2026-05-01"}},"brand":"BP","services":["Boutique alimentaire","Boutique non alimentaire","Station de gonflage","Carburant additivé","Lavage automatique","Vente de gaz domestique (Butane, Propane)"]},{"id":93110005,"lat":48.878,"lng":2.482,"addr":"12/14 BD.GABRIEL PERI - TOTAL","city":"Rosny-sous-Bois","cp":"93110","fuels":{"Gazole":{"p":2.09,"d":"2026-05-01"},"E85":{"p":0.929,"d":"2026-05-01"},"GPLc":{"p":1.149,"d":"2026-05-01"},"E10":{"p":1.99,"d":"2026-05-01"},"SP98":{"p":1.99,"d":"2026-05-01"}},"brand":"TotalEnergies","services":["Boutique alimentaire","Boutique non alimentaire","Restauration à emporter","Station de gonflage","Carburant additivé","Lavage automatique","Vente de gaz domestique (Butane, Propane)","Vente d'additifs carburants","Wifi"]},{"id":93290005,"lat":48.984,"lng":2.55,"addr":"DEVIATION CD 88 - 1 ROUTE DE ROI","city":"Tremblay-en-France","cp":"93290","fuels":{"Gazole":{"p":2.09,"d":"2026-05-01"},"E10":{"p":1.908,"d":"2026-04-18"},"SP98":{"p":1.99,"d":"2026-05-01"}},"brand":"TotalEnergies","services":["Boutique alimentaire","Station de gonflage","Carburant additivé","Lavage automatique","Lavage manuel","Vente de gaz domestique (Butane, Propane)"]},{"id":93360002,"lat":48.862,"lng":2.51,"addr":"3 CHEMIN DE MEAUX","city":"Neuilly-Plaisance","cp":"93360","fuels":{"Gazole":{"p":2.25,"d":"2026-04-08"},"SP98":{"p":1.99,"d":"2026-04-23"}},"brand":"Elan","services":["Services réparation / entretien"]},{"id":93190006,"lat":48.912,"lng":2.519,"addr":"69, AVENUE ARISTIDE BRIAND","city":"LIVRY GARGAN","cp":"93190","fuels":{"Gazole":{"p":2.239,"d":"2026-05-01"},"GPLc":{"p":1.169,"d":"2026-05-01"},"E10":{"p":2.079,"d":"2026-05-01"},"SP98":{"p":2.229,"d":"2026-05-01"}},"brand":"BP","services":["Boutique alimentaire","Boutique non alimentaire","Station de gonflage","Carburant additivé","Piste poids lourds","Lavage automatique","Lavage manuel","Vente de gaz domestique (Butane, Propane)"]},{"id":93300003,"lat":48.919,"lng":2.394,"addr":"100 RUE CHARLES TILLON","city":"AUBERVILLIERS","cp":"93300","fuels":{"Gazole":{"p":2.309,"d":"2026-04-30"},"E10":{"p":2.139,"d":"2026-04-30"},"SP98":{"p":2.339,"d":"2026-04-30"}},"brand":"Esso","services":["Boutique alimentaire","Boutique non alimentaire","Station de gonflage","Carburant additivé","Lavage automatique","Vente de gaz domestique (Butane, Propane)"]},{"id":93140004,"lat":48.907,"lng":2.485,"addr":"175 AV MAL GALLIENI","city":"BONDY","cp":"93140","fuels":{"Gazole":{"p":2.249,"d":"2026-05-01"},"E10":{"p":2.089,"d":"2026-05-01"},"SP98":{"p":2.239,"d":"2026-05-01"}},"brand":"BP","h24":true,"services":["Boutique alimentaire","Boutique non alimentaire","Station de gonflage","Carburant additivé","Vente de gaz domestique (Butane, Propane)","Automate CB 24/24"]},{"id":93800005,"lat":48.954,"lng":2.335,"addr":"159 Route de Saint-Leu","city":"EPINAY SUR SEINE","cp":"93800","fuels":{"Gazole":{"p":2.175,"d":"2026-04-30"},"E85":{"p":0.719,"d":"2026-04-30"},"E10":{"p":1.987,"d":"2026-04-30"},"SP98":{"p":2.032,"d":"2026-04-30"}},"brand":"Leclerc","services":["Vente de gaz domestique (Butane, Propane)","DAB (Distributeur automatique de billets)"]},{"id":93600016,"lat":48.953,"lng":2.497,"addr":"BLD MARC CHAGALL","city":"Aulnay-sous-Bois","cp":"93600","fuels":{"Gazole":{"p":2.09,"d":"2026-05-01"},"E10":{"p":1.99,"d":"2026-05-01"}},"brand":"TotalEnergies","services":["Boutique alimentaire","Boutique non alimentaire","Station de gonflage","Carburant additivé","Lavage automatique","Vente de gaz domestique (Butane, Propane)"]},{"id":93120004,"lat":48.934,"lng":2.39,"addr":"AUTOROUTE A1 - AIRE DE LA COURNEUVE EST","city":"LA COURNEUVE","cp":"93120","fuels":{"Gazole":{"p":2.09,"d":"2026-05-01"},"E85":{"p":0.969,"d":"2026-05-01"},"GPLc":{"p":1.089,"d":"2026-05-01"}},"brand":"TotalEnergies","h24":true,"services":["Douches","Boutique alimentaire","Restauration sur place","Station de gonflage","Carburant additivé","Bornes électriques","Wifi","Automate CB 24/24","DAB (Distributeur automatique de billets)"]},{"id":93200008,"lat":48.935,"lng":2.368,"addr":"112 AV P. VAILLANT COUTURIER","city":"Saint-Denis","cp":"93200","fuels":{"E85":{"p":1.119,"d":"2026-05-01"},"E10":{"p":2.199,"d":"2026-05-01"},"SP98":{"p":2.369,"d":"2026-05-01"}},"brand":"BP","h24":true,"services":["Boutique alimentaire","Boutique non alimentaire","Station de gonflage","Carburant additivé","Lavage automatique","Vente de gaz domestique (Butane, Propane)","Automate CB 24/24"]},{"id":93420004,"lat":48.975,"lng":2.496,"addr":"Rue des Buttes","city":"Villepinte","cp":"93420","fuels":{"Gazole":{"p":2.199,"d":"2026-05-01"},"E10":{"p":2.039,"d":"2026-05-01"},"SP98":{"p":2.209,"d":"2026-05-01"}},"brand":"BP","h24":true,"services":["Station de gonflage","Carburant additivé","Automate CB 24/24"]},{"id":93270006,"lat":48.939,"lng":2.527,"addr":"29 Avenue du Général Leclerc","city":"SEVRAN","cp":"93270","fuels":{"Gazole":{"p":2.349,"d":"2026-05-01"},"E10":{"p":2.189,"d":"2026-05-01"},"SP98":{"p":2.339,"d":"2026-05-01"}},"brand":"BP","services":["Boutique alimentaire","Boutique non alimentaire","Station de gonflage","Carburant additivé","Vente de gaz domestique (Butane, Propane)"]},{"id":93800006,"lat":48.949,"lng":2.343,"addr":"53 ROUTE DE SAINT LEU","city":"Épinay-sur-Seine","cp":"93800","fuels":{"Gazole":{"p":2.09,"d":"2026-05-01"},"E85":{"p":0.854,"d":"2026-05-01"},"GPLc":{"p":1.099,"d":"2026-05-01"},"E10":{"p":1.99,"d":"2026-05-01"}},"brand":"TotalEnergies","services":["Boutique alimentaire","Boutique non alimentaire","Restauration à emporter","Station de gonflage","Carburant additivé","Piste poids lourds","Lavage automatique","Lavage manuel","Vente de gaz domestique (Butane, Propane)"]},{"id":93290006,"lat":48.964,"lng":2.564,"addr":"62-68 ROUTE DES PETITS PONTS","city":"Tremblay-en-France","cp":"93290","fuels":{"Gazole":{"p":2.09,"d":"2026-05-01"},"E85":{"p":0.879,"d":"2026-05-01"},"E10":{"p":1.99,"d":"2026-05-01"},"SP98":{"p":1.99,"d":"2026-05-01"}},"brand":"TotalEnergies","services":["Boutique alimentaire","Station de gonflage","Lavage automatique","Vente de gaz domestique (Butane, Propane)","Bornes électriques","Vente d'additifs carburants"]},{"id":93000011,"lat":48.906,"lng":2.445,"addr":"19 AV JEAN JAURES","city":"BOBIGNY","cp":"93000","fuels":{"Gazole":{"p":2.259,"d":"2026-05-01"},"E85":{"p":1.109,"d":"2026-05-01"},"E10":{"p":2.059,"d":"2026-05-01"},"SP98":{"p":2.209,"d":"2026-05-01"}},"brand":"BP","h24":true,"services":["Toilettes publiques","Boutique alimentaire","Boutique non alimentaire","Station de gonflage","Carburant additivé","Lavage automatique","Vente de gaz domestique (Butane, Propane)","Automate CB 24/24"]},{"id":93130011,"lat":48.888,"lng":2.46,"addr":"107 RUE DE BREMENT","city":"Noisy-le-Sec","cp":"93130","fuels":{"Gazole":{"p":2.269,"d":"2026-05-01"},"E85":{"p":1.109,"d":"2026-05-01"},"E10":{"p":2.109,"d":"2026-05-01"},"SP98":{"p":2.259,"d":"2026-05-01"}},"brand":"BP","services":["Toilettes publiques","Boutique alimentaire","Boutique non alimentaire","Station de gonflage","Carburant additivé","Lavage automatique","Vente de gaz domestique (Butane, Propane)"]},{"id":93190004,"lat":48.914,"lng":2.526,"addr":"137 Avenue Aristide Briand","city":"LIVRY-GARGAN","cp":"93190","fuels":{"Gazole":{"p":2.249,"d":"2026-05-01"},"E85":{"p":1.099,"d":"2026-05-01"},"E10":{"p":2.089,"d":"2026-05-01"},"SP98":{"p":2.259,"d":"2026-05-01"}},"brand":"BP","services":["Boutique alimentaire","Boutique non alimentaire","Restauration à emporter","Station de gonflage","Carburant additivé","Lavage automatique","Services réparation / entretien","Vente de gaz domestique (Butane, Propane)"]},{"id":93130007,"lat":48.88,"lng":2.457,"addr":"Rue de la Chasse","city":"Noisy-le-Sec","cp":"93130","fuels":{"Gazole":{"p":2.299,"d":"2026-05-01"},"SP95":{"p":1.849,"d":"2025-07-28"},"GPLc":{"p":1.349,"d":"2026-05-01"},"E10":{"p":2.129,"d":"2026-05-01"},"SP98":{"p":2.279,"d":"2026-05-01"}},"brand":"BP","h24":true,"services":["Toilettes publiques","Boutique alimentaire","Boutique non alimentaire","Station de gonflage","Carburant additivé","Piste poids lourds","Lavage automatique","Automate CB 24/24"]},{"id":93600018,"lat":48.953,"lng":2.486,"addr":"RUE MICHEL ANGE ROUTE N 370","city":"AULNAY SOUS BOIS","cp":"93600","fuels":{"Gazole":{"p":2.269,"d":"2026-05-01"},"GPLc":{"p":1.169,"d":"2026-05-01"},"E10":{"p":2.099,"d":"2026-05-01"},"SP98":{"p":2.299,"d":"2026-05-01"}},"brand":"BP","services":["Boutique alimentaire","Boutique non alimentaire","Station de gonflage","Carburant additivé","Lavage automatique","Vente de gaz domestique (Butane, Propane)"]},{"id":93270008,"lat":48.936,"lng":2.515,"addr":"50 avenue john fitzgerald kennedy","city":"SEVRAN","cp":"93270","fuels":{"Gazole":{"p":2.299,"d":"2026-04-27"},"SP95":{"p":2.149,"d":"2026-04-27"},"E10":{"p":2.149,"d":"2026-04-27"},"SP98":{"p":2.279,"d":"2026-04-27"}},"brand":"Esso","h24":true,"services":["Relais colis","Boutique alimentaire","Station de gonflage","Lavage automatique","Lavage manuel","Services réparation / entretien","Vente de gaz domestique (Butane, Propane)","Vente d'additifs carburants","Automate CB 24/24"]},{"id":93390001,"lat":48.907,"lng":2.532,"addr":"12 Allée de la Fosse-Maussoin","city":"CLICHY-SOUS-BOIS","cp":"93390","fuels":{"Gazole":{"p":2.156,"d":"2026-04-30"},"SP95":{"p":2.047,"d":"2026-04-30"},"E10":{"p":1.988,"d":"2026-04-30"},"SP98":{"p":2.064,"d":"2026-04-30"}},"brand":"Leclerc","h24":true,"services":["Toilettes publiques","Relais colis","Boutique alimentaire","Boutique non alimentaire","Restauration sur place","Location de véhicule","Lavage automatique","Vente de gaz domestique (Butane, Propane)","Automate CB 24/24","DAB (Distributeur automatique de billets)"]},{"id":93420008,"lat":48.957,"lng":2.56,"addr":"AVENUE G CLEMENCEAU CD 40","city":"VILLEPINTE","cp":"93420","fuels":{"Gazole":{"p":2.229,"d":"2026-05-01"},"GPLc":{"p":1.179,"d":"2026-05-01"},"E10":{"p":2.069,"d":"2026-05-01"},"SP98":{"p":2.219,"d":"2026-05-01"}},"brand":"Esso","h24":true,"services":["Boutique alimentaire","Boutique non alimentaire","Station de gonflage","Carburant additivé","Lavage automatique","Vente de gaz domestique (Butane, Propane)","Automate CB 24/24"]},{"id":93160008,"lat":48.838125330120995,"lng":2.547563329687,"addr":"Rue du Centre Centre Reg Mont D'Est","city":"Noisy-le-Grand","cp":"93160","fuels":{"Gazole":{"p":2.09,"d":"2026-05-01"},"E85":{"p":0.884,"d":"2026-05-01"},"E10":{"p":1.99,"d":"2026-05-01"}},"brand":"TotalEnergies","services":["Toilettes publiques","Boutique alimentaire","Boutique non alimentaire","Station de gonflage","Carburant additivé","Location de véhicule","Lavage automatique","Lavage manuel","Vente de gaz domestique (Butane, Propane)"]},{"id":93320002,"lat":48.91,"lng":2.51,"addr":"262 AVENUE ARISTIDE BRIAND","city":"Les Pavillons-sous-Bois","cp":"93320","fuels":{"Gazole":{"p":2.09,"d":"2026-05-01"},"E85":{"p":0.879,"d":"2026-05-01"},"E10":{"p":1.99,"d":"2026-05-01"}},"brand":"TotalEnergies","services":["Boutique alimentaire","Boutique non alimentaire","Lavage automatique","Lavage manuel","Vente de gaz domestique (Butane, Propane)"]},{"id":93170002,"lat":48.86205,"lng":2.4165,"addr":"44-48 AVENUE DE LA REPUBLIQUE","city":"BAGNOLET","cp":"93170","fuels":{"Gazole":{"p":2.09,"d":"2026-05-01"},"E10":{"p":1.99,"d":"2026-05-01"},"SP98":{"p":1.99,"d":"2026-05-01"}},"brand":"TotalEnergies","services":["Boutique alimentaire","Station de gonflage","Carburant additivé","Lavage automatique","Vente de gaz domestique (Butane, Propane)","DAB (Distributeur automatique de billets)"]},{"id":93350003,"lat":48.942,"lng":2.432,"addr":"7/9 AV DU 8 MAI 1945","city":"LE BOURGET","cp":"93350","fuels":{"Gazole":{"p":2.09,"d":"2026-05-01"},"E85":{"p":0.899,"d":"2026-05-01"},"E10":{"p":1.99,"d":"2026-05-01"},"SP98":{"p":1.99,"d":"2026-05-01"}},"brand":"TotalEnergies","services":["Boutique alimentaire","Station de gonflage","Carburant additivé","Lavage automatique","Lavage manuel","Vente de gaz domestique (Butane, Propane)","DAB (Distributeur automatique de billets)"]},{"id":93380010,"lat":48.973,"lng":2.366,"addr":"185 BD JEAN MERMOZ","city":"Pierrefitte-sur-Seine","cp":"93380","fuels":{"Gazole":{"p":2.09,"d":"2026-05-01"},"E85":{"p":0.839,"d":"2026-05-01"},"GPLc":{"p":1.069,"d":"2026-05-01"},"E10":{"p":1.99,"d":"2026-05-01"}},"brand":"TotalEnergies","services":["Boutique alimentaire","Restauration à emporter","Station de gonflage","Carburant additivé","Piste poids lourds","Lavage automatique","Vente de gaz domestique (Butane, Propane)","DAB (Distributeur automatique de billets)"]},{"id":93400010,"lat":48.908,"lng":2.344,"addr":"56-74 AVENUE MICHELET","city":"Saint-Ouen","cp":"93400","fuels":{"Gazole":{"p":2.09,"d":"2026-05-01"},"E10":{"p":1.99,"d":"2026-05-01"},"SP98":{"p":1.99,"d":"2026-05-01"}},"brand":"TotalEnergies","services":["Boutique alimentaire","Boutique non alimentaire","Station de gonflage","Carburant additivé","Lavage automatique","Vente de gaz domestique (Butane, Propane)"]},{"id":93100015,"lat":48.857,"lng":2.43,"addr":"86 RUE DE PARIS","city":"MONTREUIL","cp":"93100","fuels":{"Gazole":{"p":2.09,"d":"2026-05-01"},"E85":{"p":0.929,"d":"2026-05-01"},"E10":{"p":1.99,"d":"2026-05-01"},"SP98":{"p":1.99,"d":"2026-05-01"}},"services":["Boutique alimentaire","Boutique non alimentaire","Station de gonflage","Carburant additivé","Lavage automatique","Lavage manuel","Services réparation / entretien","Vente de gaz domestique (Butane, Propane)","Wifi","DAB (Distributeur automatique de billets)"]},{"id":93160001,"lat":48.83,"lng":2.561,"addr":"33 Avenue Médéric","city":"Noisy-le-Grand","cp":"93160","fuels":{"Gazole":{"p":2.25,"d":"2026-04-23"},"E10":{"p":1.99,"d":"2026-04-20"},"SP98":{"p":1.99,"d":"2026-04-20"}},"brand":"TotalEnergies","services":["Piste poids lourds","Lavage automatique","Services réparation / entretien"]},{"id":93000010,"lat":48.914,"lng":2.441,"addr":"54 AVENUE LOUIS ARAGON","city":"BOBIGNY","cp":"93000","fuels":{"Gazole":{"p":2.09,"d":"2026-05-01"},"E10":{"p":1.99,"d":"2026-05-01"},"SP98":{"p":1.99,"d":"2026-05-01"}},"brand":"TotalEnergies","h24":true,"services":["Boutique alimentaire","Boutique non alimentaire","Restauration à emporter","Station de gonflage","Carburant additivé","Lavage automatique","Vente de gaz domestique (Butane, Propane)","Vente d'additifs carburants","Wifi","Automate CB 24/24"]},{"id":93250009,"lat":48.885,"lng":2.505,"addr":"32 AV DE ROSNY","city":"VILLEMOMBLE","cp":"93250","fuels":{"Gazole":{"p":2.289,"d":"2026-05-01"},"E85":{"p":1.129,"d":"2026-05-01"},"GPLc":{"p":1.179,"d":"2026-05-01"},"E10":{"p":2.119,"d":"2026-05-01"},"SP98":{"p":2.289,"d":"2026-05-01"}},"brand":"BP","services":["Toilettes publiques","Boutique alimentaire","Boutique non alimentaire","Station de gonflage","Carburant additivé","Lavage automatique","Vente de gaz domestique (Butane, Propane)"]},{"id":93300010,"lat":48.912,"lng":2.38,"addr":"126 Avenue Victor Hugo","city":"Aubervilliers","cp":"93300","fuels":{"Gazole":{"p":2.299,"d":"2026-05-01"},"E10":{"p":2.129,"d":"2026-05-01"},"SP98":{"p":2.329,"d":"2026-05-01"}},"brand":"Esso","services":["Relais colis","Boutique alimentaire","Boutique non alimentaire","Station de gonflage","Carburant additivé","Piste poids lourds","Vente de gaz domestique (Butane, Propane)"]},{"id":93330005,"lat":48.85427,"lng":2.52019,"addr":"9 TER BD MARECHAL FOCH","city":"Neuilly-sur-Marne","cp":"93330","fuels":{"Gazole":{"p":2.09,"d":"2026-05-01"},"E85":{"p":0.909,"d":"2026-05-01"},"E10":{"p":1.99,"d":"2026-05-01"}},"brand":"TotalEnergies"},{"id":93330004,"lat":48.865836168664,"lng":2.56269534165,"addr":"AVENUE JEAN JAURES","city":"Neuilly-sur-Marne","cp":"93330","fuels":{"Gazole":{"p":2.197,"d":"2026-04-30"},"SP95":{"p":2.087,"d":"2026-04-30"},"E10":{"p":2.025,"d":"2026-04-30"},"SP98":{"p":2.169,"d":"2026-04-30"}},"brand":"Système U","h24":true,"services":["Station de gonflage","Automate CB 24/24","DAB (Distributeur automatique de billets)"]},{"id":93420007,"lat":48.953965389285,"lng":2.533686306402,"addr":"BD ROBERT BALLANGER D115","city":"VILLEPINTE","cp":"93420","fuels":{"Gazole":{"p":2.09,"d":"2026-05-01"},"GPLc":{"p":1.069,"d":"2026-05-01"},"E10":{"p":1.99,"d":"2026-05-01"},"SP98":{"p":1.99,"d":"2026-05-01"}},"brand":"TotalEnergies","services":["Boutique alimentaire","Boutique non alimentaire","Station de gonflage","Carburant additivé","Lavage automatique","Lavage manuel","Vente de gaz domestique (Butane, Propane)","DAB (Distributeur automatique de billets)"]},{"id":93700004,"lat":48.91625,"lng":2.44355,"addr":"35-39 AVENUE HENRI BARBUSSE","city":"DRANCY","cp":"93700","fuels":{"E85":{"p":0.909,"d":"2026-05-01"}},"brand":"TotalEnergies"},{"id":93300009,"lat":48.909,"lng":2.386,"addr":"62-64 AVENUE DE LA REPUBLIQUE","city":"AUBERVILLIERS","cp":"93300","fuels":{"Gazole":{"p":2.09,"d":"2026-05-01"},"E85":{"p":0.904,"d":"2026-05-01"},"E10":{"p":1.99,"d":"2026-05-01"},"SP98":{"p":1.99,"d":"2026-05-01"}},"brand":"TotalEnergies","services":["Boutique alimentaire","Boutique non alimentaire","Lavage automatique","Vente de gaz domestique (Butane, Propane)"]},{"id":93100017,"lat":48.863,"lng":2.464,"addr":"151, RUE NOUVELLE France","city":"MONTREUIL","cp":"93100","fuels":{"Gazole":{"p":2.239,"d":"2026-05-01"},"E10":{"p":2.069,"d":"2026-05-01"},"SP98":{"p":2.219,"d":"2026-05-01"}},"brand":"BP","services":["Boutique alimentaire","Boutique non alimentaire","Station de gonflage","Carburant additivé","Piste poids lourds","Lavage automatique","Vente de gaz domestique (Butane, Propane)"]},{"id":93240007,"lat":48.9487499536,"lng":2.3798807028,"addr":"21 AV.DE STALINGRAD - COURS ST L","city":"STAINS","cp":"93240","fuels":{"Gazole":{"p":2.09,"d":"2026-05-01"},"E10":{"p":1.99,"d":"2026-05-01"},"SP98":{"p":1.99,"d":"2026-05-01"}},"brand":"TotalEnergies","services":["Toilettes publiques","Boutique alimentaire","Station de gonflage","Carburant additivé","Lavage automatique","Services réparation / entretien","Vente de gaz domestique (Butane, Propane)"]},{"id":93270001,"lat":48.951,"lng":2.528,"addr":"ROUTE DES PETITS PONTS","city":"Sevran","cp":"93270","fuels":{"Gazole":{"p":2.19,"d":"2026-04-30"},"SP95":{"p":2.069,"d":"2026-04-30"},"E10":{"p":1.989,"d":"2026-04-30"},"SP98":{"p":2.065,"d":"2026-04-30"}},"brand":"Carrefour","h24":true,"services":["Carburant additivé","Automate CB 24/24","DAB (Distributeur automatique de billets)"]},{"id":93300008,"lat":48.91,"lng":2.38,"addr":"55 Rue de la Commune de Paris","city":"AUBERVILLIERS","cp":"93300","fuels":{"Gazole":{"p":2.222,"d":"2026-04-30"},"SP95":{"p":2.109,"d":"2026-04-30"},"E10":{"p":2.05,"d":"2026-04-30"},"SP98":{"p":2.201,"d":"2026-04-30"}},"brand":"Auchan"},{"id":93700003,"lat":48.918,"lng":2.418,"addr":"80, rue Saint Stenay","city":"DRANCY","cp":"93700","fuels":{"Gazole":{"p":2.212,"d":"2026-04-30"},"SP95":{"p":2.099,"d":"2026-04-30"},"E85":{"p":0.861,"d":"2026-04-30"},"GPLc":{"p":0.999,"d":"2026-04-24"},"E10":{"p":2.04,"d":"2026-04-30"},"SP98":{"p":2.191,"d":"2026-04-30"}},"brand":"Carrefour","services":["DAB (Distributeur automatique de billets)"]},{"id":93190002,"lat":48.9055105953,"lng":2.52200168155,"addr":"70 Boulevard Marx Dormoy","city":"LIVRY-GARGAN","cp":"93190","fuels":{"Gazole":{"p":2.239,"d":"2026-04-29"},"SP95":{"p":2.089,"d":"2026-04-10"},"E10":{"p":2.039,"d":"2026-04-09"}},"brand":"Carrefour","services":["Vente de gaz domestique (Butane, Propane)","DAB (Distributeur automatique de billets)"]},{"id":93130009,"lat":48.888,"lng":2.455,"addr":"20-30 RUE JULES AUFFRET","city":"Noisy-le-Sec","cp":"93130","fuels":{"Gazole":{"p":2.09,"d":"2026-05-01"},"E10":{"p":1.99,"d":"2026-05-01"},"SP98":{"p":1.99,"d":"2026-05-01"}},"brand":"TotalEnergies","h24":true,"services":["Boutique alimentaire","Boutique non alimentaire","Restauration à emporter","Station de gonflage","Carburant additivé","Lavage automatique","Vente de gaz domestique (Butane, Propane)","Vente d'additifs carburants","Wifi","Automate CB 24/24"]},{"id":93150011,"lat":48.940912442423006,"lng":2.4458337339048,"addr":"192 Avenue Charles Floquet","city":"Le Blanc-Mesnil","cp":"93150","fuels":{"Gazole":{"p":2.229,"d":"2026-04-29"},"SP95":{"p":2.077,"d":"2026-04-29"},"E10":{"p":2.028,"d":"2026-04-29"},"SP98":{"p":2.088,"d":"2026-04-29"}},"brand":"Leclerc","h24":true,"services":["Restauration sur place","Station de gonflage","Lavage automatique","Lavage manuel","Vente de gaz domestique (Butane, Propane)","Automate CB 24/24","DAB (Distributeur automatique de billets)"]},{"id":93420001,"lat":48.955,"lng":2.537,"addr":"Boulevard Robert Ballanger","city":"VILLEPINTE","cp":"93420","fuels":{"Gazole":{"p":2.19,"d":"2026-04-28"},"E85":{"p":0.879,"d":"2026-04-28"},"E10":{"p":1.989,"d":"2026-04-28"},"SP98":{"p":2.046,"d":"2026-04-28"}},"brand":"Auchan","services":["Toilettes publiques","Boutique alimentaire","Boutique non alimentaire","Vente de pétrole lampant","Piste poids lourds","Espace bébé","Vente de gaz domestique (Butane, Propane)","DAB (Distributeur automatique de billets)"]},{"id":93600006,"lat":48.93022,"lng":2.51132,"addr":"Rue Isaac Newton","city":"AULNAY-SOUS-BOIS","cp":"93600","fuels":{"Gazole":{"p":2.199,"d":"2026-04-25"},"E85":{"p":0.818,"d":"2026-04-16"},"E10":{"p":1.999,"d":"2026-04-14"},"SP98":{"p":2.099,"d":"2026-04-14"}},"brand":"Intermarché","services":["Vente de gaz domestique (Butane, Propane)","DAB (Distributeur automatique de billets)"]},{"id":93190001,"lat":48.929,"lng":2.555,"addr":"2 allée de l est","city":"LIVRY-GARGAN","cp":"93190","fuels":{"Gazole":{"p":2.157,"d":"2026-04-30"},"SP95":{"p":1.939,"d":"2026-04-27"},"E85":{"p":0.818,"d":"2026-04-30"},"GPLc":{"p":1.069,"d":"2026-04-30"},"E10":{"p":1.989,"d":"2026-04-30"},"SP98":{"p":2.108,"d":"2026-04-30"}},"brand":"Carrefour","h24":true,"services":["Automate CB 24/24"]},{"id":93190007,"lat":48.928,"lng":2.549,"addr":"41/45 BOULEVARD ROBERT SCHUMAN","city":"Livry-Gargan","cp":"93190","fuels":{"Gazole":{"p":2.169,"d":"2026-04-23"},"E85":{"p":0.818,"d":"2026-04-16"},"E10":{"p":1.989,"d":"2026-04-23"},"SP98":{"p":2.089,"d":"2026-04-27"}},"brand":"Netto","h24":true,"services":["Laverie","Station de gonflage","Automate CB 24/24"]},{"id":93160009,"lat":48.829,"lng":2.569,"addr":"104/106 AV MEDERIC","city":"Noisy-le-Grand","cp":"93160","fuels":{"Gazole":{"p":2.09,"d":"2026-05-01"},"E85":{"p":0.884,"d":"2026-05-01"},"E10":{"p":1.99,"d":"2026-05-01"}},"brand":"TotalEnergies","services":["Relais colis","Boutique alimentaire","Boutique non alimentaire","Station de gonflage","Carburant additivé","Piste poids lourds","Lavage automatique","Vente d'additifs carburants","Wifi"]},{"id":93606001,"lat":48.955,"lng":2.476,"addr":"ZONE DE PARINOR SECTEUR N°2","city":"AULNAY-SOUS-BOIS","cp":"93600","fuels":{"Gazole":{"p":2.225,"d":"2026-04-30"},"SP95":{"p":2.092,"d":"2026-04-30"},"E85":{"p":0.858,"d":"2026-04-30"},"GPLc":{"p":1.032,"d":"2026-04-25"},"E10":{"p":2.042,"d":"2026-04-30"},"SP98":{"p":2.177,"d":"2026-04-30"}},"brand":"Carrefour","services":["Piste poids lourds"]},{"id":93150008,"lat":48.948,"lng":2.467,"addr":"1 Avenue Armand Esders","city":"LE BLANC-MESNIL","cp":"93150","fuels":{"Gazole":{"p":2.229,"d":"2026-04-29"},"SP95":{"p":2.077,"d":"2026-04-29"},"E10":{"p":2.028,"d":"2026-04-29"},"SP98":{"p":2.088,"d":"2026-04-29"}},"brand":"Leclerc","h24":true,"services":["Restauration à emporter","Station de gonflage","Lavage automatique","Lavage manuel","Automate CB 24/24"]},{"id":93240001,"lat":48.949,"lng":2.385,"addr":"80 BOULEVARD MAXIME GORKI","city":"STAINS","cp":"93240","fuels":{"Gazole":{"p":2.25,"d":"2026-04-30"},"SP95":{"p":2.043,"d":"2026-04-30"},"E85":{"p":0.839,"d":"2026-04-30"},"E10":{"p":1.99,"d":"2026-04-30"},"SP98":{"p":2.113,"d":"2026-04-30"}},"brand":"Carrefour","services":["Relais colis","Restauration à emporter","Vente de gaz domestique (Butane, Propane)","DAB (Distributeur automatique de billets)"]},{"id":93150007,"lat":48.948,"lng":2.438,"addr":"2 AV DU 8 MAI 1945","city":"Le Blanc-Mesnil","cp":"93150","fuels":{"Gazole":{"p":2.205,"d":"2026-05-01"},"E85":{"p":0.948,"d":"2026-05-01"},"E10":{"p":1.99,"d":"2026-05-01"},"SP98":{"p":2.077,"d":"2026-05-01"}},"brand":"Esso"},{"id":93100011,"lat":48.869,"lng":2.448,"addr":"16 Boulevard Aristide Briand","city":"Montreuil","cp":"93100","fuels":{"Gazole":{"p":2.239,"d":"2026-05-01"},"E10":{"p":2.069,"d":"2026-05-01"},"SP98":{"p":2.219,"d":"2026-05-01"}},"brand":"Esso","services":["Toilettes publiques","Boutique alimentaire","Boutique non alimentaire","Station de gonflage","Carburant additivé","Lavage automatique","Vente de gaz domestique (Butane, Propane)"]},{"id":93240009,"lat":48.959,"lng":2.398,"addr":"201-203 avenue de Stalingrad, 93240 Stains","city":"Stains","cp":"93240","fuels":{"Gazole":{"p":2.259,"d":"2026-04-30"},"E10":{"p":2.089,"d":"2026-04-30"},"SP98":{"p":2.219,"d":"2026-04-30"}},"brand":"BP","services":["Toilettes publiques","Boutique alimentaire","Station de gonflage","Piste poids lourds"]},{"id":93120005,"lat":48.935,"lng":2.394,"addr":"AUTOROUTE A1 - AIRE DE LA COURNEUVE OUEST - SENS LILLE/PARIS","city":"LA COURNEUVE","cp":"93120","fuels":{"Gazole":{"p":2.09,"d":"2026-05-01"},"E85":{"p":0.959,"d":"2026-05-01"},"E10":{"p":1.99,"d":"2026-05-01"},"SP98":{"p":1.99,"d":"2026-05-01"}},"brand":"TotalEnergies","h24":true,"services":["Toilettes publiques","Douches","Boutique alimentaire","Boutique non alimentaire","Restauration à emporter","Restauration sur place","Carburant additivé","Piste poids lourds","Lavage automatique","Lavage manuel","Espace bébé","Bornes électriques","Automate CB 24/24"]},{"id":93330006,"lat":48.855,"lng":2.525,"addr":"29-33 BLD DU MARECHAL FOCH","city":"Neuilly-sur-Marne","cp":"93330","fuels":{"Gazole":{"p":2.09,"d":"2026-05-01"},"E10":{"p":1.99,"d":"2026-05-01"}},"brand":"TotalEnergies","services":["Relais colis","Boutique alimentaire","Lavage automatique","Vente de gaz domestique (Butane, Propane)","Bornes électriques"]},{"id":93600019,"lat":48.94482,"lng":2.49526,"addr":"32, RUE JACQUES DUCLOS","city":"Aulnay-sous-Bois","cp":"93600","fuels":{"Gazole":{"p":2.279,"d":"2026-05-01"},"E10":{"p":2.119,"d":"2026-05-01"},"SP98":{"p":2.209,"d":"2026-05-01"}},"h24":true,"services":["Automate CB 24/24"]},{"id":93230005,"lat":48.884,"lng":2.43,"addr":"22 AVENUE LENINE","city":"ROMAINVILLE","cp":"93230","fuels":{"Gazole":{"p":2.09,"d":"2026-05-01"}},"brand":"TotalEnergies","services":["Boutique alimentaire","Boutique non alimentaire","Station de gonflage","Lavage automatique"]},{"id":93600020,"lat":48.924,"lng":2.486,"addr":"110 BD DE STRASBOURG","city":"Aulnay-sous-Bois","cp":"93600","fuels":{"Gazole":{"p":2.59,"d":"2026-04-08"},"E10":{"p":2.15,"d":"2026-04-08"},"SP98":{"p":2.19,"d":"2026-04-08"}},"services":["Toilettes publiques","Relais colis","Boutique alimentaire","Lavage manuel","Services réparation / entretien","Vente de gaz domestique (Butane, Propane)"]},{"id":93370001,"lat":48.899,"lng":2.549,"addr":"186, avenue jean-jaurès","city":"MONTFERMEIL","cp":"93370","fuels":{"Gazole":{"p":2.159,"d":"2026-04-30"},"SP95":{"p":2.049,"d":"2026-04-30"},"E10":{"p":1.989,"d":"2026-04-27"},"SP98":{"p":2.078,"d":"2026-04-30"}},"brand":"Auchan","h24":true,"services":["Vente de fioul domestique","Station de gonflage","Piste poids lourds","Lavage manuel","Vente de gaz domestique (Butane, Propane)","Automate CB 24/24","DAB (Distributeur automatique de billets)"]},{"id":93100014,"lat":48.86885,"lng":2.47055,"addr":"48-54 BOULEVARD THEOPHILE SUEUR","city":"MONTREUIL","cp":"93100","fuels":{"Gazole":{"p":2.09,"d":"2026-05-01"},"E85":{"p":0.904,"d":"2026-05-01"},"E10":{"p":1.99,"d":"2026-05-01"}},"brand":"TotalEnergies","services":["Boutique alimentaire","Boutique non alimentaire","Carburant additivé","Lavage automatique","DAB (Distributeur automatique de billets)"]},{"id":93470002,"lat":48.915,"lng":2.589,"addr":"ZAC DES PRES CD N° 136","city":"COUBRON","cp":"93470","fuels":{"Gazole":{"p":2.18,"d":"2026-04-29"},"E85":{"p":0.818,"d":"2026-04-17"},"E10":{"p":1.999,"d":"2026-04-30"},"SP98":{"p":2.082,"d":"2026-04-27"}},"brand":"Intermarché","services":["Laverie","Relais colis","Station de gonflage","Location de véhicule","Piste poids lourds","Lavage automatique","Vente de gaz domestique (Butane, Propane)","DAB (Distributeur automatique de billets)"]}]