[{"id":100002591,"lat":39.908361,"lng":4.186722,"addr":"CARRETERA COMARCAL 721 KM. 7200","city":"ALAIOR","cp":"07730","fuels":{"Gazole":{"p":1.859,"d":"2026-07-14"},"SP95":{"p":1.839,"d":"2026-07-14"}},"brand":"Moeve"},{"id":100002590,"lat":39.908333,"lng":4.186722,"addr":"CARRETERA ME721 KM. 7,200","city":"ALAIOR","cp":"07730","fuels":{"Gazole":{"p":1.859,"d":"2026-07-14"},"SP95":{"p":1.839,"d":"2026-07-14"}},"brand":"Moeve"},{"id":100002669,"lat":39.931667,"lng":4.136528,"addr":"CALLE BALMES, 55","city":"ALAIOR","cp":"07730","fuels":{"Gazole":{"p":1.729,"d":"2026-07-14"},"SP95":{"p":1.739,"d":"2026-07-14"}},"brand":"Moeve"},{"id":100002592,"lat":39.702167,"lng":2.794917,"addr":"AVENIDA DE LA CONSTITUCIO, 95","city":"ALARO","cp":"07340","fuels":{"Gazole":{"p":1.739,"d":"2026-07-14"},"SP95":{"p":1.699,"d":"2026-07-14"}},"brand":"Cepsa"},{"id":100002703,"lat":39.847,"lng":3.099,"addr":"CARRETERA C-713 KM. 51,1","city":"ALCUDIA","cp":"07400","fuels":{"Gazole":{"p":1.699,"d":"2026-07-14"},"SP95":{"p":1.679,"d":"2026-07-14"}},"brand":"Moeve"},{"id":100002733,"lat":39.850056,"lng":3.127083,"addr":"CL POLLENTIA ESQ. CL. L,ESTEL, S.N.","city":"ALCUDIA","cp":"07400","fuels":{"Gazole":{"p":1.675,"d":"2026-07-14"},"SP95":{"p":1.679,"d":"2026-07-14"},"SP98":{"p":1.799,"d":"2026-07-14"}},"brand":"Repsol"},{"id":100009182,"lat":39.843333,"lng":3.123333,"addr":"VÍA CORNELI ATIC, 5","city":"PORT D'ALCUDIA","cp":"07410","fuels":{"Gazole":{"p":1.699,"d":"2026-07-14"},"SP95":{"p":1.689,"d":"2026-07-14"},"SP98":{"p":1.839,"d":"2026-07-14"},"GPLc":{"p":1.119,"d":"2026-07-14"}},"brand":"Repsol","h24":true},{"id":100002731,"lat":39.821333,"lng":3.113806,"addr":"AVENIDA JUAN CARLOS I, 109","city":"PLATJA D'ALCUDIA","cp":"07408","fuels":{"Gazole":{"p":1.689,"d":"2026-07-14"},"SP95":{"p":1.679,"d":"2026-07-14"},"SP98":{"p":1.849,"d":"2026-07-14"}},"brand":"Repsol"},{"id":100002686,"lat":39.567306,"lng":2.895833,"addr":"CR C-715, 21","city":"ALGAIDA","cp":"07210","fuels":{"Gazole":{"p":1.705,"d":"2026-07-14"},"SP95":{"p":1.655,"d":"2026-07-14"},"SP98":{"p":1.775,"d":"2026-07-14"}},"brand":"Repsol"},{"id":100002653,"lat":39.568,"lng":2.423611,"addr":"CARRETERA PALMA-PTO ANDRATX KM. 28,90","city":"ANDRATX","cp":"07150","fuels":{"Gazole":{"p":1.689,"d":"2026-07-14"},"SP95":{"p":1.669,"d":"2026-07-14"},"SP98":{"p":1.799,"d":"2026-07-14"}},"brand":"BP","h24":true},{"id":100002706,"lat":39.542972,"lng":2.389306,"addr":"CALLE ANTONI CALAFAT, 22","city":"PORT D'ANDRATX","cp":"07157","fuels":{"Gazole":{"p":1.729,"d":"2026-07-14"},"SP95":{"p":1.699,"d":"2026-07-14"},"SP98":{"p":1.849,"d":"2026-07-14"}},"brand":"Repsol","h24":true},{"id":100002728,"lat":39.696194,"lng":3.360278,"addr":"CL ABEVRADERO-ESQUINA CR C-715, S.N (C-715 km 2)","city":"ARTA","cp":"07570","fuels":{"Gazole":{"p":1.669,"d":"2026-07-14"},"SP95":{"p":1.645,"d":"2026-07-14"},"SP98":{"p":1.765,"d":"2026-07-14"}},"brand":"Petronor"},{"id":100002652,"lat":39.703111,"lng":3.226556,"addr":"CARRETERA MA-12 KM. 11,600","city":"ARTA","cp":"07570","fuels":{"Gazole":{"p":1.689,"d":"2026-07-14"},"SP95":{"p":1.679,"d":"2026-07-14"},"SP98":{"p":1.849,"d":"2026-07-14"}},"brand":"Repsol"},{"id":100002690,"lat":39.68975,"lng":3.346972,"addr":"CALLE CIUTAT, SN","city":"ARTA","cp":"07570","fuels":{"Gazole":{"p":1.669,"d":"2026-07-14"},"SP95":{"p":1.645,"d":"2026-07-14"},"SP98":{"p":1.765,"d":"2026-07-14"}},"brand":"Repsol"},{"id":100002409,"lat":39.686861,"lng":2.839972,"addr":"CALLE RECH ESQ CREU, S/N","city":"BINISSALEM","cp":"07350","fuels":{"Gazole":{"p":1.699,"d":"2026-07-14"},"SP95":{"p":1.679,"d":"2026-07-14"}},"brand":"Repsol"},{"id":100013538,"lat":39.686806,"lng":2.851556,"addr":"CARRETERA MA-13 A, ESQUINA CAMI AGUA KM. S/N","city":"BINISSALEM","cp":"07350","fuels":{"Gazole":{"p":1.529,"d":"2026-07-14"},"SP95":{"p":1.519,"d":"2026-07-14"}},"brand":"Eroski","h24":true},{"id":100002604,"lat":39.712667,"lng":2.69025,"addr":"CARRETERA C-711 KM. 16,5","city":"BUNYOLA","cp":"07110","fuels":{"Gazole":{"p":1.739,"d":"2026-07-14"},"SP95":{"p":1.699,"d":"2026-07-14"}},"brand":"Moeve"},{"id":100012188,"lat":39.544306,"lng":2.451583,"addr":"RONDA DE PEGUERA, SN","city":"CALVIA","cp":"07184","fuels":{"Gazole":{"p":1.689,"d":"2026-07-14"},"SP95":{"p":1.669,"d":"2026-07-14"}},"brand":"Moeve"},{"id":100002635,"lat":39.500139,"lng":2.518333,"addr":"CARRETERA CALA FIGUERA, EL TORO, SON FERRER KM. S/N","city":"CALVIA","cp":"07184","fuels":{"Gazole":{"p":1.689,"d":"2026-07-14"},"SP95":{"p":1.669,"d":"2026-07-14"},"SP98":{"p":1.799,"d":"2026-07-14"}},"brand":"BP","h24":true},{"id":100002722,"lat":39.529306,"lng":2.501889,"addr":"CALLE ILLES BALEARS, 1","city":"CALVIA","cp":"07184","fuels":{"Gazole":{"p":1.639,"d":"2026-07-14"},"SP95":{"p":1.599,"d":"2026-07-14"},"SP98":{"p":1.749,"d":"2026-07-14"}},"brand":"BP","h24":true},{"id":100002583,"lat":39.559833,"lng":2.507667,"addr":"CARRETERA PALMA NOVA - CALVIA KM. 5,5","city":"CALVIA","cp":"07184","fuels":{"Gazole":{"p":1.659,"d":"2026-07-14"},"SP95":{"p":1.649,"d":"2026-07-14"},"SP98":{"p":1.749,"d":"2026-07-14"}},"brand":"Moeve"},{"id":100002715,"lat":39.543,"lng":2.591944,"addr":"CARRETERA C-719 KM. 7,8","city":"CALVIA","cp":"07184","fuels":{"Gazole":{"p":1.685,"d":"2026-07-14"},"SP95":{"p":1.655,"d":"2026-07-14"},"SP98":{"p":1.775,"d":"2026-07-14"}},"brand":"Repsol"},{"id":100012577,"lat":39.5685,"lng":2.490722,"addr":"CARRETERA PMV-1031 KM. 1,5","city":"CALVIA","cp":"07184","fuels":{"GPLc":{"p":0.959,"d":"2026-07-14"}},"brand":"Repsol Butano"},{"id":100002665,"lat":39.528083,"lng":2.541556,"addr":"PM-719 km 12,4","city":"PALMANOVA","cp":"07181","fuels":{"Gazole":{"p":1.709,"d":"2026-07-14"},"SP95":{"p":1.665,"d":"2026-07-14"}},"brand":"Moeve"},{"id":100002595,"lat":39.509111,"lng":2.518611,"addr":"CARRETERA CALA FIGUERA KM. S/N","city":"PORRASSA (SA)","cp":"07181","fuels":{"Gazole":{"p":1.689,"d":"2026-07-14"},"SP95":{"p":1.659,"d":"2026-07-14"},"SP98":{"p":1.779,"d":"2026-07-14"}},"brand":"Repsol","h24":true},{"id":100002720,"lat":39.526472,"lng":2.486722,"addr":"CARRETERA PALMA-PUERTO ANDRATX KM. 19","city":"COSTA DE LA CALMA","cp":"07183","fuels":{"Gazole":{"p":1.629,"d":"2026-07-14"},"SP95":{"p":1.619,"d":"2026-07-14"},"SP98":{"p":1.719,"d":"2026-07-14"}},"brand":"Repsol"},{"id":100002721,"lat":39.526472,"lng":2.486528,"addr":"CARRETERA PALMA-ANDRATX KM, 18 KM. 18","city":"COSTA DE LA CALMA","cp":"07183","fuels":{"Gazole":{"p":1.689,"d":"2026-07-14"},"SP95":{"p":1.679,"d":"2026-07-14"},"SP98":{"p":1.779,"d":"2026-07-14"},"GPLc":{"p":1.019,"d":"2026-07-14"}},"brand":"Repsol","h24":true},{"id":100013135,"lat":39.529111,"lng":2.504611,"addr":"CARRER M.MEDITERRÀNIA, 24","city":"SANTA PONÇA","cp":"07180","fuels":{"SP95":{"p":1.498,"d":"2026-07-14"}},"brand":"Buga 2000"},{"id":100002708,"lat":39.775444,"lng":2.989472,"addr":"CARRETERA C-713 KM. 38,3","city":"CAMPANET","cp":"07310","fuels":{"Gazole":{"p":1.705,"d":"2026-07-14"},"SP95":{"p":1.685,"d":"2026-07-14"},"SP98":{"p":1.859,"d":"2026-07-14"}},"brand":"Moeve"},{"id":100016416,"lat":39.43625,"lng":3.006889,"addr":"CAMINO DE CIUTAT VELL, 40","city":"CAMPOS","cp":"07630","fuels":{"Gazole":{"p":1.519,"d":"2026-07-14"},"SP95":{"p":1.519,"d":"2026-07-14"}},"brand":"Just Fuel","h24":true},{"id":100002594,"lat":39.437611,"lng":3.004667,"addr":"CARRETERA C-717 PALMA - PORTO PETRO KM. 34,5","city":"CAMPOS","cp":"07630","fuels":{"Gazole":{"p":1.635,"d":"2026-07-14"},"SP95":{"p":1.655,"d":"2026-07-14"}},"brand":"Moeve","h24":true},{"id":100002700,"lat":39.426361,"lng":3.02425,"addr":"CARRETERA C-717 KM. 38","city":"CAMPOS","cp":"07630","fuels":{"Gazole":{"p":1.679,"d":"2026-07-14"},"SP95":{"p":1.695,"d":"2026-07-14"},"SP98":{"p":1.815,"d":"2026-07-14"}},"brand":"Repsol"},{"id":100016146,"lat":39.437111,"lng":3.011639,"addr":"CARRETERA MA-19 KM. 9","city":"CAMPOS","cp":"07630","fuels":{"Gazole":{"p":1.559,"d":"2026-07-14"},"SP95":{"p":1.559,"d":"2026-07-14"}},"brand":"Plenergy","h24":true},{"id":100013569,"lat":39.703889,"lng":3.446389,"addr":"AVENIDA JUAN CARLOS I, 68","city":"CAPDEPERA","cp":"07580","fuels":{"Gazole":{"p":1.658,"d":"2026-07-14"},"SP95":{"p":1.638,"d":"2026-07-14"}},"brand":"Galp"},{"id":100002713,"lat":39.705278,"lng":3.451667,"addr":"AVENIDA JUAN CARLOS I, S/N","city":"CAPDEPERA","cp":"07580","fuels":{"Gazole":{"p":1.665,"d":"2026-07-14"},"SP95":{"p":1.645,"d":"2026-07-14"},"SP98":{"p":1.765,"d":"2026-07-14"}},"brand":"Repsol"},{"id":100013088,"lat":40.007139,"lng":3.853361,"addr":"CALLE FERRERS, 12","city":"CIUTADELLA DE MENORCA","cp":"07760","fuels":{"Gazole":{"p":1.679,"d":"2026-07-14"},"SP95":{"p":1.659,"d":"2026-07-14"}},"brand":"Autonetoil","h24":true},{"id":100002667,"lat":40.004639,"lng":3.850583,"addr":"AUTOVIA CTRA. MAHON - CIUDADELA KM. 43,9","city":"CIUTADELLA DE MENORCA","cp":"07760","fuels":{"Gazole":{"p":1.739,"d":"2026-07-14"},"SP95":{"p":1.719,"d":"2026-07-14"}},"brand":"Bp Energia España Sau"},{"id":100002668,"lat":40.001389,"lng":3.843556,"addr":"CALLE CAUTIVOS DE CONSTANTINIPLA, S/N","city":"CIUTADELLA DE MENORCA","cp":"07760","fuels":{"Gazole":{"p":1.859,"d":"2026-07-14"},"SP95":{"p":1.839,"d":"2026-07-14"}},"brand":"Moeve Comercial Sau"},{"id":100002569,"lat":40.007833,"lng":3.833056,"addr":"CALLE PINTOR TORRENT, 10","city":"CIUTADELLA DE MENORCA","cp":"07760","fuels":{"Gazole":{"p":1.699,"d":"2026-07-14"},"SP95":{"p":1.679,"d":"2026-07-14"},"GPLc":{"p":1.089,"d":"2026-07-14"}},"brand":"Repsol"},{"id":100013041,"lat":40.005611,"lng":3.853444,"addr":"CALLE FERRERS, 1","city":"CIUTADELLA DE MENORCA","cp":"07760","fuels":{"Gazole":{"p":1.709,"d":"2026-07-14"},"SP95":{"p":1.689,"d":"2026-07-14"}},"brand":"Galp","h24":true},{"id":100002588,"lat":38.918833,"lng":1.437167,"addr":"CARRER ALCALDE BARTOLOME ROSELLO SALA, 2","city":"EIVISSA","cp":"07800","fuels":{"Gazole":{"p":1.699,"d":"2026-07-14"},"SP95":{"p":1.679,"d":"2026-07-14"},"SP98":{"p":1.799,"d":"2026-07-14"}},"brand":"Cepsa","h24":true},{"id":100015609,"lat":38.919917,"lng":1.436083,"addr":"CARRER ALCALDE BARTOMEU ROSELLO SALA, 9","city":"EIVISSA","cp":"07800","fuels":{"Gazole":{"p":1.579,"d":"2026-07-14"},"SP95":{"p":1.589,"d":"2026-07-14"}},"brand":"Autonetoil","h24":true},{"id":100002626,"lat":38.922694,"lng":1.440778,"addr":"CARRETERA IBIZA - SAN JUAN KM. 1,7","city":"EIVISSA","cp":"07800","fuels":{"Gazole":{"p":1.699,"d":"2026-07-14"},"SP95":{"p":1.679,"d":"2026-07-14"},"SP98":{"p":1.799,"d":"2026-07-14"}},"brand":"Repsol"},{"id":100002570,"lat":38.905583,"lng":1.417972,"addr":"CARRETERA PM-808 KM. 1,25","city":"EIVISSA","cp":"07800","fuels":{"Gazole":{"p":1.699,"d":"2026-07-14"},"SP95":{"p":1.685,"d":"2026-07-14"},"SP98":{"p":1.805,"d":"2026-07-14"},"GPLc":{"p":1.095,"d":"2026-07-14"}},"brand":"Repsol","h24":true},{"id":100002620,"lat":38.905194,"lng":1.412806,"addr":"AVENIDA SANT JUSEP DE SA TALAYA, 42","city":"EIVISSA","cp":"07800","fuels":{"Gazole":{"p":1.625,"d":"2026-07-14"},"SP95":{"p":1.605,"d":"2026-07-14"}},"brand":"Galp"},{"id":100002694,"lat":38.914444,"lng":1.429222,"addr":"AVENIDA IGNACIO WALLIS, 58","city":"EIVISSA","cp":"07800","fuels":{"Gazole":{"p":1.705,"d":"2026-07-14"},"SP95":{"p":1.685,"d":"2026-07-14"},"SP98":{"p":1.805,"d":"2026-07-14"}},"brand":"Shell"},{"id":100015229,"lat":38.908806,"lng":1.410306,"addr":"CALLE DES JONDAL, 73","city":"EIVISSA","cp":"07800","fuels":{"Gazole":{"p":1.599,"d":"2026-07-14"},"SP95":{"p":1.599,"d":"2026-07-14"}},"brand":"Carburantes Ibiza, S.L."},{"id":100002627,"lat":38.922167,"lng":1.440139,"addr":"CARRETERA IBIZA - SAN JUAN KM. 1,7","city":"EIVISSA","cp":"07800","fuels":{"Gazole":{"p":1.699,"d":"2026-07-14"},"SP95":{"p":1.679,"d":"2026-07-14"}},"brand":"Repsol"},{"id":100002625,"lat":39.812444,"lng":2.89,"addr":"CARRETERA PM - 213 KM. 14,8","city":"ESCORCA","cp":"07315","fuels":{"Gazole":{"p":1.689,"d":"2026-07-14"},"SP95":{"p":1.679,"d":"2026-07-14"},"SP98":{"p":1.849,"d":"2026-07-14"}},"brand":"Repsol","h24":true},{"id":100002617,"lat":39.659278,"lng":2.58825,"addr":"CARRETERA PM104 KM. 12,8","city":"ESPORLES","cp":"07190","fuels":{"Gazole":{"p":1.653,"d":"2026-07-14"},"SP95":{"p":1.661,"d":"2026-07-14"},"SP98":{"p":1.819,"d":"2026-07-14"}},"brand":"Repsol"},{"id":100015093,"lat":39.465111,"lng":3.140944,"addr":"CALLE PUIG DE SANT NICOLAU, 1","city":"FELANITX","cp":"07200","fuels":{"Gazole":{"p":1.559,"d":"2026-07-14"},"SP95":{"p":1.539,"d":"2026-07-14"}},"brand":"Just Fuel","h24":true},{"id":100002646,"lat":39.474778,"lng":3.143472,"addr":"CR PM-510, 12,1","city":"FELANITX","cp":"07200","fuels":{"Gazole":{"p":1.679,"d":"2026-07-14"},"SP95":{"p":1.669,"d":"2026-07-14"},"SP98":{"p":1.809,"d":"2026-07-14"}},"brand":"Bp Felanitx"},{"id":100002596,"lat":39.473667,"lng":3.158722,"addr":"CR PM-401, 0,4","city":"FELANITX","cp":"07200","fuels":{"Gazole":{"p":1.679,"d":"2026-07-14"},"SP95":{"p":1.669,"d":"2026-07-14"},"SP98":{"p":1.849,"d":"2026-07-14"}},"brand":"Petronor"},{"id":100002647,"lat":39.443611,"lng":3.235472,"addr":"CARRETERA CARRETERA FELANITX-PORTO COLOM, KM.8,200 KM. 8,200","city":"FELANITX","cp":"07200","fuels":{"Gazole":{"p":1.679,"d":"2026-07-14"},"SP95":{"p":1.669,"d":"2026-07-14"},"SP98":{"p":1.839,"d":"2026-07-14"}},"brand":"Repsol"},{"id":100002710,"lat":39.465639,"lng":3.138222,"addr":"CARRETERA CAMPOS KM. 11,1","city":"FELANITX","cp":"07200","fuels":{"Gazole":{"p":1.665,"d":"2026-07-14"},"SP95":{"p":1.639,"d":"2026-07-14"},"SP98":{"p":1.759,"d":"2026-07-14"}},"brand":"Repsol"},{"id":100002658,"lat":39.421,"lng":3.2615,"addr":"CALLE CRISTOFOR COLOM   P.COLOM, 33","city":"PORTOCOLOM","cp":"07670","fuels":{"Gazole":{"p":1.716,"d":"2026-07-14"},"SP95":{"p":1.687,"d":"2026-07-14"}},"brand":"Repsol"},{"id":100002605,"lat":39.98775,"lng":4.020917,"addr":"CALLE DELS TEULERS, 2","city":"FERRERIES","cp":"07750","fuels":{"Gazole":{"p":1.859,"d":"2026-07-14"},"SP95":{"p":1.839,"d":"2026-07-14"}},"brand":"Moeve"},{"id":100002608,"lat":38.722972,"lng":1.421972,"addr":"CARRETERA PM-820 KM. 1,2","city":"SANT FRANCESC FORMENTERA","cp":"07860","fuels":{"Gazole":{"p":1.795,"d":"2026-07-14"},"SP95":{"p":1.825,"d":"2026-07-14"}},"brand":"Cepsa"},{"id":100002571,"lat":38.708444,"lng":1.445417,"addr":"CARRETERA LA SABINA- EL PILAR KM. 4,6","city":"SANT FRANCESC FORMENTERA","cp":"07860","fuels":{"Gazole":{"p":1.75,"d":"2026-07-14"},"SP95":{"p":1.789,"d":"2026-07-14"}},"brand":"Repsol"},{"id":100002648,"lat":39.729278,"lng":2.911306,"addr":"CALLE LLUC  ESQUINA SELVA, INCA, S/N","city":"INCA","cp":"07300","fuels":{"Gazole":{"p":1.689,"d":"2026-07-14"},"SP95":{"p":1.669,"d":"2026-07-14"},"SP98":{"p":1.799,"d":"2026-07-14"}},"brand":"BP","h24":true},{"id":100002636,"lat":39.711111,"lng":2.909222,"addr":"CARRETERA PALMA-ALCUDIA CRUCE CTRA.SENCELLES KM. S/N","city":"INCA","cp":"07300","fuels":{"Gazole":{"p":1.689,"d":"2026-07-14"},"SP95":{"p":1.669,"d":"2026-07-14"},"SP98":{"p":1.799,"d":"2026-07-14"}},"brand":"BP","h24":true},{"id":100002640,"lat":39.711556,"lng":2.901972,"addr":"AVENIDA GENERAL LUQUE, S/N","city":"INCA","cp":"07300","fuels":{"Gazole":{"p":1.699,"d":"2026-07-14"},"SP95":{"p":1.679,"d":"2026-07-14"},"SP98":{"p":1.779,"d":"2026-07-14"}},"brand":"Repsol","h24":true},{"id":100016136,"lat":39.716417,"lng":2.915056,"addr":"CALLE BERENGUER D'ANOIA, 50","city":"INCA","cp":"07300","fuels":{"Gazole":{"p":1.659,"d":"2026-07-14"},"SP95":{"p":1.639,"d":"2026-07-14"},"SP98":{"p":1.739,"d":"2026-07-14"}},"brand":"Moeve","h24":true},{"id":100014143,"lat":39.714194,"lng":2.907,"addr":"CALLE JOAN DE AUSTRIA, 72","city":"INCA","cp":"07300","fuels":{"Gazole":{"p":1.539,"d":"2026-07-14"},"SP95":{"p":1.529,"d":"2026-07-14"}},"brand":"Autonetoil","h24":true},{"id":100002692,"lat":39.716639,"lng":2.915333,"addr":"AVENIDA JAIME I, 143","city":"INCA","cp":"07300","fuels":{"Gazole":{"p":1.685,"d":"2026-07-14"},"SP95":{"p":1.659,"d":"2026-07-14"},"SP98":{"p":1.779,"d":"2026-07-14"}},"brand":"Repsol","h24":true},{"id":100012579,"lat":39.731333,"lng":2.939861,"addr":"CAMINO PUIG DE SANTA MAGDALENA, S/N","city":"INCA","cp":"07300","fuels":{"GPLc":{"p":0.949,"d":"2026-07-14"}},"brand":"Repsol Butano"},{"id":100016198,"lat":39.710083,"lng":2.901778,"addr":"CALLE DEL GRAL. LUQUE, S/N","city":"INCA","cp":"07300","fuels":{"Gazole":{"p":1.539,"d":"2026-07-14"},"SP95":{"p":1.529,"d":"2026-07-14"}},"brand":"Plenergy","h24":true},{"id":100014342,"lat":39.7035,"lng":2.870417,"addr":"CARRER SABATERS, SN","city":"LLOSETA","cp":"07360","fuels":{"Gazole":{"p":1.659,"d":"2026-07-14"},"SP95":{"p":1.649,"d":"2026-07-14"},"SP98":{"p":1.789,"d":"2026-07-14"}},"brand":"Shell","h24":true},{"id":100002582,"lat":39.707667,"lng":2.865222,"addr":"CARRETERA PM-V-211-1 KM. 1,5","city":"LLOSETA","cp":"07360","fuels":{"Gazole":{"p":1.644,"d":"2026-07-14"},"SP95":{"p":1.609,"d":"2026-07-14"}},"brand":"Cepsa"},{"id":100002724,"lat":39.698694,"lng":3.005889,"addr":"CARRER LA CARRETERA, 69","city":"LLUBI","cp":"07430","fuels":{"Gazole":{"p":1.719,"d":"2026-07-14"},"SP95":{"p":1.689,"d":"2026-07-14"}},"brand":"Cepsa"},{"id":100002621,"lat":39.501,"lng":2.75975,"addr":"CALLE SAN CRISTOBAL, S/N","city":"LLUCMAJOR","cp":"07620","fuels":{"Gazole":{"p":1.699,"d":"2026-07-14"},"SP95":{"p":1.699,"d":"2026-07-14"}},"brand":"Cepsa"},{"id":100002637,"lat":39.485861,"lng":2.895222,"addr":"AVENIDA CARLOS V, S/N","city":"LLUCMAJOR","cp":"07620","fuels":{"Gazole":{"p":1.689,"d":"2026-07-14"},"SP95":{"p":1.699,"d":"2026-07-14"},"SP98":{"p":1.819,"d":"2026-07-14"}},"brand":"Cepsa"},{"id":100002689,"lat":39.494556,"lng":2.881472,"addr":"CARRETERA PALMA-PORTOPETRO KM. 23","city":"LLUCMAJOR","cp":"07620","fuels":{"Gazole":{"p":1.689,"d":"2026-07-14"},"SP95":{"p":1.699,"d":"2026-07-14"}},"brand":"Cepsa"},{"id":100002574,"lat":39.493778,"lng":2.789389,"addr":"CARRETERA PM-602 KM. 8,2","city":"LLUCMAJOR","cp":"07620","fuels":{"Gazole":{"p":1.675,"d":"2026-07-14"},"SP95":{"p":1.689,"d":"2026-07-14"},"SP98":{"p":1.809,"d":"2026-07-14"},"GPLc":{"p":1.119,"d":"2026-07-14"}},"brand":"Repsol"},{"id":100002586,"lat":39.483944,"lng":2.831722,"addr":"CARRETERA PM-602 KM. 5","city":"ARENAL (S')","cp":"07600","fuels":{"Gazole":{"p":1.669,"d":"2026-07-14"},"SP95":{"p":1.685,"d":"2026-07-14"},"SP98":{"p":1.805,"d":"2026-07-14"}},"brand":"Repsol"},{"id":100015762,"lat":39.477861,"lng":2.745694,"addr":"CARRETERA MA-6014 KM. 3,6","city":"PALMERES (LES)","cp":"07609","fuels":{"Gazole":{"p":1.679,"d":"2026-07-14"},"SP95":{"p":1.679,"d":"2026-07-14"},"SP98":{"p":1.799,"d":"2026-07-14"}},"brand":"Bp Son Granada"},{"id":100002598,"lat":39.881972,"lng":4.259389,"addr":"AVENIDA JOSE ANSELMO CLAVE, S/N","city":"MAO","cp":"07703","fuels":{"Gazole":{"p":1.759,"d":"2026-07-14"},"SP95":{"p":1.749,"d":"2026-07-14"}},"brand":"Cepsa","h24":true},{"id":100002737,"lat":39.889583,"lng":4.242861,"addr":"CR ME-1 , 1,50","city":"MAO","cp":"07703","fuels":{"Gazole":{"p":1.699,"d":"2026-07-14"},"SP95":{"p":1.695,"d":"2026-07-14"},"GPLc":{"p":1.099,"d":"2026-07-14"}},"brand":"Repsol"},{"id":100002670,"lat":39.884278,"lng":4.271639,"addr":"ROTONDA PLAZA ABU UMAR, 1","city":"MAO","cp":"07702","fuels":{"Gazole":{"p":1.759,"d":"2026-07-14"},"SP95":{"p":1.749,"d":"2026-07-14"}},"brand":"Cepsa"},{"id":100002633,"lat":39.863861,"lng":4.227833,"addr":"CARRETERA AEROPUERTO KM. 5","city":"MAO","cp":"07701","fuels":{"Gazole":{"p":1.979,"d":"2026-07-14"},"SP95":{"p":1.979,"d":"2026-07-14"}},"brand":"Moeve"},{"id":100013150,"lat":39.884917,"lng":4.246694,"addr":"CARRER ARTRUXT, 7","city":"MAO","cp":"07714","fuels":{"Gazole":{"p":1.609,"d":"2026-07-14"},"SP95":{"p":1.589,"d":"2026-07-14"}},"brand":"Autonetoil","h24":true},{"id":100013465,"lat":39.883917,"lng":4.240472,"addr":"CALLE BAJOLI ( POLIGONO INDUSTRIAL ARTRUIX ), 39","city":"MAO","cp":"07714","fuels":{"Gazole":{"p":1.609,"d":"2026-07-14"},"SP95":{"p":1.589,"d":"2026-07-14"}},"brand":"Gmoil","h24":true},{"id":100016388,"lat":39.889389,"lng":4.248833,"addr":"RONDA RONDA DE MAÓ, 4","city":"MAO","cp":"07714","fuels":{"Gazole":{"p":1.649,"d":"2026-07-14"},"SP95":{"p":1.629,"d":"2026-07-14"}},"brand":"Plenergy","h24":true},{"id":100013493,"lat":39.888806,"lng":4.249,"addr":"AVENIDA CAP DE CAVALLERIA, 14","city":"MAO","cp":"07714","fuels":{"Gazole":{"p":1.719,"d":"2026-07-14"},"SP95":{"p":1.699,"d":"2026-07-14"}},"brand":"Galp","h24":true},{"id":100016363,"lat":39.863861,"lng":4.227833,"addr":"CARRETERA AEROPUERTO (ZONA AIRE) KM. 5","city":"SANT CLIMENT","cp":"07712","fuels":{"Gazole":{"p":1.979,"d":"2026-07-14"}},"brand":"Moeve","h24":true},{"id":100002638,"lat":39.561306,"lng":3.207,"addr":"CALLE JUAN MIRO, S/N","city":"MANACOR","cp":"07500","fuels":{"Gazole":{"p":1.679,"d":"2026-07-14"},"SP95":{"p":1.669,"d":"2026-07-14"},"SP98":{"p":1.839,"d":"2026-07-14"}},"brand":"Repsol","h24":true},{"id":100015958,"lat":39.560028,"lng":3.207972,"addr":"CALLE DE LES PAGESES, 8","city":"MANACOR","cp":"07500","fuels":{"Gazole":{"p":1.579,"d":"2026-07-14"},"SP95":{"p":1.549,"d":"2026-07-14"}},"brand":"Autonet&oil","h24":true},{"id":100002601,"lat":39.561028,"lng":3.262972,"addr":"CARRETERA PM-402 KM. 5,6","city":"MANACOR","cp":"07500","fuels":{"Gazole":{"p":1.559,"d":"2026-07-14"},"SP95":{"p":1.529,"d":"2026-07-14"}},"brand":"Autonet&oil","h24":true},{"id":100002634,"lat":39.577833,"lng":3.210528,"addr":"VÍA VIA PALMA, 87 (ROTONDA HOSPITAL), 87","city":"MANACOR","cp":"07500","fuels":{"Gazole":{"p":1.679,"d":"2026-07-14"},"SP95":{"p":1.669,"d":"2026-07-14"},"SP98":{"p":1.839,"d":"2026-07-14"}},"brand":"Repsol","h24":true},{"id":100014906,"lat":39.572111,"lng":3.194417,"addr":"CALLE VIA MAJORICA, SN","city":"MANACOR","cp":"07500","fuels":{"Gazole":{"p":1.679,"d":"2026-07-14"},"SP95":{"p":1.669,"d":"2026-07-14"},"SP98":{"p":1.839,"d":"2026-07-14"},"GPLc":{"p":1.069,"d":"2026-07-14"}},"brand":"Repsol"},{"id":100002687,"lat":39.574167,"lng":3.200528,"addr":"CR C-715, 48","city":"MANACOR","cp":"07500","fuels":{"Gazole":{"p":1.689,"d":"2026-07-14"},"SP95":{"p":1.639,"d":"2026-07-14"},"SP98":{"p":1.809,"d":"2026-07-14"}},"brand":"Repsol"},{"id":100012574,"lat":39.573556,"lng":3.159556,"addr":"CARRETERA MA-15 KM. 44,5","city":"MANACOR","cp":"07500","fuels":{"GPLc":{"p":0.969,"d":"2026-07-14"}},"brand":"Repsol Butano"},{"id":100002607,"lat":39.566944,"lng":3.220667,"addr":"CR PM-402, 1,6","city":"MANACOR","cp":"07500","fuels":{"Gazole":{"p":1.695,"d":"2026-07-14"},"SP95":{"p":1.645,"d":"2026-07-14"},"SP98":{"p":1.765,"d":"2026-07-14"}},"brand":"Repsol"},{"id":100002716,"lat":39.561,"lng":3.263111,"addr":"CARRETERA PM 402 KM. 9","city":"PORTO CRISTO","cp":"07680","fuels":{"Gazole":{"p":1.659,"d":"2026-07-14"},"SP95":{"p":1.649,"d":"2026-07-14"},"SP98":{"p":1.749,"d":"2026-07-14"}},"brand":"Moeve"},{"id":100015122,"lat":39.546806,"lng":3.333417,"addr":"RONDA OEST, 25","city":"PORTO CRISTO","cp":"07680","fuels":{"Gazole":{"p":1.559,"d":"2026-07-14"},"SP95":{"p":1.529,"d":"2026-07-14"}},"brand":"Just Fuel","h24":true},{"id":100002678,"lat":39.547667,"lng":3.339444,"addr":"RONDA RONDA DEL OESTE, 123","city":"PORTO CRISTO","cp":"07680","fuels":{"Gazole":{"p":1.679,"d":"2026-07-14"},"SP95":{"p":1.669,"d":"2026-07-14"},"SP98":{"p":1.839,"d":"2026-07-14"}},"brand":"Repsol"},{"id":100014289,"lat":39.618611,"lng":2.715056,"addr":"CARRER CAMÍ DE MUNTANYA ESQ CARRER CELLETERS, S/N","city":"CABANETA (SA)","cp":"07141","fuels":{"Gazole":{"p":1.649,"d":"2026-07-14"},"SP95":{"p":1.609,"d":"2026-07-14"}},"brand":"Shell"},{"id":100002711,"lat":39.627528,"lng":2.725056,"addr":"POLIGONO OLLERS, S/N","city":"MARRATXINET","cp":"07141","fuels":{"Gazole":{"p":1.659,"d":"2026-07-14"},"SP95":{"p":1.639,"d":"2026-07-14"},"SP98":{"p":1.739,"d":"2026-07-14"}},"brand":"BP","h24":true},{"id":100002651,"lat":39.615806,"lng":2.718,"addr":"CARRETERA PALMA-PTO ALCUDIA KM. 8,9","city":"MARRATXINET","cp":"07141","fuels":{"Gazole":{"p":1.689,"d":"2026-07-14"},"SP95":{"p":1.669,"d":"2026-07-14"},"SP98":{"p":1.799,"d":"2026-07-14"}},"brand":"Repsol","h24":true},{"id":100016115,"lat":39.618333,"lng":2.715056,"addr":"CAMINO DE MONTANA, 11","city":"MARRATXINET","cp":"07141","fuels":{"Gazole":{"p":1.589,"d":"2026-07-14"},"SP95":{"p":1.569,"d":"2026-07-14"}},"brand":"Plenergy","h24":true},{"id":100011617,"lat":39.647944,"lng":2.756889,"addr":"CARRETERA CR C-713  PALMA-PUERTO ALCUDIA KM. 13","city":"MARRATXINET","cp":"07141","fuels":{"Gazole":{"p":1.689,"d":"2026-07-14"},"SP95":{"p":1.669,"d":"2026-07-14"},"SP98":{"p":1.799,"d":"2026-07-14"}},"brand":"Repsol"},{"id":100002666,"lat":39.984639,"lng":4.071667,"addr":"CARRETERA CTRA DE MAO A CIUTADELLA ME-1 KM. 23","city":"MERCADAL (ES)","cp":"07740","fuels":{"Gazole":{"p":1.739,"d":"2026-07-14"},"SP95":{"p":1.719,"d":"2026-07-14"}},"brand":"BP"},{"id":100002645,"lat":39.977556,"lng":4.195611,"addr":"CARRETERA MAHÓN - FORNELLS KM. 12,6","city":"MERCADAL (ES)","cp":"07740","fuels":{"Gazole":{"p":1.849,"d":"2026-07-14"},"SP95":{"p":1.829,"d":"2026-07-14"}},"brand":"Galp","h24":true},{"id":100002578,"lat":39.560806,"lng":2.988139,"addr":"CARRETERA MA-15 KM. 29,320","city":"MONTUIRI","cp":"07230","fuels":{"Gazole":{"p":1.679,"d":"2026-07-14"},"SP95":{"p":1.669,"d":"2026-07-14"},"SP98":{"p":1.809,"d":"2026-07-14"}},"brand":"BP"},{"id":100002568,"lat":39.7415,"lng":3.052639,"addr":"CARRETERA MA-3431 KM. 0,200","city":"MURO","cp":"07440","fuels":{"Gazole":{"p":1.689,"d":"2026-07-14"},"SP95":{"p":1.679,"d":"2026-07-14"},"SP98":{"p":1.829,"d":"2026-07-14"}},"brand":"Repsol"},{"id":100002701,"lat":39.729306,"lng":3.059583,"addr":"AVENIDA SANTA MARGARITA, 49","city":"MURO","cp":"07440","fuels":{"Gazole":{"p":1.579,"d":"2026-07-14"},"SP95":{"p":1.569,"d":"2026-07-14"},"SP98":{"p":1.709,"d":"2026-07-14"}},"brand":"Economic Fuel","h24":true},{"id":100002593,"lat":39.81425,"lng":3.109972,"addr":"CALLE CRUCERO, 12","city":"PLATJA DE MURO","cp":"07408","fuels":{"Gazole":{"p":1.699,"d":"2026-07-14"},"SP95":{"p":1.689,"d":"2026-07-14"},"SP98":{"p":1.839,"d":"2026-07-14"}},"brand":"Las Gaviotas"},{"id":100002619,"lat":39.582056,"lng":2.660667,"addr":"CALLE EUSEBIO ESTADA, 64","city":"PALMA","cp":"07004","fuels":{"Gazole":{"p":1.679,"d":"2026-07-14"},"SP95":{"p":1.669,"d":"2026-07-14"},"SP98":{"p":1.839,"d":"2026-07-14"}},"brand":"Repsol"},{"id":100002631,"lat":39.580194,"lng":2.659194,"addr":"CALLE JAUME BALMES, 44","city":"PALMA","cp":"07004","fuels":{"Gazole":{"p":1.679,"d":"2026-07-14"},"SP95":{"p":1.669,"d":"2026-07-14"},"SP98":{"p":1.839,"d":"2026-07-14"}},"brand":"Bp Balmes"},{"id":100002695,"lat":39.594167,"lng":2.654472,"addr":"CALLE ALFONS EL MAGNANIM, 90","city":"PALMA","cp":"07004","fuels":{"Gazole":{"p":1.685,"d":"2026-07-14"},"SP95":{"p":1.668,"d":"2026-07-14"},"SP98":{"p":1.835,"d":"2026-07-14"}},"brand":"Bp Amanecer","h24":true},{"id":100002610,"lat":39.586417,"lng":2.652889,"addr":"CALLE CAPITAN SALOM, 31","city":"PALMA","cp":"07004","fuels":{"Gazole":{"p":1.689,"d":"2026-07-14"},"SP95":{"p":1.669,"d":"2026-07-14"},"SP98":{"p":1.799,"d":"2026-07-14"}},"brand":"Repsol","h24":true},{"id":100015098,"lat":39.591278,"lng":2.634139,"addr":"CALLE CAMI DE JESUS, 10","city":"PALMA","cp":"07011","fuels":{"Gazole":{"p":1.679,"d":"2026-07-14"},"SP95":{"p":1.669,"d":"2026-07-14"},"SP98":{"p":1.809,"d":"2026-07-14"},"GPLc":{"p":1.029,"d":"2026-07-14"}},"brand":"Shell","h24":true},{"id":100014218,"lat":39.595056,"lng":2.632778,"addr":"CALLE POIMA, 12","city":"PALMA","cp":"07011","fuels":{"Gazole":{"p":1.619,"d":"2026-07-14"},"SP95":{"p":1.559,"d":"2026-07-14"}},"brand":"Autonetoil","h24":true},{"id":100002736,"lat":39.595861,"lng":2.637917,"addr":"CAMINO REIS, S/N","city":"PALMA","cp":"07011","fuels":{"Gazole":{"p":1.685,"d":"2026-07-14"},"SP95":{"p":1.659,"d":"2026-07-14"},"SP98":{"p":1.779,"d":"2026-07-14"}},"brand":"Repsol"},{"id":100002609,"lat":39.583,"lng":2.63075,"addr":"CAMINO VILETA (LA), S/N","city":"PALMA","cp":"07011","fuels":{"Gazole":{"p":1.679,"d":"2026-07-14"},"SP95":{"p":1.659,"d":"2026-07-14"},"SP98":{"p":1.779,"d":"2026-07-14"}},"brand":"Repsol"},{"id":100002565,"lat":39.565778,"lng":2.626444,"addr":"AVENIDA JOAN MIRO, 22","city":"PALMA","cp":"07014","fuels":{"Gazole":{"p":1.705,"d":"2026-07-14"},"SP95":{"p":1.685,"d":"2026-07-14"}},"brand":"Moeve"},{"id":100002644,"lat":39.571278,"lng":2.625472,"addr":"CALLE ANDREA DORIA, ESQUINA SON ARMADANS, S/N","city":"PALMA","cp":"07014","fuels":{"Gazole":{"p":1.689,"d":"2026-07-14"},"SP95":{"p":1.679,"d":"2026-07-14"},"SP98":{"p":1.779,"d":"2026-07-14"}},"brand":"BP","h24":true},{"id":100002704,"lat":39.552444,"lng":2.613889,"addr":"AVENIDA JOAN MIRO, 238","city":"PALMA","cp":"07015","fuels":{"Gazole":{"p":1.689,"d":"2026-07-14"},"SP95":{"p":1.669,"d":"2026-07-14"},"SP98":{"p":1.799,"d":"2026-07-14"}},"brand":"BP","h24":true},{"id":100002705,"lat":39.552028,"lng":2.616056,"addr":"AVENIDA JOAN MIRO, S/N","city":"PALMA","cp":"07015","fuels":{"Gazole":{"p":1.689,"d":"2026-07-14"},"SP95":{"p":1.669,"d":"2026-07-14"},"SP98":{"p":1.799,"d":"2026-07-14"}},"brand":"BP"},{"id":100002611,"lat":39.579306,"lng":2.636444,"addr":"CALLE PASCUAL RIBOT, S/N","city":"PALMA","cp":"07013","fuels":{"Gazole":{"p":1.649,"d":"2026-07-14"},"SP95":{"p":1.659,"d":"2026-07-14"},"SP98":{"p":1.795,"d":"2026-07-14"}},"brand":"Bp Es Forti"},{"id":100002740,"lat":39.584944,"lng":2.618722,"addr":"CAMI CAMI DE SON RAPINYA ESQ.CAMI DEL REIS, S/N","city":"PALMA","cp":"07013","fuels":{"Gazole":{"p":1.679,"d":"2026-07-14"},"SP95":{"p":1.669,"d":"2026-07-14"},"SP98":{"p":1.839,"d":"2026-07-14"},"GPLc":{"p":1.069,"d":"2026-07-14"}},"brand":"Repsol","h24":true},{"id":100002683,"lat":39.571861,"lng":2.636,"addr":"PLAZA PROGRESO, S/N","city":"PALMA","cp":"07013","fuels":{"Gazole":{"p":1.679,"d":"2026-07-14"},"SP95":{"p":1.669,"d":"2026-07-14"},"SP98":{"p":1.839,"d":"2026-07-14"}},"brand":"Repsol","h24":true},{"id":100002735,"lat":39.576167,"lng":2.685139,"addr":"CALLE CAMI SALARD, S/N","city":"PALMA","cp":"07010","fuels":{"Gazole":{"p":1.679,"d":"2026-07-14"},"SP95":{"p":1.669,"d":"2026-07-14"},"SP98":{"p":1.839,"d":"2026-07-14"},"GPLc":{"p":1.069,"d":"2026-07-14"}},"brand":"Repsol"},{"id":100002618,"lat":39.593,"lng":2.633472,"addr":"CALLE CAMINO DE LOS REYES, 201","city":"PALMA","cp":"07010","fuels":{"Gazole":{"p":1.675,"d":"2026-07-14"},"SP95":{"p":1.655,"d":"2026-07-14"},"SP98":{"p":1.815,"d":"2026-07-14"}},"brand":"Moeve","h24":true},{"id":100002615,"lat":39.605028,"lng":2.634639,"addr":"CALLE CORONEL BEORLEGUI, 49","city":"PALMA","cp":"07010","fuels":{"Gazole":{"p":1.679,"d":"2026-07-14"},"SP95":{"p":1.669,"d":"2026-07-14"},"SP98":{"p":1.839,"d":"2026-07-14"}},"brand":"Repsol"},{"id":100002573,"lat":39.629778,"lng":2.663583,"addr":"CARRETERA C-711 PALMA-SOLLER KM. 7","city":"PALMA","cp":"07120","fuels":{"Gazole":{"p":1.675,"d":"2026-07-14"},"SP95":{"p":1.659,"d":"2026-07-14"},"SP98":{"p":1.779,"d":"2026-07-14"}},"brand":"Repsol"},{"id":100002681,"lat":39.565194,"lng":2.6635,"addr":"CALLE MANUEL AZAÑA, 5","city":"PALMA","cp":"07006","fuels":{"Gazole":{"p":1.675,"d":"2026-07-14"},"SP95":{"p":1.665,"d":"2026-07-14"},"SP98":{"p":1.835,"d":"2026-07-14"}},"brand":"Cepsa","h24":true},{"id":100002597,"lat":39.511639,"lng":2.753389,"addr":"AVENIDA AMERICA, ARENAL, 18","city":"PALMA","cp":"07006","fuels":{"Gazole":{"p":1.689,"d":"2026-07-14"},"SP95":{"p":1.669,"d":"2026-07-14"},"SP98":{"p":1.799,"d":"2026-07-14"}},"brand":"BP","h24":true},{"id":100002682,"lat":39.566528,"lng":2.656778,"addr":"AVENIDA GABRIEL ALOMAR Y VILLALONGA, S/N","city":"PALMA","cp":"07006","fuels":{"Gazole":{"p":1.675,"d":"2026-07-14"},"SP95":{"p":1.665,"d":"2026-07-14"},"SP98":{"p":1.835,"d":"2026-07-14"}},"brand":"Repsol","h24":true},{"id":100002612,"lat":39.570083,"lng":2.688333,"addr":"CARRETERA C-715 KM. 2,7","city":"PALMA","cp":"07007","fuels":{"Gazole":{"p":1.679,"d":"2026-07-14"},"SP95":{"p":1.669,"d":"2026-07-14"},"SP98":{"p":1.789,"d":"2026-07-14"}},"brand":"Repsol"},{"id":100013602,"lat":39.552167,"lng":2.704222,"addr":"AVENIDA CARDENAL ROSELL,, S/N","city":"PALMA","cp":"07007","fuels":{"Gazole":{"p":1.629,"d":"2026-07-14"},"SP95":{"p":1.609,"d":"2026-07-14"},"SP98":{"p":1.749,"d":"2026-07-14"}},"brand":"Carrefour"},{"id":100015569,"lat":39.552417,"lng":2.709083,"addr":"ZONA COLL DEN RABASSA 31, POLIGONO 48 PARCELA 23, 31","city":"PALMA","cp":"07007","fuels":{"Gazole":{"p":1.569,"d":"2026-07-14"},"SP95":{"p":1.539,"d":"2026-07-14"}},"brand":"Set&go","h24":true},{"id":100014128,"lat":39.566222,"lng":2.68,"addr":"CARRER DE SON PENDOLA, 1","city":"PALMA","cp":"07007","fuels":{"Gazole":{"p":1.539,"d":"2026-07-14"},"SP95":{"p":1.539,"d":"2026-07-14"}},"brand":"Autonetoil","h24":true},{"id":100015894,"lat":39.566556,"lng":2.685333,"addr":"CARRER HORT DE LES ANIMES, 30","city":"PALMA","cp":"07007","fuels":{"Gazole":{"p":1.579,"d":"2026-07-14"},"SP95":{"p":1.579,"d":"2026-07-14"},"SP98":{"p":1.739,"d":"2026-07-14"}},"brand":"V2 Gasolineras","h24":true},{"id":100015248,"lat":39.574417,"lng":2.679611,"addr":"CALLE GEORGE SAND, 4","city":"PALMA","cp":"07007","fuels":{"Gazole":{"p":1.629,"d":"2026-07-14"},"SP95":{"p":1.609,"d":"2026-07-14"}},"brand":"Galp","h24":true},{"id":100013474,"lat":39.567083,"lng":2.685778,"addr":"CALLE HORT DE SES ÀNIMES, 23","city":"PALMA","cp":"07007","fuels":{"Gazole":{"p":1.588,"d":"2026-07-14"},"SP95":{"p":1.598,"d":"2026-07-14"},"SP98":{"p":1.768,"d":"2026-07-14"}},"brand":"Shell","h24":true},{"id":100002732,"lat":39.559083,"lng":2.678639,"addr":"CALLE LLUCMAJOR, 109","city":"PALMA","cp":"07007","fuels":{"Gazole":{"p":1.659,"d":"2026-07-14"},"SP95":{"p":1.645,"d":"2026-07-14"},"SP98":{"p":1.785,"d":"2026-07-14"}},"brand":"Bp Llucmajor","h24":true},{"id":100002693,"lat":39.54775,"lng":2.703083,"addr":"CL CAMINO CA,N PASTILLA, 37 (CAMNIO CAN PASTILLA 37)","city":"PALMA","cp":"07007","fuels":{"Gazole":{"p":1.679,"d":"2026-07-14"},"SP95":{"p":1.659,"d":"2026-07-14"},"SP98":{"p":1.779,"d":"2026-07-14"}},"brand":"Repsol"},{"id":100002654,"lat":39.557861,"lng":2.682333,"addr":"CALLE LLUCMAJOR, 148","city":"PALMA","cp":"07007","fuels":{"Gazole":{"p":1.675,"d":"2026-07-14"},"SP95":{"p":1.659,"d":"2026-07-14"},"SP98":{"p":1.789,"d":"2026-07-14"}},"brand":"Repsol"},{"id":100002587,"lat":39.581722,"lng":2.678806,"addr":"CALLE BINIAMAR, 16","city":"PALMA","cp":"07008","fuels":{"Gazole":{"p":1.599,"d":"2026-07-14"},"SP95":{"p":1.599,"d":"2026-07-14"},"SP98":{"p":1.699,"d":"2026-07-14"}},"brand":"Cepsa"},{"id":100002734,"lat":39.574389,"lng":2.675944,"addr":"CALLE SANT IGNASI, 68","city":"PALMA","cp":"07008","fuels":{"Gazole":{"p":1.675,"d":"2026-07-14"},"SP95":{"p":1.659,"d":"2026-07-14"},"SP98":{"p":1.779,"d":"2026-07-14"}},"brand":"Repsol"},{"id":100002743,"lat":39.589167,"lng":2.676472,"addr":"CALLE ARAGON, 217","city":"PALMA","cp":"07008","fuels":{"Gazole":{"p":1.675,"d":"2026-07-14"},"SP95":{"p":1.665,"d":"2026-07-14"},"SP98":{"p":1.835,"d":"2026-07-14"}},"brand":"Repsol","h24":true},{"id":100013162,"lat":39.589306,"lng":2.674778,"addr":"CALLE GABRIEL ALZAMORA, 25","city":"PALMA","cp":"07008","fuels":{"Gazole":{"p":1.619,"d":"2026-07-14"},"SP95":{"p":1.559,"d":"2026-07-14"}},"brand":"Autonet&oil","h24":true},{"id":100002688,"lat":39.584278,"lng":2.671556,"addr":"CALLE ARAGON, 180","city":"PALMA","cp":"07008","fuels":{"Gazole":{"p":1.659,"d":"2026-07-14"},"SP95":{"p":1.648,"d":"2026-07-14"},"SP98":{"p":1.799,"d":"2026-07-14"}},"brand":"Repsol","h24":true},{"id":100002726,"lat":39.597222,"lng":2.676389,"addr":"CALLE CALA BLANCA,, 9","city":"PALMA","cp":"07009","fuels":{"Gazole":{"p":1.675,"d":"2026-07-14"},"SP95":{"p":1.655,"d":"2026-07-14"},"SP98":{"p":1.805,"d":"2026-07-14"}},"brand":"Repsol"},{"id":100013713,"lat":39.591583,"lng":2.673639,"addr":"CALLE GUADIANA, 45","city":"PALMA","cp":"07009","fuels":{"Gazole":{"p":1.659,"d":"2026-07-14"},"SP95":{"p":1.649,"d":"2026-07-14"},"SP98":{"p":1.789,"d":"2026-07-14"}},"brand":"Shell"},{"id":100002613,"lat":39.593333,"lng":2.668944,"addr":"CARRETERA VIEJA DE BUÑOLA KM. 15","city":"PALMA","cp":"07009","fuels":{"Gazole":{"p":1.705,"d":"2026-07-14"},"SP95":{"p":1.665,"d":"2026-07-14"}},"brand":"Moeve"},{"id":100002649,"lat":39.586306,"lng":2.662056,"addr":"CALLE MUSICO ISAAC ALBENIZ, S/N","city":"PALMA","cp":"07009","fuels":{"Gazole":{"p":1.684,"d":"2026-07-14"},"SP95":{"p":1.667,"d":"2026-07-14"},"SP98":{"p":1.799,"d":"2026-07-14"}},"brand":"BP"},{"id":100002410,"lat":39.602361,"lng":2.674917,"addr":"CALLE CAMI VELL DE NUBYOLA, S/N","city":"PALMA","cp":"07009","fuels":{"Gazole":{"p":1.679,"d":"2026-07-14"},"SP95":{"p":1.669,"d":"2026-07-14"},"SP98":{"p":1.839,"d":"2026-07-14"}},"brand":"Repsol"},{"id":100012568,"lat":39.605528,"lng":2.658472,"addr":"CALLE GREMI SELLETERS I BASTERS, 12","city":"PALMA","cp":"07009","fuels":{"Gazole":{"p":1.569,"d":"2026-07-14"},"SP95":{"p":1.539,"d":"2026-07-14"},"GPLc":{"p":0.969,"d":"2026-07-14"}},"brand":"Set&go","h24":true},{"id":100013184,"lat":39.600639,"lng":2.65825,"addr":"CALLE GREMI CIRUGIANS I BARBERS, 11","city":"PALMA","cp":"07009","fuels":{"Gazole":{"p":1.619,"d":"2026-07-14"},"SP95":{"p":1.559,"d":"2026-07-14"}},"brand":"Autonet&oil","h24":true},{"id":100014411,"lat":39.607194,"lng":2.667889,"addr":"GRAN VÍA ASIMA, 23","city":"PALMA","cp":"07009","fuels":{"Gazole":{"p":1.679,"d":"2026-07-14"},"SP95":{"p":1.669,"d":"2026-07-14"}},"brand":"Galp","h24":true},{"id":100002584,"lat":39.606667,"lng":2.656056,"addr":"CALLE GREMI SUCRERS Y CANDELERS, 5","city":"PALMA","cp":"07009","fuels":{"Gazole":{"p":1.679,"d":"2026-07-14"},"SP95":{"p":1.669,"d":"2026-07-14"},"SP98":{"p":1.839,"d":"2026-07-14"},"GPLc":{"p":1.069,"d":"2026-07-14"}},"brand":"Repsol"},{"id":100002606,"lat":39.536722,"lng":2.719972,"addr":"CALLE TRAMUNTANA, S/N","city":"CAN PASTILLA","cp":"07610","fuels":{"Gazole":{"p":1.689,"d":"2026-07-14"},"SP95":{"p":1.669,"d":"2026-07-14"},"SP98":{"p":1.799,"d":"2026-07-14"}},"brand":"BP","h24":true},{"id":100002677,"lat":39.532722,"lng":2.72725,"addr":"CALLE MANUELA DE LOS HERREROS, 15","city":"CAN PASTILLA","cp":"07610","fuels":{"Gazole":{"p":1.675,"d":"2026-07-14"},"SP95":{"p":1.669,"d":"2026-07-14"},"SP98":{"p":1.809,"d":"2026-07-14"}},"brand":"Bp Playa De Palma"},{"id":100015537,"lat":39.527111,"lng":2.734833,"addr":"CARRER MARBELLA, 29","city":"PLATJA DE PALMA","cp":"07610","fuels":{"Gazole":{"p":1.579,"d":"2026-07-14"},"SP95":{"p":1.579,"d":"2026-07-14"},"SP98":{"p":1.739,"d":"2026-07-14"}},"brand":"V2 Gasolineras","h24":true},{"id":100012410,"lat":39.535472,"lng":2.735,"addr":"CAMINO SON FANGOS, 151","city":"PLATJA DE PALMA","cp":"07610","fuels":{"Gazole":{"p":1.679,"d":"2026-07-14"},"SP95":{"p":1.669,"d":"2026-07-14"},"SP98":{"p":1.839,"d":"2026-07-14"},"GPLc":{"p":1.099,"d":"2026-07-14"}},"brand":"Repsol","h24":true},{"id":100016373,"lat":39.532222,"lng":2.735056,"addr":"CALLE DE SAMIL, 59","city":"PLATJA DE PALMA","cp":"07070","fuels":{"Gazole":{"p":1.599,"d":"2026-07-14"},"SP95":{"p":1.609,"d":"2026-07-14"}},"brand":"Plenergy","h24":true},{"id":100002632,"lat":39.521167,"lng":2.749361,"addr":"CAMINO DE LAS MARAVILLA, S/N","city":"PLATJA DE PALMA","cp":"07608","fuels":{"Gazole":{"p":1.699,"d":"2026-07-14"},"SP95":{"p":1.689,"d":"2026-07-14"}},"brand":"Cepsa"},{"id":100002702,"lat":39.571194,"lng":2.721056,"addr":"CALLE MANACOR, 336","city":"SON SANT JOAN","cp":"07198","fuels":{"Gazole":{"p":1.679,"d":"2026-07-14"},"SP95":{"p":1.669,"d":"2026-07-14"},"SP98":{"p":1.829,"d":"2026-07-14"}},"brand":"Repsol"},{"id":100012582,"lat":39.565639,"lng":2.720917,"addr":"CAMI LA MILANA, 49","city":"SON SANT JOAN","cp":"07198","fuels":{"GPLc":{"p":0.959,"d":"2026-07-14"}},"brand":"Repsol Butano"},{"id":100002675,"lat":39.534972,"lng":2.750694,"addr":"CARRETERA LLUCMAJOR, KM10 KM. 10","city":"SON SANT JOAN","cp":"07199","fuels":{"Gazole":{"p":1.699,"d":"2026-07-14"},"SP95":{"p":1.669,"d":"2026-07-14"}},"brand":"Moeve"},{"id":100009871,"lat":39.570556,"lng":2.735833,"addr":"CTA. MANACOR C-715 km 6.7","city":"CASA BLANCA (SA)","cp":"07198","fuels":{"Gazole":{"p":1.659,"d":"2026-07-14"},"SP95":{"p":1.649,"d":"2026-07-14"},"SP98":{"p":1.789,"d":"2026-07-14"}},"brand":"Shell","h24":true},{"id":100011995,"lat":39.572528,"lng":2.714194,"addr":"CALLE MANACOR, 309","city":"CASA BLANCA (SA)","cp":"07198","fuels":{"Gazole":{"p":1.679,"d":"2026-07-14"},"SP95":{"p":1.669,"d":"2026-07-14"},"SP98":{"p":1.839,"d":"2026-07-14"}},"brand":"Repsol","h24":true},{"id":100002738,"lat":39.535306,"lng":2.736056,"addr":"CARRETERA 10, CAMINO DE CAN CAPO, SŽARANJASSA KM. 717","city":"ARANJASSA (S')","cp":"07199","fuels":{"Gazole":{"p":1.689,"d":"2026-07-14"},"SP95":{"p":1.679,"d":"2026-07-14"},"SP98":{"p":1.779,"d":"2026-07-14"}},"brand":"BP","h24":true},{"id":100002663,"lat":39.545917,"lng":2.722944,"addr":"AE VIAL SALIDA AEROPUERTO, S.N.","city":"PALMA","cp":"07611","fuels":{"Gazole":{"p":1.675,"d":"2026-07-14"},"SP95":{"p":1.679,"d":"2026-07-14"},"SP98":{"p":1.799,"d":"2026-07-14"},"GPLc":{"p":1.119,"d":"2026-07-14"}},"brand":"Repsol","h24":true},{"id":100002684,"lat":39.576111,"lng":3.133833,"addr":"CARRETERA C-715 KM. 42,5","city":"PETRA","cp":"07520","fuels":{"Gazole":{"p":1.719,"d":"2026-07-14"},"SP95":{"p":1.699,"d":"2026-07-14"}},"brand":"Cepsa"},{"id":100002718,"lat":39.625889,"lng":3.109028,"addr":"CARRETERA PM-334 KM. 1,1","city":"PETRA","cp":"07520","fuels":{"Gazole":{"p":1.709,"d":"2026-07-14"},"SP95":{"p":1.709,"d":"2026-07-14"},"SP98":{"p":1.909,"d":"2026-07-14"}},"brand":"Repsol"},{"id":100002639,"lat":39.765472,"lng":3.029667,"addr":"CARRETERA MURO KM. 0","city":"POBLA (SA)","cp":"07420","fuels":{"Gazole":{"p":1.689,"d":"2026-07-14"},"SP95":{"p":1.669,"d":"2026-07-14"},"SP98":{"p":1.809,"d":"2026-07-14"}},"brand":"Bp Sa Pobla"},{"id":100014388,"lat":39.775028,"lng":3.023944,"addr":"CALLE JOAN PIZA I MASSANET, 5","city":"POBLA (SA)","cp":"07420","fuels":{"Gazole":{"p":1.529,"d":"2026-07-14"},"SP95":{"p":1.519,"d":"2026-07-14"}},"brand":"Eroski","h24":true},{"id":100002672,"lat":39.771472,"lng":3.016944,"addr":"CALLE TRAJINERS, SN","city":"POBLA (SA)","cp":"07420","fuels":{"Gazole":{"p":1.579,"d":"2026-07-14"},"SP95":{"p":1.569,"d":"2026-07-14"}},"brand":"Ballenoil","h24":true},{"id":100015969,"lat":39.775861,"lng":3.02475,"addr":"ROTONDA ALBUFERA, 2","city":"POBLA (SA)","cp":"07420","fuels":{"Gazole":{"p":1.579,"d":"2026-07-14"},"SP95":{"p":1.569,"d":"2026-07-14"}},"brand":"Plenergy","h24":true},{"id":100002698,"lat":39.904694,"lng":3.077333,"addr":"CALLE JUAN XXIII, 133","city":"POLLENÇA","cp":"07460","fuels":{"Gazole":{"p":1.699,"d":"2026-07-14"},"SP95":{"p":1.669,"d":"2026-07-14"},"SP98":{"p":1.809,"d":"2026-07-14"}},"brand":"Bp Puerto Pollensa"},{"id":100013588,"lat":39.885639,"lng":3.030611,"addr":"CALLE FUSTER, 35","city":"POLLENÇA","cp":"07460","fuels":{"SP95":{"p":1.645,"d":"2026-07-14"}},"brand":"Galp"},{"id":100015079,"lat":39.886222,"lng":3.029611,"addr":"CALLE FUSTER DEL, 47","city":"POLLENÇA","cp":"07460","fuels":{"Gazole":{"p":1.559,"d":"2026-07-14"},"SP95":{"p":1.529,"d":"2026-07-14"}},"brand":"Just Fuel","h24":true},{"id":100002650,"lat":39.873722,"lng":3.016083,"addr":"CL CECILIO METELO-ESQ.PUIG MARI, S.","city":"POLLENÇA","cp":"07460","fuels":{"Gazole":{"p":1.699,"d":"2026-07-14"},"SP95":{"p":1.639,"d":"2026-07-14"},"SP98":{"p":1.759,"d":"2026-07-14"}},"brand":"Repsol"},{"id":100002673,"lat":39.520056,"lng":3.019583,"addr":"CARRERA PM-503 KM. 5,5,","city":"PORRERES","cp":"07260","fuels":{"Gazole":{"p":1.699,"d":"2026-07-14"},"SP95":{"p":1.689,"d":"2026-07-14"},"SP98":{"p":1.859,"d":"2026-07-14"}},"brand":"BP"},{"id":100002679,"lat":39.341333,"lng":3.046389,"addr":"AVENIDA FRANCESC DE BORJA MOLL, 61","city":"SALINES (SES)","cp":"07640","fuels":{"Gazole":{"p":1.729,"d":"2026-07-14"},"SP95":{"p":1.719,"d":"2026-07-14"}},"brand":"Cepsa"},{"id":100002624,"lat":39.320111,"lng":3.000056,"addr":"CALLE GABRIEL ROCA, 129","city":"COLONIA DE SANT JORDI","cp":"07638","fuels":{"Gazole":{"p":1.699,"d":"2026-07-14"},"SP95":{"p":1.689,"d":"2026-07-14"},"SP98":{"p":1.809,"d":"2026-07-14"}},"brand":"Repsol"},{"id":100002725,"lat":38.975056,"lng":1.331,"addr":"CARRETERA C-731 KM. 13","city":"SANT ANTONI DE PORTMANY","cp":"07820","fuels":{"Gazole":{"p":1.685,"d":"2026-07-14"},"SP95":{"p":1.625,"d":"2026-07-14"}},"brand":"Moeve","h24":true},{"id":100002623,"lat":38.972528,"lng":1.309222,"addr":"AVENIDA DOCTOR FLEMING, S/N","city":"SANT ANTONI DE PORTMANY","cp":"07820","fuels":{"Gazole":{"p":1.719,"d":"2026-07-14"},"SP95":{"p":1.689,"d":"2026-07-14"}},"brand":"Cepsa"},{"id":100015776,"lat":38.975861,"lng":1.322444,"addr":"AVENIDA SES PAISSES, 4","city":"SANT ANTONI DE PORTMANY","cp":"07820","fuels":{"Gazole":{"p":1.559,"d":"2026-07-14"},"SP95":{"p":1.569,"d":"2026-07-14"}},"brand":"Eroski"},{"id":100002581,"lat":38.9835,"lng":1.297806,"addr":"CALLE CERVANTES ESQUINA VELAZQUEZ, 44","city":"SANT ANTONI DE PORTMANY","cp":"07820","fuels":{"Gazole":{"p":1.715,"d":"2026-07-14"},"SP95":{"p":1.695,"d":"2026-07-14"}},"brand":"Moeve"},{"id":100016266,"lat":38.942194,"lng":1.412972,"addr":"AVENIDA LLAURADORS, 19","city":"SANT RAFEL","cp":"07816","fuels":{"Gazole":{"p":1.579,"d":"2026-07-14"},"SP95":{"p":1.589,"d":"2026-07-14"}},"brand":"Autonetoil","h24":true},{"id":100011781,"lat":38.94275,"lng":1.41275,"addr":"CALLE DES LLAURADORS, 19","city":"SANT RAFEL","cp":"07816","fuels":{"Gazole":{"p":1.709,"d":"2026-07-14"},"SP95":{"p":1.679,"d":"2026-07-14"},"SP98":{"p":1.819,"d":"2026-07-14"}},"brand":"BP"},{"id":100002577,"lat":38.961306,"lng":1.397306,"addr":"CARRETERA C-731 KM. 7,15","city":"SANT RAFEL","cp":"07816","fuels":{"Gazole":{"p":1.699,"d":"2026-07-14"},"SP95":{"p":1.689,"d":"2026-07-14"},"SP98":{"p":1.809,"d":"2026-07-14"},"GPLc":{"p":1.099,"d":"2026-07-14"}},"brand":"Repsol","h24":true},{"id":100002723,"lat":39.569833,"lng":3.067806,"addr":"CARRETERA MA-15 KM. 36,6","city":"SANT JOAN","cp":"07240","fuels":{"Gazole":{"p":1.679,"d":"2026-07-14"},"SP95":{"p":1.669,"d":"2026-07-14"},"SP98":{"p":1.839,"d":"2026-07-14"}},"brand":"Repsol"},{"id":100002622,"lat":39.070278,"lng":1.496222,"addr":"CARRETERA C-733 KM. 19,700","city":"SANT JOAN DE LABRITJA","cp":"07810","fuels":{"Gazole":{"p":1.699,"d":"2026-07-14"},"SP95":{"p":1.679,"d":"2026-07-14"},"SP98":{"p":1.799,"d":"2026-07-14"}},"brand":"Repsol"},{"id":100002630,"lat":38.886028,"lng":1.392139,"addr":"CARRETERA AEROPUERTO KM. 4,5","city":"SANT JOSEP DE SA TALAIA","cp":"07830","fuels":{"Gazole":{"p":1.725,"d":"2026-07-14"},"SP95":{"p":1.695,"d":"2026-07-14"},"SP98":{"p":1.835,"d":"2026-07-14"}},"brand":"Bp Sant Jordi","h24":true},{"id":100002696,"lat":38.92175,"lng":1.305611,"addr":"CARRETERA PM-803 KM. 14,3","city":"SANT JOSEP DE SA TALAIA","cp":"07830","fuels":{"Gazole":{"p":1.725,"d":"2026-07-14"},"SP95":{"p":1.685,"d":"2026-07-14"}},"brand":"Moeve"},{"id":100002567,"lat":39.5805,"lng":3.361611,"addr":"CARRETERA CARRET.PORTO CRISTO-SON SERVERA,KM.5,200 KM. 5,200","city":"SANT LLORENÇ DES CARDASSAR","cp":"07530","fuels":{"Gazole":{"p":1.659,"d":"2026-07-14"},"SP95":{"p":1.639,"d":"2026-07-14"},"SP98":{"p":1.809,"d":"2026-07-14"}},"brand":"Repsol"},{"id":100002566,"lat":39.600722,"lng":3.270694,"addr":"CARRETERA MA15 KM. 54,800","city":"SANT LLORENÇ DES CARDASSAR","cp":"07530","fuels":{"Gazole":{"p":1.658,"d":"2026-07-14"},"SP95":{"p":1.638,"d":"2026-07-14"},"SP98":{"p":1.798,"d":"2026-07-14"}},"brand":"Repsol"},{"id":100002575,"lat":39.59625,"lng":3.382056,"addr":"CALLE ES CARRERO, 0","city":"SON MORO","cp":"07560","fuels":{"Gazole":{"p":1.675,"d":"2026-07-14"},"SP95":{"p":1.655,"d":"2026-07-14"}},"brand":"Moeve","h24":true},{"id":100002580,"lat":39.852722,"lng":4.259056,"addr":"AVENIDA DE SA PAU, 6","city":"SANT LLUIS","cp":"07710","fuels":{"Gazole":{"p":1.729,"d":"2026-07-14"},"SP95":{"p":1.729,"d":"2026-07-14"}},"brand":"Bp San Luis","h24":true},{"id":100013028,"lat":39.8585,"lng":4.259028,"addr":"AVENIDA TALAIOT, 1","city":"SANT LLUIS","cp":"07710","fuels":{"Gazole":{"p":1.609,"d":"2026-07-14"},"SP95":{"p":1.589,"d":"2026-07-14"}},"brand":"Eroski","h24":true},{"id":100002602,"lat":39.612667,"lng":2.834306,"addr":"CARRETERA VELLA DE SINEU PMV3011 KM. 15,5","city":"SANTA EUGENIA","cp":"07142","fuels":{"Gazole":{"p":1.659,"d":"2026-07-14"},"SP95":{"p":1.649,"d":"2026-07-14"},"SP98":{"p":1.799,"d":"2026-07-14"}},"brand":"Shell"},{"id":100002643,"lat":38.983528,"lng":1.531861,"addr":"AVENIDA SAN JAUME, 30","city":"SANTA EULALIA","cp":"07840","fuels":{"Gazole":{"p":1.729,"d":"2026-07-14"},"SP95":{"p":1.699,"d":"2026-07-14"},"SP98":{"p":1.839,"d":"2026-07-14"}},"brand":"Bp Santa Eulalia - Ibiza"},{"id":100002697,"lat":38.984889,"lng":1.495111,"addr":"CARRETERA PM-810 KM. 3,3","city":"SANTA EULALIA","cp":"07840","fuels":{"Gazole":{"p":1.735,"d":"2026-07-14"},"SP95":{"p":1.675,"d":"2026-07-14"}},"brand":"Moeve"},{"id":100012564,"lat":38.982667,"lng":1.529167,"addr":"CARRETERA PM-810 KM. 4,150","city":"SANTA EULALIA","cp":"07840","fuels":{"Gazole":{"p":1.609,"d":"2026-07-14"}},"brand":"Cooperativa Santa Eulalia"},{"id":100002730,"lat":38.987917,"lng":1.538861,"addr":"CARRETERA PM-810 KM. 0,3","city":"SANTA EULALIA","cp":"07840","fuels":{"Gazole":{"p":1.739,"d":"2026-07-14"},"SP95":{"p":1.699,"d":"2026-07-14"},"SP98":{"p":1.839,"d":"2026-07-14"},"GPLc":{"p":1.095,"d":"2026-07-14"}},"brand":"Repsol"},{"id":100012388,"lat":38.991556,"lng":1.434167,"addr":"CARRETERA IBIZA - SAN MIGUEL KM. 4,9","city":"SANTA GERTRUDIS","cp":"07814","fuels":{"Gazole":{"p":1.72,"d":"2026-07-14"},"SP95":{"p":1.675,"d":"2026-07-14"},"SP98":{"p":1.82,"d":"2026-07-14"}},"brand":"BP"},{"id":100002411,"lat":39.762,"lng":3.152361,"addr":"CARRETERA ARTA-PTO.ALCUDIA,99,","city":"CA'N PICAFORT","cp":"07458","fuels":{"Gazole":{"p":1.679,"d":"2026-07-14"},"SP95":{"p":1.689,"d":"2026-07-14"},"SP98":{"p":1.83,"d":"2026-07-14"}},"brand":"Bp Ca Sestrella"},{"id":100016458,"lat":39.755389,"lng":3.157806,"addr":"CALLE SES PEDRERES, 7","city":"CA'N PICAFORT","cp":"07458","fuels":{"Gazole":{"p":1.559,"d":"2026-07-14"},"SP95":{"p":1.559,"d":"2026-07-14"}},"brand":"Just Fuel","h24":true},{"id":100002699,"lat":39.763139,"lng":3.15075,"addr":"C-712 km 22,3","city":"CA'N PICAFORT","cp":"07458","fuels":{"Gazole":{"p":1.679,"d":"2026-07-14"},"SP95":{"p":1.689,"d":"2026-07-14"},"SP98":{"p":1.829,"d":"2026-07-14"}},"brand":"Repsol"},{"id":100002676,"lat":39.701556,"lng":3.10075,"addr":"CR STA. MARGARITA-PETRA KM  10,7","city":"CA'N PICAFORT","cp":"07450","fuels":{"Gazole":{"p":1.679,"d":"2026-07-14"},"SP95":{"p":1.689,"d":"2026-07-14"}},"brand":"Bp Munar Capo"},{"id":100002664,"lat":39.651694,"lng":2.773861,"addr":"PLAZA HOSTALS, 4","city":"SANTA MARIA DEL CAMI","cp":"07320","fuels":{"Gazole":{"p":1.699,"d":"2026-07-14"},"SP95":{"p":1.669,"d":"2026-07-14"}},"brand":"Cepsa"},{"id":100002712,"lat":39.64825,"lng":2.757056,"addr":"CR C-713, 13,1","city":"SANTA MARIA DEL CAMI","cp":"07320","fuels":{"Gazole":{"p":1.689,"d":"2026-07-14"},"SP95":{"p":1.669,"d":"2026-07-14"},"SP98":{"p":1.799,"d":"2026-07-14"}},"brand":"Repsol"},{"id":100011945,"lat":39.370778,"lng":3.1475,"addr":"CARRETERA C-717 KM. 53,7","city":"SANTANYI","cp":"07650","fuels":{"Gazole":{"p":1.689,"d":"2026-07-14"},"SP95":{"p":1.679,"d":"2026-07-14"},"SP98":{"p":1.849,"d":"2026-07-14"}},"brand":"Repsol"},{"id":100002680,"lat":39.383944,"lng":3.166778,"addr":"CARRER CONVENT, 29","city":"SANTANYI","cp":"07650","fuels":{"Gazole":{"p":1.709,"d":"2026-07-14"},"SP95":{"p":1.699,"d":"2026-07-14"}},"brand":"Cepsa"},{"id":100002707,"lat":39.426417,"lng":3.024111,"addr":"CARRETERA C-717 KM. 38","city":"SANTANYI","cp":"07650","fuels":{"Gazole":{"p":1.679,"d":"2026-07-14"},"SP95":{"p":1.695,"d":"2026-07-14"},"SP98":{"p":1.815,"d":"2026-07-14"}},"brand":"Repsol"},{"id":100002727,"lat":39.379917,"lng":3.226833,"addr":"AVENIDA BIENVENIDOS, 36","city":"CALA D'OR","cp":"07660","fuels":{"Gazole":{"p":1.695,"d":"2026-07-14"},"SP95":{"p":1.685,"d":"2026-07-14"},"SP98":{"p":1.839,"d":"2026-07-14"}},"brand":"Moeve","h24":true},{"id":100002589,"lat":39.378722,"lng":3.227056,"addr":"AVINGUDA BENVINGUTS, 64","city":"CALA D'OR","cp":"07660","fuels":{"Gazole":{"p":1.679,"d":"2026-07-14"},"SP95":{"p":1.669,"d":"2026-07-14"}},"brand":"Repsol"},{"id":100002642,"lat":39.645694,"lng":2.878639,"addr":"CARRETERA SANTA MARIA-SENCELLES KM. 9,9","city":"SENCELLES","cp":"07140","fuels":{"Gazole":{"p":1.699,"d":"2026-07-14"},"SP95":{"p":1.679,"d":"2026-07-14"}},"brand":"Repsol"},{"id":100009870,"lat":39.641944,"lng":3.02825,"addr":"CARRETERA 3301 KM. 1,5","city":"SINEU","cp":"07510","fuels":{"Gazole":{"p":1.659,"d":"2026-07-14"},"SP95":{"p":1.649,"d":"2026-07-14"},"SP98":{"p":1.789,"d":"2026-07-14"}},"brand":"Shell","h24":true},{"id":100002616,"lat":39.646083,"lng":3.006083,"addr":"CARRETERA PM-324 KM. 11,5","city":"SINEU","cp":"07510","fuels":{"Gazole":{"p":1.689,"d":"2026-07-14"},"SP95":{"p":1.659,"d":"2026-07-14"}},"brand":"Repsol"},{"id":100002719,"lat":39.765778,"lng":2.708389,"addr":"CTRA. MA-11, 30","city":"SOLLER","cp":"07100","fuels":{"Gazole":{"p":1.669,"d":"2026-07-14"},"SP95":{"p":1.649,"d":"2026-07-14"},"SP98":{"p":1.799,"d":"2026-07-14"}},"brand":"Repsol"},{"id":100016066,"lat":39.769944,"lng":2.70325,"addr":"CALLE MANUEL CARRASCOSA, 10","city":"SOLLER","cp":"07100","fuels":{"Gazole":{"p":1.539,"d":"2026-07-14"},"SP95":{"p":1.529,"d":"2026-07-14"}},"brand":"Just Fuel","h24":true},{"id":100002739,"lat":39.614028,"lng":3.370222,"addr":"CARRETERA SON SERVERA KM. 1,5","city":"SON SERVERA","cp":"07550","fuels":{"Gazole":{"p":1.658,"d":"2026-07-14"},"SP95":{"p":1.638,"d":"2026-07-14"},"SP98":{"p":1.798,"d":"2026-07-14"}},"brand":"Repsol","h24":true},{"id":100014144,"lat":39.643333,"lng":3.373417,"addr":"CARRETERA MA-4040 KM. 2,5","city":"SON SERVERA","cp":"07550","fuels":{"GPLc":{"p":0.949,"d":"2026-07-14"}},"brand":"Repsol"},{"id":100002641,"lat":39.712778,"lng":2.60975,"addr":"CARRETERA DE DEIA,S/N KM. 71,110","city":"VALLDEMOSSA","cp":"07170","fuels":{"Gazole":{"p":1.684,"d":"2026-07-14"},"SP95":{"p":1.669,"d":"2026-07-14"},"SP98":{"p":1.809,"d":"2026-07-14"}},"brand":"Shell"},{"id":100011560,"lat":39.643333,"lng":2.648028,"addr":"CARRETERA PM-111 KM. 8,6","city":"VALLDEMOSSA","cp":"07170","fuels":{"Gazole":{"p":1.685,"d":"2026-07-14"},"SP95":{"p":1.669,"d":"2026-07-14"},"SP98":{"p":1.789,"d":"2026-07-14"}},"brand":"Repsol"},{"id":100002599,"lat":39.575611,"lng":3.134056,"addr":"CARRETERA C-715 KM. 42,5","city":"VILAFRANCA DE BONANY","cp":"07250","fuels":{"Gazole":{"p":1.7,"d":"2026-07-14"},"SP95":{"p":1.695,"d":"2026-07-14"},"E10":{"p":1.787,"d":"2026-07-14"}},"brand":"Cepsa"}]