[{"id":100011139,"lat":38.873806,"lng":-4.351333,"addr":"CTRA.CM-4.110 km 26,000","city":"ABENOJAR","cp":"13180","fuels":{"Gazole":{"p":1.599,"d":"2026-07-14"},"SP95":{"p":1.585,"d":"2026-07-14"},"SP98":{"p":1.755,"d":"2026-07-14"}},"brand":"Galp"},{"id":100005165,"lat":38.980472,"lng":-4.864444,"addr":"CR N-502, 32,8","city":"AGUDO","cp":"13410","fuels":{"Gazole":{"p":1.549,"d":"2026-07-14"},"SP95":{"p":1.549,"d":"2026-07-14"}},"brand":"Petronor"},{"id":100015546,"lat":39.381778,"lng":-3.207778,"addr":"AVENIDA CERVERA, 81","city":"ALCAZAR DE SAN JUAN","cp":"13600","fuels":{"Gazole":{"p":1.618,"d":"2026-07-14"},"SP95":{"p":1.579,"d":"2026-07-14"}},"brand":"Cepsa"},{"id":100009622,"lat":39.400222,"lng":-3.216639,"addr":"CTRA. N-420 km 286.6","city":"ALCAZAR DE SAN JUAN","cp":"13600","fuels":{"Gazole":{"p":1.604,"d":"2026-07-14"},"SP95":{"p":1.558,"d":"2026-07-14"}},"brand":"Cepsa"},{"id":100011153,"lat":39.386361,"lng":-3.237194,"addr":"CARRETERA N-420 KM. 284,227","city":"ALCAZAR DE SAN JUAN","cp":"13600","fuels":{"Gazole":{"p":1.479,"d":"2026-07-14"},"SP95":{"p":1.469,"d":"2026-07-14"}},"brand":"Plenergy","h24":true},{"id":100005143,"lat":39.388139,"lng":-3.220639,"addr":"CL AVENIDA DE HERENCIA S.N.","city":"ALCAZAR DE SAN JUAN","cp":"13600","fuels":{"Gazole":{"p":1.595,"d":"2026-07-14"},"SP95":{"p":1.575,"d":"2026-07-14"}},"brand":"Repsol"},{"id":100013808,"lat":39.3995,"lng":-3.2185,"addr":"CALLE ALBARIÑO, 2","city":"ALCAZAR DE SAN JUAN","cp":"13600","fuels":{"Gazole":{"p":1.439,"d":"2026-07-14"},"SP95":{"p":1.429,"d":"2026-07-14"}},"brand":"GasExpress","h24":true},{"id":100012487,"lat":39.39525,"lng":-3.226639,"addr":"VÍA PG RESID ALCES, 1","city":"ALCAZAR DE SAN JUAN","cp":"13600","fuels":{"Gazole":{"p":1.539,"d":"2026-07-14"},"SP95":{"p":1.529,"d":"2026-07-14"},"GPLc":{"p":1.083,"d":"2026-07-14"}},"brand":"Macmaoil"},{"id":100005205,"lat":39.388333,"lng":-3.230528,"addr":"CR N-420, 284,7","city":"ALCAZAR DE SAN JUAN","cp":"13600","fuels":{"Gazole":{"p":1.609,"d":"2026-07-14"},"SP95":{"p":1.565,"d":"2026-07-14"},"SP98":{"p":1.685,"d":"2026-07-14"},"GPLc":{"p":1.089,"d":"2026-07-14"}},"brand":"Repsol"},{"id":100012658,"lat":39.381361,"lng":-3.207389,"addr":"CALLE ALAMEDA, 5","city":"ALCAZAR DE SAN JUAN","cp":"13600","fuels":{"Gazole":{"p":1.449,"d":"2026-07-14"},"SP95":{"p":1.439,"d":"2026-07-14"}},"brand":"Ecozoil","h24":true},{"id":100014386,"lat":39.39225,"lng":-3.224611,"addr":"AVENIDA DE LOS INSTITUTOS, S/N","city":"ALCAZAR DE SAN JUAN","cp":"13600","fuels":{"Gazole":{"p":1.439,"d":"2026-07-14"},"SP95":{"p":1.429,"d":"2026-07-14"}},"brand":"Ballenoil","h24":true},{"id":100005177,"lat":39.26325,"lng":-3.123944,"addr":"ESTRADA CM-42, 106/108","city":"ALAMEDA DE CERVERA","cp":"13690","fuels":{"Gazole":{"p":1.585,"d":"2026-07-14"},"SP95":{"p":1.55,"d":"2026-07-14"}},"brand":"Moeve"},{"id":100013288,"lat":39.168306,"lng":-3.231611,"addr":"CARRETERA ARGAMASILLA DE ALBA-CINCO CASAS KM. 17","city":"CINCO CASAS","cp":"13720","fuels":{"Gazole":{"p":1.469,"d":"2026-07-14"},"SP95":{"p":1.519,"d":"2026-07-14"}},"brand":"Gas Solis"},{"id":100008264,"lat":38.989722,"lng":-4.091278,"addr":"CARRETERA N-430 KM. 290","city":"ALCOLEA DE CALATRAVA","cp":"13107","fuels":{"Gazole":{"p":1.509,"d":"2026-07-14"},"SP95":{"p":1.509,"d":"2026-07-14"}},"brand":"Libre"},{"id":100005112,"lat":38.75575,"lng":-3.139194,"addr":"CALLE REAL, S/N","city":"ALCUBILLAS","cp":"13391","fuels":{"Gazole":{"p":1.629,"d":"2026-07-14"},"SP95":{"p":1.599,"d":"2026-07-14"}},"brand":"Cepsa"},{"id":100005117,"lat":38.777639,"lng":-4.831306,"addr":"AVENIDA RAMON Y CAJAL, 61","city":"ALMADEN","cp":"13400","fuels":{"Gazole":{"p":1.589,"d":"2026-07-14"},"SP95":{"p":1.569,"d":"2026-07-14"}},"brand":"El Cristo"},{"id":100004404,"lat":38.786833,"lng":-4.82125,"addr":"POLIGONO POZO DE LAS NIEVES, 12","city":"ALMADEN","cp":"13400","fuels":{"Gazole":{"p":1.589,"d":"2026-07-14"},"SP95":{"p":1.569,"d":"2026-07-14"}},"brand":"Hgoil"},{"id":100005144,"lat":38.890417,"lng":-3.715389,"addr":"CALLE RONDA SANTO DOMINGO, S/N","city":"ALMAGRO","cp":"13270","fuels":{"Gazole":{"p":1.629,"d":"2026-07-14"},"SP95":{"p":1.615,"d":"2026-07-14"}},"brand":"Repsol"},{"id":100005186,"lat":38.885111,"lng":-3.708056,"addr":"CALLE EJIDO DE SAN JUAN, 0","city":"ALMAGRO","cp":"13270","fuels":{"Gazole":{"p":1.669,"d":"2026-07-14"},"SP95":{"p":1.619,"d":"2026-07-14"}},"brand":"Cepsa"},{"id":100014515,"lat":38.895444,"lng":-3.715222,"addr":"CALLE ADOLFO SUAREZ, 5","city":"ALMAGRO","cp":"13270","fuels":{"Gazole":{"p":1.489,"d":"2026-07-14"},"SP95":{"p":1.459,"d":"2026-07-14"}},"brand":"Teb  24/7","h24":true},{"id":100015496,"lat":38.891306,"lng":-3.732583,"addr":"CALLE ISAAC PERAL, 13","city":"ALMAGRO","cp":"13260","fuels":{"Gazole":{"p":1.499,"d":"2026-07-14"},"SP95":{"p":1.469,"d":"2026-07-14"}},"brand":"Energias Af","h24":true},{"id":100012773,"lat":38.621444,"lng":-2.955028,"addr":"CARRETERA PUEBLA DEL PRINCIPE KM. 1","city":"ALMEDINA","cp":"13328","fuels":{"Gazole":{"p":1.369,"d":"2026-07-14"},"SP95":{"p":1.379,"d":"2026-07-14"}},"brand":"E.S. San Gregorio","h24":true},{"id":100005226,"lat":38.712,"lng":-4.168778,"addr":"CARRETERA CM 4110 KM. 6","city":"ALMODOVAR DEL CAMPO","cp":"13580","fuels":{"Gazole":{"p":1.619,"d":"2026-07-14"},"SP95":{"p":1.595,"d":"2026-07-14"},"SP98":{"p":1.765,"d":"2026-07-14"}},"brand":"Repsol"},{"id":100005210,"lat":38.508444,"lng":-3.497778,"addr":"AUTOVIA N-IV KM. 232","city":"ALMURADIEL","cp":"13760","fuels":{"Gazole":{"p":1.605,"d":"2026-07-14"},"SP95":{"p":1.605,"d":"2026-07-14"},"SP98":{"p":1.775,"d":"2026-07-14"}},"brand":"Repsol"},{"id":100005211,"lat":38.506639,"lng":-3.496667,"addr":"AUTOVIA N-4 KM. 232","city":"ALMURADIEL","cp":"13760","fuels":{"Gazole":{"p":1.605,"d":"2026-07-14"},"SP95":{"p":1.605,"d":"2026-07-14"},"SP98":{"p":1.775,"d":"2026-07-14"}},"brand":"Repsol","h24":true},{"id":100016429,"lat":38.515278,"lng":-3.495,"addr":"CALLE DOCTOR PATRICIO FERNANDEZ, 2","city":"ALMURADIEL","cp":"13760","fuels":{"Gazole":{"p":1.399,"d":"2026-07-14"},"SP95":{"p":1.429,"d":"2026-07-14"}},"brand":"Beroil","h24":true},{"id":100005274,"lat":39.241778,"lng":-3.4985,"addr":"N-420 km 252,1","city":"ARENAS DE SAN JUAN","cp":"13679","fuels":{"Gazole":{"p":1.635,"d":"2026-07-14"},"SP95":{"p":1.615,"d":"2026-07-14"}},"brand":"Repsol"},{"id":100004825,"lat":39.131944,"lng":-3.079389,"addr":"CR N-310, 85,1 (N-310 km 85,18)","city":"ARGAMASILLA DE ALBA","cp":"13710","fuels":{"Gazole":{"p":1.639,"d":"2026-07-14"},"SP95":{"p":1.555,"d":"2026-07-14"},"SP98":{"p":1.759,"d":"2026-07-14"}},"brand":"Repsol E.S.Mila Hermanos Redondo S.L."},{"id":100014695,"lat":39.125722,"lng":-3.111111,"addr":"CARRETERA NACIONAL 310 KM. 81","city":"ARGAMASILLA DE ALBA","cp":"13710","fuels":{"Gazole":{"p":1.519,"d":"2026-07-14"},"SP95":{"p":1.439,"d":"2026-07-14"}},"brand":"Mancha Centro","h24":true},{"id":100005231,"lat":39.127306,"lng":-3.108861,"addr":"CARRETERA NACIONAL 310, KM. 82,500","city":"ARGAMASILLA DE ALBA","cp":"13710","fuels":{"Gazole":{"p":1.639,"d":"2026-07-14"},"SP95":{"p":1.559,"d":"2026-07-14"},"SP98":{"p":1.729,"d":"2026-07-14"}},"brand":"Repsol"},{"id":100013077,"lat":38.723028,"lng":-4.086778,"addr":"POLIGONO MANZANARES, 6","city":"ARGAMASILLA DE CALATRAVA","cp":"13440","fuels":{"Gazole":{"p":1.589,"d":"2026-07-14"},"SP95":{"p":1.569,"d":"2026-07-14"}},"brand":"Gasoleosjuco"},{"id":100014463,"lat":38.717972,"lng":-4.08575,"addr":"CARRETERA ARGAMASILLA DE CALATRAVA S/N KM. 165,20","city":"ARGAMASILLA DE CALATRAVA","cp":"13440","fuels":{"Gazole":{"p":1.667,"d":"2026-07-14"}},"brand":"Tradilo Inversiones Sl"},{"id":100004858,"lat":38.718028,"lng":-4.071306,"addr":"CARRETERA CR-506 KM. 3,300","city":"ARGAMASILLA DE CALATRAVA","cp":"13440","fuels":{"Gazole":{"p":1.615,"d":"2026-07-14"},"SP95":{"p":1.605,"d":"2026-07-14"},"SP98":{"p":1.775,"d":"2026-07-14"}},"brand":"Repsol"},{"id":100010674,"lat":38.904139,"lng":-3.677333,"addr":"CALLE CTRA. C-417, PK. KM 17,, 17","city":"BOLAÑOS DE CALATRAVA","cp":"13260","fuels":{"Gazole":{"p":1.599,"d":"2026-07-14"},"SP95":{"p":1.579,"d":"2026-07-14"},"SP98":{"p":1.619,"d":"2026-07-14"}},"brand":"Q8","h24":true},{"id":100010240,"lat":38.914944,"lng":-3.662944,"addr":"CARRETERA DAIMIEL KM. 23","city":"BOLAÑOS DE CALATRAVA","cp":"13260","fuels":{"Gazole":{"p":1.669,"d":"2026-07-14"},"SP95":{"p":1.619,"d":"2026-07-14"}},"brand":"Cepsa"},{"id":100015672,"lat":38.897083,"lng":-3.653778,"addr":"SECTOR 5 LOS CALARES, 1","city":"BOLAÑOS DE CALATRAVA","cp":"13260","fuels":{"Gazole":{"p":1.478,"d":"2026-07-14"},"SP95":{"p":1.445,"d":"2026-07-14"},"GPLc":{"p":1.042,"d":"2026-07-14"}},"brand":"Coovimag","h24":true},{"id":100004365,"lat":38.897112,"lng":-3.655967,"addr":"CARDENAL CISNEROS, S/N","city":"BOLAÑOS DE CALATRAVA","cp":"13260","fuels":{"Gazole":{"p":1.599,"d":"2026-07-14"},"SP95":{"p":1.549,"d":"2026-07-14"}},"brand":"Carburantes Bolaños S.L."},{"id":100004837,"lat":38.671333,"lng":-4.262556,"addr":"CARRETERA NACIONAL 420 KM. 143,700","city":"BRAZATORTAS","cp":"13450","fuels":{"Gazole":{"p":1.619,"d":"2026-07-14"},"SP95":{"p":1.599,"d":"2026-07-14"},"SP98":{"p":1.769,"d":"2026-07-14"}},"brand":"Galp La Junquera","h24":true},{"id":100005108,"lat":38.66225,"lng":-4.298667,"addr":"CR N-420 141,9","city":"BRAZATORTAS","cp":"13450","fuels":{"Gazole":{"p":1.609,"d":"2026-07-14"},"SP95":{"p":1.579,"d":"2026-07-14"}},"brand":"Repsol"},{"id":100013206,"lat":38.660056,"lng":-4.2965,"addr":"CARRETERA CABEZARRUBIAS KM. 1","city":"BRAZATORTAS","cp":"13450","fuels":{"Gazole":{"p":1.509,"d":"2026-07-14"},"SP95":{"p":1.479,"d":"2026-07-14"}},"brand":"Unidad De Servicio"},{"id":100009242,"lat":38.67975,"lng":-3.756833,"addr":"CARRETERA C-410 km 31.092","city":"CALZADA DE CALATRAVA","cp":"13370","fuels":{"Gazole":{"p":1.619,"d":"2026-07-14"},"SP95":{"p":1.569,"d":"2026-07-14"},"SP98":{"p":1.649,"d":"2026-07-14"}},"brand":"P G E Hijos","h24":true},{"id":100016025,"lat":39.399972,"lng":-3.137306,"addr":"POLIGONO POZO HONDO AVENIDA COMUNIDAD VALENCIANA, 8","city":"CAMPO DE CRIPTANA","cp":"13610","fuels":{"Gazole":{"p":1.539,"d":"2026-07-14"}},"brand":"Electromontajes Criptana S.L.","h24":true},{"id":100008904,"lat":39.401056,"lng":-3.113833,"addr":"CONCEPCION, 135 (CTRA. N-420)","city":"CAMPO DE CRIPTANA","cp":"13610","fuels":{"Gazole":{"p":1.489,"d":"2026-07-14"},"SP95":{"p":1.469,"d":"2026-07-14"}},"brand":"Bodegas Simbolo, Sdad. Coop. De C-Lm Ntra. Sra. De Criptana","h24":true},{"id":100005221,"lat":39.400861,"lng":-3.128361,"addr":"AVENIDA DE LA HISPANIDAD, 10","city":"CAMPO DE CRIPTANA","cp":"13610","fuels":{"Gazole":{"p":1.559,"d":"2026-07-14"},"SP95":{"p":1.539,"d":"2026-07-14"}},"brand":"Petronor"},{"id":100005161,"lat":39.401,"lng":-3.112583,"addr":"CR N-420, 296","city":"CAMPO DE CRIPTANA","cp":"13610","fuels":{"Gazole":{"p":1.595,"d":"2026-07-14"},"SP95":{"p":1.555,"d":"2026-07-14"}},"brand":"Repsol"},{"id":100008953,"lat":39.40075,"lng":-3.134111,"addr":"CARRETERA N-420 KM. 295","city":"CAMPO DE CRIPTANA","cp":"13610","fuels":{"Gazole":{"p":1.555,"d":"2026-07-14"},"SP95":{"p":1.539,"d":"2026-07-14"}},"brand":"Combustibles Criptana,sl"},{"id":100013461,"lat":39.398333,"lng":-3.118333,"addr":"CALLE MOTA, 2","city":"CAMPO DE CRIPTANA","cp":"13610","fuels":{"Gazole":{"p":1.499,"d":"2026-07-14"}},"brand":"Travesa","h24":true},{"id":100004823,"lat":39.400833,"lng":-3.149083,"addr":"CARRETERA NACIONAL 420 KM. 292,700","city":"CAMPO DE CRIPTANA","cp":"13610","fuels":{"Gazole":{"p":1.599,"d":"2026-07-14"},"SP95":{"p":1.559,"d":"2026-07-14"}},"brand":"Galp Distribucion Oil España, S.A.U."},{"id":100009515,"lat":39.030361,"lng":-3.821833,"addr":"CARRETERA CARRION A FERNANCABALLERO km 0.5","city":"CARRION DE CALATRAVA","cp":"13150","fuels":{"Gazole":{"p":1.489,"d":"2026-07-14"},"SP95":{"p":1.489,"d":"2026-07-14"}},"brand":"Montes Norte Energeticos, S.L.","h24":true},{"id":100005111,"lat":39.012917,"lng":-3.830472,"addr":"CARRETERA NACIONAL 430 KM. 317","city":"CARRION DE CALATRAVA","cp":"13150","fuels":{"Gazole":{"p":1.589,"d":"2026-07-14"},"SP95":{"p":1.569,"d":"2026-07-14"},"SP98":{"p":1.739,"d":"2026-07-14"}},"brand":"Repsol"},{"id":100005118,"lat":38.836694,"lng":-2.993639,"addr":"CARRETERA CRTA.INFANTES S/N KM.","city":"CARRIZOSA","cp":"13329","fuels":{"Gazole":{"p":1.639,"d":"2026-07-14"},"SP95":{"p":1.559,"d":"2026-07-14"}},"brand":"Petronor"},{"id":100005164,"lat":38.540778,"lng":-3.281306,"addr":"CALLE BAILEN, 2","city":"CASTELLAR DE SANTIAGO","cp":"13750","fuels":{"Gazole":{"p":1.619,"d":"2026-07-14"},"SP95":{"p":1.599,"d":"2026-07-14"}},"brand":"Repsol"},{"id":100004774,"lat":38.794139,"lng":-4.856972,"addr":"CARRETERA ALMADEN-CHILLON KM.","city":"CHILLON","cp":"13412","fuels":{"Gazole":{"p":1.589,"d":"2026-07-14"},"SP95":{"p":1.569,"d":"2026-07-14"}},"brand":"Hgoil"},{"id":100016478,"lat":38.977194,"lng":-3.919306,"addr":"AVENIDA PARQUE DE CABAÑEROS, 1","city":"CIUDAD REAL","cp":"13002","fuels":{"Gazole":{"p":1.299,"d":"2026-07-14"},"SP95":{"p":1.299,"d":"2026-07-14"}},"brand":"Ballenoil","h24":true},{"id":100005266,"lat":38.98475,"lng":-3.9345,"addr":"RONDA DE ALARCOS, 21","city":"CIUDAD REAL","cp":"13002","fuels":{"Gazole":{"p":1.585,"d":"2026-07-14"},"SP95":{"p":1.579,"d":"2026-07-14"},"SP98":{"p":1.749,"d":"2026-07-14"}},"brand":"Repsol"},{"id":100004380,"lat":38.992333,"lng":-3.937111,"addr":"CARRETERA DE PORZUNA KM.","city":"CIUDAD REAL","cp":"13002","fuels":{"Gazole":{"p":1.479,"d":"2026-07-14"},"SP95":{"p":1.369,"d":"2026-07-14"},"SP98":{"p":1.599,"d":"2026-07-14"}},"brand":"Leclerc","h24":true},{"id":100004427,"lat":38.986,"lng":-3.9145,"addr":"AVENIDA EUROPA, 45","city":"CIUDAD REAL","cp":"13004","fuels":{"Gazole":{"p":1.449,"d":"2026-07-14"},"SP95":{"p":1.449,"d":"2026-07-14"},"SP98":{"p":1.689,"d":"2026-07-14"}},"brand":"Carrefour"},{"id":100005227,"lat":38.983083,"lng":-3.920833,"addr":"CALLE RONDA DE LA MATA, S/N","city":"CIUDAD REAL","cp":"13004","fuels":{"Gazole":{"p":1.589,"d":"2026-07-14"},"SP95":{"p":1.585,"d":"2026-07-14"},"SP98":{"p":1.715,"d":"2026-07-14"}},"brand":"Repsol"},{"id":100014659,"lat":38.983972,"lng":-3.910361,"addr":"CALLE ALFRED NOBEL, 1","city":"CIUDAD REAL","cp":"13005","fuels":{"Gazole":{"p":1.359,"d":"2026-07-14"},"SP95":{"p":1.389,"d":"2026-07-14"}},"brand":"Asir","h24":true},{"id":100015513,"lat":38.973556,"lng":-3.932167,"addr":"CALLE TOMELLOSO, 12","city":"CIUDAD REAL","cp":"13005","fuels":{"Gazole":{"p":1.299,"d":"2026-07-14"},"SP95":{"p":1.299,"d":"2026-07-14"}},"brand":"Plenergy","h24":true},{"id":100005294,"lat":39.022,"lng":-3.924722,"addr":"CR N-401, 183,6","city":"CIUDAD REAL","cp":"13005","fuels":{"Gazole":{"p":1.585,"d":"2026-07-14"},"SP95":{"p":1.589,"d":"2026-07-14"},"SP98":{"p":1.759,"d":"2026-07-14"}},"brand":"Repsol"},{"id":100015648,"lat":38.993667,"lng":-3.891583,"addr":"CARRETERA CARRION KM. S/N","city":"CIUDAD REAL","cp":"13005","fuels":{"Gazole":{"p":1.39,"d":"2026-07-14"}},"brand":"Baltran S.A","h24":true},{"id":100015963,"lat":38.987528,"lng":-3.914222,"addr":"CARRETERA DE CARRION KM. 20","city":"CIUDAD REAL","cp":"13005","fuels":{"Gazole":{"p":1.299,"d":"2026-07-14"},"SP95":{"p":1.299,"d":"2026-07-14"}},"brand":"Plenergy","h24":true},{"id":100004850,"lat":38.97075,"lng":-3.925472,"addr":"CR CR-514, 0,3","city":"CIUDAD REAL","cp":"13005","fuels":{"Gazole":{"p":1.589,"d":"2026-07-14"},"SP95":{"p":1.589,"d":"2026-07-14"},"SP98":{"p":1.759,"d":"2026-07-14"},"GPLc":{"p":1.109,"d":"2026-07-14"}},"brand":"Repsol"},{"id":100004862,"lat":38.975917,"lng":-3.947306,"addr":"CARRETERA N-430 KM KM. 305,1","city":"CIUDAD REAL","cp":"13005","fuels":{"Gazole":{"p":1.609,"d":"2026-07-14"},"SP95":{"p":1.599,"d":"2026-07-14"},"SP98":{"p":1.769,"d":"2026-07-14"}},"brand":"Cepsa"},{"id":100009671,"lat":38.990722,"lng":-3.901917,"addr":"CARRETERA NACIONAL 430 KM. 309,900","city":"CIUDAD REAL","cp":"13005","fuels":{"Gazole":{"p":1.569,"d":"2026-07-14"},"SP95":{"p":1.559,"d":"2026-07-14"},"SP98":{"p":1.899,"d":"2026-07-14"}},"brand":"Shell Carrion"},{"id":100014651,"lat":38.987722,"lng":-3.912889,"addr":"CARRETERA CARRION KM. 309","city":"CIUDAD REAL","cp":"13005","fuels":{"Gazole":{"p":1.409,"d":"2026-07-14"},"SP95":{"p":1.389,"d":"2026-07-14"}},"brand":"Sis Carburantes","h24":true},{"id":100014482,"lat":38.981667,"lng":-3.909472,"addr":"CALLE EINSTEIN, 39","city":"CIUDAD REAL","cp":"13005","fuels":{"Gazole":{"p":1.375,"d":"2026-07-14"},"SP95":{"p":1.355,"d":"2026-07-14"}},"brand":"Ee Ss Puente Del Ave","h24":true},{"id":100014619,"lat":38.974389,"lng":-3.931917,"addr":"CALLE VILLARUBIA DE LOS OJOS, 18","city":"CIUDAD REAL","cp":"13005","fuels":{"Gazole":{"p":1.309,"d":"2026-07-14"},"SP95":{"p":1.309,"d":"2026-07-14"}},"brand":"Urban Oil","h24":true},{"id":100005302,"lat":38.977778,"lng":-3.935972,"addr":"POLIGONO LARACHE, 93","city":"CIUDAD REAL","cp":"13005","fuels":{"Gazole":{"p":1.595,"d":"2026-07-14"},"SP95":{"p":1.589,"d":"2026-07-14"},"SP98":{"p":1.759,"d":"2026-07-14"}},"brand":"Repsol","h24":true},{"id":100004864,"lat":38.9745,"lng":-3.958361,"addr":"CARRETERA N-430 KM. 304,42","city":"CIUDAD REAL","cp":"13005","fuels":{"Gazole":{"p":1.595,"d":"2026-07-14"},"SP95":{"p":1.579,"d":"2026-07-14"},"SP98":{"p":1.749,"d":"2026-07-14"}},"brand":"Repsol"},{"id":100009453,"lat":38.994639,"lng":-3.92475,"addr":"CALLE RONDA DE TOLEDO, 21","city":"CIUDAD REAL","cp":"13003","fuels":{"Gazole":{"p":1.559,"d":"2026-07-14"},"SP95":{"p":1.559,"d":"2026-07-14"},"SP98":{"p":1.879,"d":"2026-07-14"}},"brand":"Shell"},{"id":100005146,"lat":38.996083,"lng":-3.928111,"addr":"RONDA PUERTA DE TOLEDO, 5","city":"CIUDAD REAL","cp":"13003","fuels":{"Gazole":{"p":1.579,"d":"2026-07-14"},"SP95":{"p":1.585,"d":"2026-07-14"}},"brand":"Repsol"},{"id":100008420,"lat":38.972861,"lng":-3.940806,"addr":"CARRETERA CTRA PUERTOLLANO KM 195 KM.","city":"CIUDAD REAL","cp":"13197","fuels":{"Gazole":{"p":1.299,"d":"2026-07-14"},"SP95":{"p":1.299,"d":"2026-07-14"}},"brand":"Plenergy","h24":true},{"id":100005275,"lat":38.873278,"lng":-4.042861,"addr":"CARRETERA N-420 KM. 180","city":"CORRAL DE CALATRAVA","cp":"13190","fuels":{"Gazole":{"p":1.595,"d":"2026-07-14"},"SP95":{"p":1.579,"d":"2026-07-14"},"SP98":{"p":1.759,"d":"2026-07-14"}},"brand":"Repsol"},{"id":100009026,"lat":39.314557,"lng":-4.049022,"addr":"AVDA. DE LA LOMA, Nº 22","city":"CORTIJOS DE ARRIBA","cp":"13427","fuels":{"Gazole":{"p":1.629,"d":"2026-07-14"},"SP95":{"p":1.569,"d":"2026-07-14"}},"brand":"La Loma"},{"id":100013789,"lat":39.075139,"lng":-3.593722,"addr":"CALLE HERREROS, 1","city":"DAIMIEL","cp":"13250","fuels":{"Gazole":{"p":1.499,"d":"2026-07-14"}},"brand":"Coop. Los Pozos","h24":true},{"id":100004430,"lat":39.068694,"lng":-3.626194,"addr":"CARRETERA CM.4114 KM. 50","city":"DAIMIEL","cp":"13250","fuels":{"Gazole":{"p":1.588,"d":"2026-07-14"},"SP95":{"p":1.578,"d":"2026-07-14"},"GPLc":{"p":1.158,"d":"2026-07-14"}},"brand":"Valcarce"},{"id":100014202,"lat":39.076667,"lng":-3.595639,"addr":"PASEO DEL RIO, S/N","city":"DAIMIEL","cp":"13250","fuels":{"Gazole":{"p":1.699,"d":"2026-07-14"},"SP95":{"p":1.669,"d":"2026-07-14"}},"brand":"Moeve"},{"id":100012296,"lat":39.076139,"lng":-3.593,"addr":"CALLE BODEGUEROS, PARCELA, 48","city":"DAIMIEL","cp":"13250","fuels":{"Gazole":{"p":1.499,"d":"2026-07-14"}},"brand":"Grupo Logistico Codaitrans","h24":true},{"id":100005178,"lat":39.076278,"lng":-3.596278,"addr":"CARRETERA N-420 KM KM. 231","city":"DAIMIEL","cp":"13250","fuels":{"Gazole":{"p":1.499,"d":"2026-07-14"},"SP95":{"p":1.469,"d":"2026-07-14"}},"brand":"Wetroad","h24":true},{"id":100005145,"lat":39.060639,"lng":-3.618806,"addr":"CARRETERA NACIONAL 430 KM. 269,9","city":"DAIMIEL","cp":"13250","fuels":{"Gazole":{"p":1.579,"d":"2026-07-14"},"SP95":{"p":1.569,"d":"2026-07-14"}},"brand":"Repsol"},{"id":100013220,"lat":39.074583,"lng":-3.591028,"addr":"CALLE CARRETEROS, 1","city":"DAIMIEL","cp":"13250","fuels":{"Gazole":{"p":1.499,"d":"2026-07-14"}},"brand":"Grupo Translogistica","h24":true},{"id":100010222,"lat":39.107306,"lng":-3.549556,"addr":"NACIONAL 420 km 236","city":"DAIMIEL","cp":"13250","fuels":{"Gazole":{"p":1.469,"d":"2026-07-14"},"SP95":{"p":1.469,"d":"2026-07-14"}},"brand":"El Pico"},{"id":100005136,"lat":39.062222,"lng":-3.618194,"addr":"CALLE TIBURCIO, 98","city":"DAIMIEL","cp":"13250","fuels":{"Gazole":{"p":1.579,"d":"2026-07-14"},"SP95":{"p":1.569,"d":"2026-07-14"},"SP98":{"p":1.739,"d":"2026-07-14"},"GPLc":{"p":1.089,"d":"2026-07-14"}},"brand":"Repsol"},{"id":100012382,"lat":39.0485,"lng":-3.589639,"addr":"AVENIDA DE LA ENERGIA, 1","city":"DAIMIEL","cp":"13250","fuels":{"Gazole":{"p":1.639,"d":"2026-07-14"},"SP95":{"p":1.609,"d":"2026-07-14"},"SP98":{"p":1.699,"d":"2026-07-14"}},"brand":"Repsol"},{"id":100005180,"lat":38.431194,"lng":-4.315556,"addr":"CARRETERA N-420 KM. 103,3","city":"FUENCALIENTE","cp":"13130","fuels":{"Gazole":{"p":1.701,"d":"2026-07-14"},"SP95":{"p":1.652,"d":"2026-07-14"}},"brand":"Cepsa"},{"id":100012709,"lat":38.799389,"lng":-3.741778,"addr":"CALLE ALMAGRO, 3","city":"GRANATULA DE CALATRAVA","cp":"13360","fuels":{"Gazole":{"p":1.5,"d":"2026-07-14"}},"brand":"Sociedad Cooperativa Agraria El Santo Cristo S. Coop. De C-Lm","h24":true},{"id":100015576,"lat":38.723639,"lng":-4.972833,"addr":"CAMINO LAGUNA, 14","city":"GUADALMEZ","cp":"13490","fuels":{"Gazole":{"p":1.639,"d":"2026-07-14"},"SP95":{"p":1.609,"d":"2026-07-14"}},"brand":"Los Donceles Energy","h24":true},{"id":100009687,"lat":39.352889,"lng":-3.402389,"addr":"CARRETERA NACIONAL 420 KM. 269,1","city":"HERENCIA","cp":"13640","fuels":{"Gazole":{"p":1.689,"d":"2026-07-14"}},"brand":"Cepsa","h24":true},{"id":100014880,"lat":39.374139,"lng":-3.343028,"addr":"AVENIDA ALCAZAR DE SAN JUAN, SN","city":"HERENCIA","cp":"13640","fuels":{"Gazole":{"p":1.445,"d":"2026-07-14"},"SP95":{"p":1.385,"d":"2026-07-14"},"GPLc":{"p":0.795,"d":"2026-07-14"}},"brand":"Delfincarfuel","h24":true},{"id":100009845,"lat":39.180472,"lng":-3.399056,"addr":"AUTOVIA A-4 KM. 153,350","city":"HERENCIA","cp":"13640","fuels":{"Gazole":{"p":1.595,"d":"2026-07-14"},"SP95":{"p":1.589,"d":"2026-07-14"},"SP98":{"p":1.759,"d":"2026-07-14"}},"brand":"Repsol"},{"id":100010262,"lat":39.37325,"lng":-3.344889,"addr":"420 km 275","city":"HERENCIA","cp":"13640","fuels":{"Gazole":{"p":1.605,"d":"2026-07-14"},"SP95":{"p":1.559,"d":"2026-07-14"},"SP98":{"p":1.729,"d":"2026-07-14"}},"brand":"Petronor"},{"id":100009086,"lat":39.167,"lng":-3.852333,"addr":"AVENIDA FUNDADORES COOPERATIVA, 69","city":"MALAGON","cp":"13420","fuels":{"Gazole":{"p":1.489,"d":"2026-07-14"},"SP95":{"p":1.489,"d":"2026-07-14"}},"brand":"Montes Norte Energeticos, S.L.","h24":true},{"id":100005194,"lat":39.174167,"lng":-3.84875,"addr":"CALLE CERVANTES, 23","city":"MALAGON","cp":"13420","fuels":{"Gazole":{"p":1.619,"d":"2026-07-14"},"SP95":{"p":1.564,"d":"2026-07-14"},"SP98":{"p":1.756,"d":"2026-07-14"}},"brand":"Cepsa"},{"id":100012076,"lat":39.158306,"lng":-3.845972,"addr":"CALLE MADRID, 18","city":"MALAGON","cp":"13420","fuels":{"Gazole":{"p":1.559,"d":"2026-07-14"},"SP95":{"p":1.519,"d":"2026-07-14"},"GPLc":{"p":1.22,"d":"2026-07-14"}},"brand":"Autolavados Y Carburantes Alse Sl","h24":true},{"id":100016128,"lat":38.996139,"lng":-3.362722,"addr":"CALLE DUQUE DE AHUMADA, 13","city":"MANZANARES","cp":"13200","fuels":{"Gazole":{"p":1.419,"d":"2026-07-14"},"SP95":{"p":1.419,"d":"2026-07-14"}},"brand":"Ballenoil","h24":true},{"id":100005297,"lat":38.997972,"lng":-3.363361,"addr":"CALLE CTRA LA SOLANA, 56","city":"MANZANARES","cp":"13200","fuels":{"Gazole":{"p":1.589,"d":"2026-07-14"},"SP95":{"p":1.585,"d":"2026-07-14"},"SP98":{"p":1.755,"d":"2026-07-14"}},"brand":"Repsol"},{"id":100004860,"lat":39.023139,"lng":-3.3735,"addr":"AUTOVIA A-4 KM. 167","city":"MANZANARES","cp":"13200","fuels":{"Gazole":{"p":1.595,"d":"2026-07-14"},"SP95":{"p":1.589,"d":"2026-07-14"}},"brand":"Repsol"},{"id":100012704,"lat":39.01125,"lng":-3.366611,"addr":"CALLE INDUSTRIAL D, 3","city":"MANZANARES","cp":"13200","fuels":{"Gazole":{"p":1.455,"d":"2026-07-14"},"SP95":{"p":1.415,"d":"2026-07-14"}},"brand":"Jesús Del Perdón Bodegas Yuntero S. Coop. De C-Lm","h24":true},{"id":100005153,"lat":38.997972,"lng":-3.372222,"addr":"PASEO COLÓN, S/N","city":"MANZANARES","cp":"13200","fuels":{"Gazole":{"p":1.595,"d":"2026-07-14"},"SP95":{"p":1.579,"d":"2026-07-14"}},"brand":"Repsol"},{"id":100004777,"lat":39.006528,"lng":-3.379389,"addr":"CARRETERA ANTIGUA N-430 ESQ. CTRA. VILLARRUIBA KM. S/N","city":"MANZANARES","cp":"13200","fuels":{"Gazole":{"p":1.539,"d":"2026-07-14"},"SP95":{"p":1.539,"d":"2026-07-14"},"SP98":{"p":1.719,"d":"2026-07-14"}},"brand":"Carrefour","h24":true},{"id":100005273,"lat":39.108861,"lng":-3.37825,"addr":"AUTOVIA A-4 KM. 162","city":"MANZANARES","cp":"13200","fuels":{"Gazole":{"p":1.609,"d":"2026-07-14"},"SP95":{"p":1.599,"d":"2026-07-14"}},"brand":"Repsol"},{"id":100010992,"lat":38.987028,"lng":-3.380194,"addr":"CARRETERA CRTA.CR-141 KM 3,70 KM. 3,70","city":"MANZANARES","cp":"13200","fuels":{"Gazole":{"p":1.589,"d":"2026-07-14"},"SP95":{"p":1.585,"d":"2026-07-14"},"SP98":{"p":1.755,"d":"2026-07-14"},"GPLc":{"p":1.109,"d":"2026-07-14"}},"brand":"Repsol","h24":true},{"id":100005140,"lat":39.023056,"lng":-3.373444,"addr":"CARRETERA N-4 KM. 171,1","city":"MANZANARES","cp":"13200","fuels":{"Gazole":{"p":1.595,"d":"2026-07-14"},"SP95":{"p":1.589,"d":"2026-07-14"},"SP98":{"p":1.759,"d":"2026-07-14"}},"brand":"Repsol"},{"id":100005155,"lat":39.005889,"lng":-3.384028,"addr":"AUTOVIA DE ANDALUCIA KM. 173","city":"MANZANARES","cp":"13200","fuels":{"Gazole":{"p":1.656,"d":"2026-07-14"},"SP95":{"p":1.601,"d":"2026-07-14"}},"brand":"Moeve El Cruce"},{"id":100011339,"lat":38.975472,"lng":-3.34125,"addr":"CARRETERA DE LA SOLANA 34","city":"MEMBRILLA","cp":"13230","fuels":{"Gazole":{"p":1.435,"d":"2026-07-14"}},"brand":"Galan De Membrilla","h24":true},{"id":100010672,"lat":38.978667,"lng":-3.346917,"addr":"CARRETERA LA SOLANA, 23 KM.","city":"MEMBRILLA","cp":"13230","fuels":{"Gazole":{"p":1.435,"d":"2026-07-14"},"SP95":{"p":1.395,"d":"2026-07-14"}},"brand":"Galán De Membrilla","h24":true},{"id":100004847,"lat":38.957472,"lng":-3.383194,"addr":"AUTOVIA CARRETERA GENERAL DE ANDALUCIA KM. 178,800","city":"MEMBRILLA","cp":"13230","fuels":{"Gazole":{"p":1.656,"d":"2026-07-14"},"SP95":{"p":1.601,"d":"2026-07-14"}},"brand":"Moeve","h24":true},{"id":100014282,"lat":38.98625,"lng":-3.353639,"addr":"CARRETERA N 430 KM. 366,1","city":"MEMBRILLA","cp":"13230","fuels":{"Gazole":{"p":1.447,"d":"2026-07-14"},"SP95":{"p":1.407,"d":"2026-07-14"},"GPLc":{"p":0.907,"d":"2026-07-14"}},"brand":"Roderoil","h24":true},{"id":100009579,"lat":38.962278,"lng":-3.305444,"addr":"CARRETERA NACIONAL 430 KM. 371,100","city":"MEMBRILLA","cp":"13230","fuels":{"Gazole":{"p":1.569,"d":"2026-07-14"},"SP95":{"p":1.589,"d":"2026-07-14"}},"brand":"Grupo Cacho - Moeve","h24":true},{"id":100010991,"lat":38.973667,"lng":-3.336417,"addr":"CARRETERA NACIONAL 430 KM 368 KM. 368","city":"MEMBRILLA","cp":"13230","fuels":{"Gazole":{"p":1.579,"d":"2026-07-14"},"SP95":{"p":1.575,"d":"2026-07-14"},"SP98":{"p":1.745,"d":"2026-07-14"}},"brand":"Repsol"},{"id":100005100,"lat":38.970417,"lng":-3.902361,"addr":"CARRETERA CM-4127 KM. 2,350","city":"MIGUELTURRA","cp":"13170","fuels":{"Gazole":{"p":1.649,"d":"2026-07-14"},"SP95":{"p":1.579,"d":"2026-07-14"},"SP98":{"p":1.755,"d":"2026-07-14"}},"brand":"Cepsa"},{"id":100004844,"lat":38.956111,"lng":-3.885472,"addr":"CARRETERA CTRA VALDEPEÑAS-CIUDAD REAL KM. 4700","city":"MIGUELTURRA","cp":"13170","fuels":{"Gazole":{"p":1.649,"d":"2026-07-14"},"SP95":{"p":1.579,"d":"2026-07-14"}},"brand":"Cepsa"},{"id":100013649,"lat":38.965667,"lng":-3.896333,"addr":"CARRETERA VALDEPEÑAS KM. 12","city":"MIGUELTURRA","cp":"13170","fuels":{"Gazole":{"p":1.398,"d":"2026-07-14"},"SP95":{"p":1.398,"d":"2026-07-14"}},"brand":"Gasolineras Ht","h24":true},{"id":100012514,"lat":38.69975,"lng":-2.882583,"addr":"CARRERA VILLANUEVA DE LOS INFANTES, S/N","city":"MONTIEL","cp":"13326","fuels":{"Gazole":{"p":1.385,"d":"2026-07-14"},"SP95":{"p":1.39,"d":"2026-07-14"}},"brand":"Castillo De Montiel","h24":true},{"id":100009583,"lat":38.699167,"lng":-2.878944,"addr":"CARRETERA CM 3127 km 12.600","city":"MONTIEL","cp":"13326","fuels":{"Gazole":{"p":1.399,"d":"2026-07-14"},"SP95":{"p":1.439,"d":"2026-07-14"}},"brand":"Ee.Ss Valle Piqueras"},{"id":100004834,"lat":38.824611,"lng":-3.567944,"addr":"CARRETERA CM-412 KM. 69,92","city":"MORAL DE CALATRAVA","cp":"13350","fuels":{"Gazole":{"p":1.595,"d":"2026-07-14"},"SP95":{"p":1.579,"d":"2026-07-14"},"SP98":{"p":1.749,"d":"2026-07-14"}},"brand":"Repsol"},{"id":100015689,"lat":38.824194,"lng":-3.578889,"addr":"CALLE C/ DIMAS MARTÍN C/V A C/ CALDERON, 2","city":"MORAL DE CALATRAVA","cp":"13350","fuels":{"Gazole":{"p":1.479,"d":"2026-07-14"},"SP95":{"p":1.449,"d":"2026-07-14"}},"brand":"Sdad. Coop. Santiago Apostol","h24":true},{"id":100016142,"lat":39.394028,"lng":-2.943833,"addr":"AVENIDA JUAN CARLOS I, 99","city":"PEDRO MUÑOZ","cp":"13620","fuels":{"Gazole":{"p":1.635,"d":"2026-07-14"},"SP95":{"p":1.609,"d":"2026-07-14"}},"brand":"Shell"},{"id":100005246,"lat":39.406639,"lng":-2.950889,"addr":"AVENIDA DE LA CONSTITUCION, 46","city":"PEDRO MUÑOZ","cp":"13620","fuels":{"Gazole":{"p":1.635,"d":"2026-07-14"},"SP95":{"p":1.615,"d":"2026-07-14"},"SP98":{"p":1.785,"d":"2026-07-14"}},"brand":"Repsol"},{"id":100011483,"lat":39.396167,"lng":-2.937778,"addr":"CARRETERA PEDRO MUÑOZ A SOCUELLAMOS KM. 1","city":"PEDRO MUÑOZ","cp":"13620","fuels":{"Gazole":{"p":1.499,"d":"2026-07-14"}},"brand":"Sumnistros Agricolas De Pedro Muñoz S. Coop. De C-Lm","h24":true},{"id":100005201,"lat":39.032861,"lng":-4.182528,"addr":"CARRETERA NACIONAL 430 KM. 219,7","city":"PIEDRABUENA","cp":"13100","fuels":{"Gazole":{"p":1.609,"d":"2026-07-14"},"SP95":{"p":1.609,"d":"2026-07-14"}},"brand":"Moeve"},{"id":100014995,"lat":39.037389,"lng":-4.186139,"addr":"POLIGONO LA PAJARILLA, 35","city":"PIEDRABUENA","cp":"13100","fuels":{"Gazole":{"p":1.499,"d":"2026-07-14"},"SP95":{"p":1.499,"d":"2026-07-14"}},"brand":"An Energeticos, S.L.","h24":true},{"id":100012546,"lat":39.028861,"lng":-4.189333,"addr":"CARRETERA 7211 KM. 0,200","city":"PIEDRABUENA","cp":"13100","fuels":{"Gazole":{"p":1.499,"d":"2026-07-14"},"SP95":{"p":1.499,"d":"2026-07-14"}},"brand":"Gp Energia","h24":true},{"id":100005233,"lat":39.153139,"lng":-4.162472,"addr":"CALLE TOLEDO,, 50","city":"PORZUNA","cp":"13120","fuels":{"Gazole":{"p":1.629,"d":"2026-07-14"},"SP95":{"p":1.599,"d":"2026-07-14"},"SP98":{"p":1.819,"d":"2026-07-14"}},"brand":"Repsol"},{"id":100015281,"lat":38.912667,"lng":-3.841528,"addr":"CALLE ALARCOS, 64","city":"POZUELO DE CALATRAVA","cp":"13179","fuels":{"Gazole":{"p":1.449,"d":"2026-07-14"},"SP95":{"p":1.439,"d":"2026-07-14"}},"brand":"Cooperativa Ntra Sra De Los Santos"},{"id":100005248,"lat":38.914806,"lng":-3.836639,"addr":"CARRETERA CM-412 KM. 11","city":"POZUELO DE CALATRAVA","cp":"13179","fuels":{"Gazole":{"p":1.579,"d":"2026-07-14"},"SP95":{"p":1.499,"d":"2026-07-14"}},"brand":"Duramax"},{"id":100012706,"lat":39.086583,"lng":-4.616917,"addr":"CALLE CUATRO ESQUINAS ESQUINA LUIS SEVILLA, S/N","city":"PUEBLA DE DON RODRIGO","cp":"13109","fuels":{"Gazole":{"p":1.489,"d":"2026-07-14"}},"brand":"Montes Norte Energeticos, S.L.","h24":true},{"id":100005105,"lat":39.083472,"lng":-4.616111,"addr":"CL AVENIDA CASTILLA-LA MANCHA, 1 (N-430 km 230)","city":"PUEBLA DE DON RODRIGO","cp":"13109","fuels":{"Gazole":{"p":1.595,"d":"2026-07-14"},"SP95":{"p":1.555,"d":"2026-07-14"},"SP98":{"p":1.725,"d":"2026-07-14"}},"brand":"Repsol"},{"id":100015993,"lat":38.568361,"lng":-2.926611,"addr":"AVENIDA DE LOS EMIGRANTES, 1","city":"PUEBLA DEL PRINCIPE","cp":"13342","fuels":{"Gazole":{"p":1.459,"d":"2026-07-14"},"E10":{"p":1.399,"d":"2026-07-14"}},"brand":"E.S. Logafuell","h24":true},{"id":100004431,"lat":39.288222,"lng":-3.454194,"addr":"AUTOVIA N-IV KM. 140,7","city":"PUERTO LAPICE","cp":"13650","fuels":{"Gazole":{"p":1.609,"d":"2026-07-14"},"SP95":{"p":1.609,"d":"2026-07-14"},"SP98":{"p":1.719,"d":"2026-07-14"}},"brand":"Galp"},{"id":100004432,"lat":39.287556,"lng":-3.456833,"addr":"AUTOVIA N-IV KM. 140,5","city":"PUERTO LAPICE","cp":"13650","fuels":{"Gazole":{"p":1.609,"d":"2026-07-14"},"SP95":{"p":1.609,"d":"2026-07-14"},"SP98":{"p":1.719,"d":"2026-07-14"}},"brand":"Galp","h24":true},{"id":100005209,"lat":39.333222,"lng":-3.483361,"addr":"CR N-4, 134,8","city":"PUERTO LAPICE","cp":"13650","fuels":{"Gazole":{"p":1.625,"d":"2026-07-14"},"SP95":{"p":1.599,"d":"2026-07-14"},"SP98":{"p":1.759,"d":"2026-07-14"}},"brand":"Repsol"},{"id":100015722,"lat":38.704333,"lng":-4.1,"addr":"CARRETERA ARGAMASILLA KM. 50","city":"PUERTOLLANO","cp":"13500","fuels":{"Gazole":{"p":1.559,"d":"2026-07-14"},"SP95":{"p":1.509,"d":"2026-07-14"},"SP98":{"p":1.609,"d":"2026-07-14"}},"brand":"Petrol Red"},{"id":100016381,"lat":38.698583,"lng":-4.104806,"addr":"CARRETERA ARGAMASILLA KM. 22","city":"PUERTOLLANO","cp":"13500","fuels":{"Gazole":{"p":1.539,"d":"2026-07-14"},"SP95":{"p":1.489,"d":"2026-07-14"}},"brand":"Plenergy","h24":true},{"id":100012058,"lat":38.701556,"lng":-4.101667,"addr":"CARRETERA NACIONAL 420 KM. 160","city":"PUERTOLLANO","cp":"13500","fuels":{"Gazole":{"p":1.619,"d":"2026-07-14"},"SP95":{"p":1.569,"d":"2026-07-14"}},"brand":"Carrefour","h24":true},{"id":100005188,"lat":38.678778,"lng":-4.109361,"addr":"CALLE ASDRUBAL, 68","city":"PUERTOLLANO","cp":"13500","fuels":{"Gazole":{"p":1.625,"d":"2026-07-14"},"SP95":{"p":1.619,"d":"2026-07-14"},"SP98":{"p":1.779,"d":"2026-07-14"}},"brand":"Repsol"},{"id":100005287,"lat":38.679861,"lng":-4.070667,"addr":"CARRETERA CR-503 KM. 3,2","city":"PUERTOLLANO","cp":"13500","fuels":{"Gazole":{"p":1.619,"d":"2026-07-14"},"SP95":{"p":1.599,"d":"2026-07-14"},"SP98":{"p":1.769,"d":"2026-07-14"}},"brand":"Repsol"},{"id":100013589,"lat":38.681083,"lng":-4.083917,"addr":"AVENIDA ANDALUCIA, S/N","city":"PUERTOLLANO","cp":"13500","fuels":{"Gazole":{"p":1.499,"d":"2026-07-14"},"SP95":{"p":1.449,"d":"2026-07-14"},"SP98":{"p":1.549,"d":"2026-07-14"}},"brand":"Family Energy","h24":true},{"id":100005206,"lat":38.705222,"lng":-4.099833,"addr":"CARRETERA N420 KM. 160,500","city":"PUERTOLLANO","cp":"13500","fuels":{"Gazole":{"p":1.619,"d":"2026-07-14"},"SP95":{"p":1.605,"d":"2026-07-14"},"SP98":{"p":1.775,"d":"2026-07-14"}},"brand":"Repsol","h24":true},{"id":100013311,"lat":38.704528,"lng":-4.118889,"addr":"CARRETERA ALMODOVAR KM. 1,500","city":"PUERTOLLANO","cp":"13500","fuels":{"Gazole":{"p":1.569,"d":"2026-07-14"},"SP95":{"p":1.519,"d":"2026-07-14"}},"brand":"Carburantes Blue","h24":true},{"id":100005306,"lat":38.697778,"lng":-4.106,"addr":"CR N-420, 160","city":"PUERTOLLANO","cp":"13500","fuels":{"Gazole":{"p":1.625,"d":"2026-07-14"},"SP95":{"p":1.599,"d":"2026-07-14"},"SP98":{"p":1.769,"d":"2026-07-14"},"GPLc":{"p":1.109,"d":"2026-07-14"}},"brand":"Repsol"},{"id":100014699,"lat":38.703722,"lng":-4.099639,"addr":"CALLE CAÑADA REAL, S/N","city":"PUERTOLLANO","cp":"13500","fuels":{"Gazole":{"p":1.539,"d":"2026-07-14"},"SP95":{"p":1.489,"d":"2026-07-14"}},"brand":"Petroprix","h24":true},{"id":100004813,"lat":39.460306,"lng":-4.408333,"addr":"CARRETERA CM-4017 KM. 66,09","city":"RETUERTA DEL BULLAQUE","cp":"13194","fuels":{"Gazole":{"p":1.609,"d":"2026-07-14"},"SP95":{"p":1.589,"d":"2026-07-14"}},"brand":"J.Utrilla"},{"id":100004896,"lat":39.217889,"lng":-4.285806,"addr":"AVENIDA INDEPENDENCIA, 56","city":"ROBLEDO (EL)","cp":"13114","fuels":{"Gazole":{"p":1.589,"d":"2026-07-14"},"SP95":{"p":1.589,"d":"2026-07-14"},"SP98":{"p":1.779,"d":"2026-07-14"}},"brand":"Repsol"},{"id":100005102,"lat":38.978222,"lng":-2.883,"addr":"AVENIDA CASTILLA LA MANCHA, 59","city":"RUIDERA","cp":"13249","fuels":{"Gazole":{"p":1.689,"d":"2026-07-14"},"SP95":{"p":1.599,"d":"2026-07-14"}},"brand":"Repsol"},{"id":100004822,"lat":38.946306,"lng":-4.608472,"addr":"CALLE ARENAL, S/N","city":"SACERUELA","cp":"13414","fuels":{"Gazole":{"p":1.579,"d":"2026-07-14"},"SP95":{"p":1.559,"d":"2026-07-14"},"SP98":{"p":1.729,"d":"2026-07-14"}},"brand":"Repsol"},{"id":100015019,"lat":38.63525,"lng":-2.864389,"addr":"CALLE CALVARIO, 6","city":"SANTA CRUZ DE LOS CAÑAMOS","cp":"13327","fuels":{"Gazole":{"p":1.476,"d":"2026-07-14"},"SP95":{"p":1.438,"d":"2026-07-14"}},"brand":"Estacion De Carburantes San Bartolome Apostol","h24":true},{"id":100015296,"lat":38.631389,"lng":-3.467944,"addr":"CARRETERA NACIONAL IV KM. 217,5","city":"SANTA CRUZ DE MUDELA","cp":"13730","fuels":{"Gazole":{"p":1.432,"d":"2026-07-14"}},"brand":"Translogistica Marin Sa","h24":true},{"id":100005300,"lat":38.635528,"lng":-3.471583,"addr":"CARRETERA N- 4 KM. 216,9","city":"SANTA CRUZ DE MUDELA","cp":"13730","fuels":{"Gazole":{"p":1.605,"d":"2026-07-14"},"SP95":{"p":1.615,"d":"2026-07-14"}},"brand":"Repsol"},{"id":100011123,"lat":38.631944,"lng":-3.466944,"addr":"AUTOVIA A-4 KM. 217,350","city":"SANTA CRUZ DE MUDELA","cp":"13730","fuels":{"Gazole":{"p":1.639,"d":"2026-07-14"},"SP95":{"p":1.589,"d":"2026-07-14"}},"brand":"Valcarce","h24":true},{"id":100004817,"lat":38.590194,"lng":-3.472944,"addr":"AUTOVIA ANDALUCIA KM. 222,5","city":"SANTA CRUZ DE MUDELA","cp":"13730","fuels":{"Gazole":{"p":1.629,"d":"2026-07-14"},"SP95":{"p":1.609,"d":"2026-07-14"},"SP98":{"p":1.799,"d":"2026-07-14"}},"brand":"Moeve","h24":true},{"id":100014357,"lat":38.644833,"lng":-3.452778,"addr":"CALLE PEDRO VARELA, S/N","city":"SANTA CRUZ DE MUDELA","cp":"13730","fuels":{"Gazole":{"p":1.459,"d":"2026-07-14"}},"brand":"Ch2m","h24":true},{"id":100005301,"lat":38.636167,"lng":-3.471361,"addr":"CARRETERA N 4 KM. 216,9","city":"SANTA CRUZ DE MUDELA","cp":"13730","fuels":{"Gazole":{"p":1.605,"d":"2026-07-14"},"SP95":{"p":1.605,"d":"2026-07-14"},"SP98":{"p":1.775,"d":"2026-07-14"}},"brand":"Repsol","h24":true},{"id":100005176,"lat":39.283694,"lng":-2.784361,"addr":"CM-3102 km 23,1","city":"SOCUELLAMOS","cp":"13630","fuels":{"Gazole":{"p":1.624,"d":"2026-07-14"},"SP95":{"p":1.612,"d":"2026-07-14"}},"brand":"Moeve"},{"id":100005175,"lat":39.283611,"lng":-2.784694,"addr":"CALLE MANIGUA, 4","city":"SOCUELLAMOS","cp":"13630","fuels":{"Gazole":{"p":1.399,"d":"2026-07-14"},"SP95":{"p":1.399,"d":"2026-07-14"}},"brand":"Ballenoil","h24":true},{"id":100005315,"lat":39.16475,"lng":-2.881778,"addr":"CARRETERA N-310 KM. 105","city":"SOCUELLAMOS","cp":"13630","fuels":{"Gazole":{"p":1.679,"d":"2026-07-14"},"SP95":{"p":1.619,"d":"2026-07-14"},"SP98":{"p":1.769,"d":"2026-07-14"}},"brand":"Galp"},{"id":100011657,"lat":39.277639,"lng":-2.782694,"addr":"POLIGONO EL LLANO, CALLE A, PARCELA, 134","city":"SOCUELLAMOS","cp":"13630","fuels":{"Gazole":{"p":1.378,"d":"2026-07-14"}},"brand":"Olivarera De Socuellamos, S.Coop. De C-Lm","h24":true},{"id":100005215,"lat":39.289806,"lng":-2.79575,"addr":"CALLE PASEO DE LOS MARTIRES, 58","city":"SOCUELLAMOS","cp":"13630","fuels":{"Gazole":{"p":1.625,"d":"2026-07-14"},"SP95":{"p":1.555,"d":"2026-07-14"},"SP98":{"p":1.725,"d":"2026-07-14"}},"brand":"Repsol"},{"id":100005101,"lat":39.278444,"lng":-2.785167,"addr":"CR CR-100, 0,9","city":"SOCUELLAMOS","cp":"13630","fuels":{"Gazole":{"p":1.629,"d":"2026-07-14"},"SP95":{"p":1.555,"d":"2026-07-14"},"SP98":{"p":1.725,"d":"2026-07-14"}},"brand":"Repsol"},{"id":100012006,"lat":39.286639,"lng":-2.806417,"addr":"CALLE CAMPO DE CRIPTANA, 29","city":"SOCUELLAMOS","cp":"13630","fuels":{"Gazole":{"p":1.454,"d":"2026-07-14"}},"brand":"Transportes Felix E Hijos, S.L."},{"id":100013823,"lat":38.944139,"lng":-3.250639,"addr":"CALLE COOPERATIVA, 9","city":"SOLANA (LA)","cp":"13240","fuels":{"Gazole":{"p":1.435,"d":"2026-07-14"},"SP95":{"p":1.399,"d":"2026-07-14"}},"brand":"Plenergy","h24":true},{"id":100009575,"lat":38.944694,"lng":-3.252528,"addr":"CARRETERA MANZANARES KM. S/N","city":"SOLANA (LA)","cp":"13240","fuels":{"Gazole":{"p":1.599,"d":"2026-07-14"},"SP95":{"p":1.589,"d":"2026-07-14"}},"brand":"Grupo Cacho - Moeve"},{"id":100005244,"lat":38.94275,"lng":-3.248528,"addr":"CR N-430, 307,3","city":"SOLANA (LA)","cp":"13240","fuels":{"Gazole":{"p":1.595,"d":"2026-07-14"},"SP95":{"p":1.559,"d":"2026-07-14"}},"brand":"Repsol"},{"id":100005254,"lat":38.937278,"lng":-3.237083,"addr":"CARRETERA L-603 KM. 24,8","city":"SOLANA (LA)","cp":"13240","fuels":{"Gazole":{"p":1.589,"d":"2026-07-14"},"SP95":{"p":1.559,"d":"2026-07-14"},"SP98":{"p":1.729,"d":"2026-07-14"}},"brand":"Repsol"},{"id":100013119,"lat":38.939333,"lng":-3.259361,"addr":"POLIGONO MAQUINA DE VAPOR, 1","city":"SOLANA (LA)","cp":"13240","fuels":{"Gazole":{"p":1.425,"d":"2026-07-14"},"GPLc":{"p":0.9,"d":"2026-07-14"}},"brand":"Galanes Sociedad Cooperativa De Clm","h24":true},{"id":100015197,"lat":38.941472,"lng":-3.224694,"addr":"RONDA DE LOS EMIGRANTES, SN","city":"SOLANA (LA)","cp":"13240","fuels":{"Gazole":{"p":1.479,"d":"2026-07-14"},"SP95":{"p":1.468,"d":"2026-07-14"}},"brand":"Carburantes Los Señoritos Sl","h24":true},{"id":100013221,"lat":38.608194,"lng":-2.840083,"addr":"AVENIDA CONSTITUCION, S/N","city":"TERRINCHES","cp":"13341","fuels":{"Gazole":{"p":1.52,"d":"2026-07-14"},"SP95":{"p":1.453,"d":"2026-07-14"}},"brand":"E.S.Sto.Domingo De Guzman","h24":true},{"id":100009181,"lat":39.172028,"lng":-3.009972,"addr":"VEREDA SOCUELLAMOS, S/N","city":"TOMELLOSO","cp":"13700","fuels":{"Gazole":{"p":1.499,"d":"2026-07-14"},"SP95":{"p":1.479,"d":"2026-07-14"},"SP98":{"p":1.619,"d":"2026-07-14"},"GPLc":{"p":0.899,"d":"2026-07-14"}},"brand":"Sertyman","h24":true},{"id":100004828,"lat":39.149083,"lng":-3.025417,"addr":"PASEO SAN ISIDRO, 14","city":"TOMELLOSO","cp":"13700","fuels":{"Gazole":{"p":1.635,"d":"2026-07-14"},"SP95":{"p":1.565,"d":"2026-07-14"},"SP98":{"p":1.745,"d":"2026-07-14"}},"brand":"Moeve"},{"id":100005218,"lat":39.175667,"lng":-3.012167,"addr":"CARRETERA CR-122 KM. 26,100","city":"TOMELLOSO","cp":"13700","fuels":{"Gazole":{"p":1.615,"d":"2026-07-14"},"SP95":{"p":1.559,"d":"2026-07-14"},"SP98":{"p":1.729,"d":"2026-07-14"}},"brand":"Repsol Comercial"},{"id":100012710,"lat":39.171111,"lng":-3.021167,"addr":"CARRETERA N-310 (ARGAMASILLA DE ALBA) KM. 0,800","city":"TOMELLOSO","cp":"13700","fuels":{"Gazole":{"p":1.529,"d":"2026-07-14"}},"brand":"Cotrato"},{"id":100015917,"lat":39.165472,"lng":-3.007417,"addr":"AVENIDA JUAN CARLOS I, 86","city":"TOMELLOSO","cp":"13700","fuels":{"Gazole":{"p":1.359,"d":"2026-07-14"},"SP95":{"p":1.399,"d":"2026-07-14"}},"brand":"T9","h24":true},{"id":100015642,"lat":39.143861,"lng":-3.028333,"addr":"CARRETERA CM3109 KM. 1,4","city":"TOMELLOSO","cp":"13700","fuels":{"Gazole":{"p":1.639,"d":"2026-07-14"},"SP95":{"p":1.559,"d":"2026-07-14"}},"brand":"Stop Oil"},{"id":100004426,"lat":39.161167,"lng":-2.993944,"addr":"CARRETERA N-310 KM. 93","city":"TOMELLOSO","cp":"13700","fuels":{"Gazole":{"p":1.359,"d":"2026-07-14"},"SP95":{"p":1.399,"d":"2026-07-14"},"SP98":{"p":1.499,"d":"2026-07-14"}},"brand":"Family Energy"},{"id":100008793,"lat":39.166333,"lng":-3.028167,"addr":"C/ ZURBARAN. Nº 19","city":"TOMELLOSO","cp":"13700","fuels":{"Gazole":{"p":1.619,"d":"2026-07-14"},"SP95":{"p":1.559,"d":"2026-07-14"}},"brand":"Shell"},{"id":100005290,"lat":39.168333,"lng":-3.022722,"addr":"CALLE CAMPO, 117","city":"TOMELLOSO","cp":"13700","fuels":{"Gazole":{"p":1.619,"d":"2026-07-14"},"SP95":{"p":1.559,"d":"2026-07-14"}},"brand":"Es"},{"id":100013665,"lat":39.169778,"lng":-3.022111,"addr":"CALLE CAMPO, 146","city":"TOMELLOSO","cp":"13700","fuels":{"Gazole":{"p":1.589,"d":"2026-07-14"},"SP95":{"p":1.529,"d":"2026-07-14"}},"brand":"Easy Fuel","h24":true},{"id":100014672,"lat":39.153778,"lng":-3.009389,"addr":"AVENIDA JUAN CARLOS I, 12","city":"TOMELLOSO","cp":"13700","fuels":{"Gazole":{"p":1.359,"d":"2026-07-14"},"SP95":{"p":1.399,"d":"2026-07-14"}},"brand":"Plenergy","h24":true},{"id":100016452,"lat":39.170056,"lng":-3.0145,"addr":"CARRETERA CM-400 KM. 129","city":"TOMELLOSO","cp":"13700","fuels":{"Gazole":{"p":1.359,"d":"2026-07-14"},"SP95":{"p":1.399,"d":"2026-07-14"}},"brand":"Ballenoil","h24":true},{"id":100005239,"lat":39.163694,"lng":-3.016139,"addr":"CALLE SOCUELLAMOS, 92","city":"TOMELLOSO","cp":"13700","fuels":{"Gazole":{"p":1.619,"d":"2026-07-14"},"SP95":{"p":1.555,"d":"2026-07-14"},"SP98":{"p":1.725,"d":"2026-07-14"}},"brand":"Repsol"},{"id":100012461,"lat":39.002806,"lng":-3.755417,"addr":"CALLE DEHESA DEL CAMPO, 5","city":"TORRALBA DE CALATRAVA","cp":"13160","fuels":{"Gazole":{"p":1.499,"d":"2026-07-14"},"SP95":{"p":1.469,"d":"2026-07-14"}},"brand":"Energias Af","h24":true},{"id":100010947,"lat":39.005917,"lng":-3.756389,"addr":"AUTOVIA A-43 KM. 290","city":"TORRALBA DE CALATRAVA","cp":"13160","fuels":{"Gazole":{"p":1.71,"d":"2026-07-14"},"SP95":{"p":1.667,"d":"2026-07-14"}},"brand":"Cepsa"},{"id":100010051,"lat":38.588361,"lng":-3.064361,"addr":"CARRETERA TORRENUEVA, 6 KM.","city":"TORRE DE JUAN ABAD","cp":"13344","fuels":{"Gazole":{"p":1.579,"d":"2026-07-14"},"SP95":{"p":1.555,"d":"2026-07-14"},"SP98":{"p":1.725,"d":"2026-07-14"}},"brand":"Repsol"},{"id":100012034,"lat":38.780917,"lng":-3.390306,"addr":"CARRETERA 601 KM. 0,700","city":"VALDEPEÑAS","cp":"13300","fuels":{"Gazole":{"p":1.639,"d":"2026-07-14"},"SP95":{"p":1.599,"d":"2026-07-14"},"GPLc":{"p":1.199,"d":"2026-07-14"}},"brand":"Cepsa"},{"id":100004863,"lat":38.824694,"lng":-3.396417,"addr":"AUTOVIA A-4 KM. 193,6","city":"VALDEPEÑAS","cp":"13300","fuels":{"Gazole":{"p":1.624,"d":"2026-07-14"},"SP95":{"p":1.58,"d":"2026-07-14"}},"brand":"Moeve","h24":true},{"id":100005480,"lat":38.779139,"lng":-3.388167,"addr":"AVENIDA DEL VINO, SN","city":"VALDEPEÑAS","cp":"13300","fuels":{"Gazole":{"p":1.518,"d":"2026-07-14"},"SP95":{"p":1.459,"d":"2026-07-14"},"SP98":{"p":1.529,"d":"2026-07-14"}},"brand":"Alcampo"},{"id":100005119,"lat":38.752111,"lng":-3.390639,"addr":"CL SEIS DE JUNIO, 247","city":"VALDEPEÑAS","cp":"13300","fuels":{"Gazole":{"p":1.599,"d":"2026-07-14"},"SP95":{"p":1.585,"d":"2026-07-14"},"SP98":{"p":1.769,"d":"2026-07-14"}},"brand":"Eni"},{"id":100015323,"lat":38.767556,"lng":-3.387889,"addr":"AVENIDA GREGORIO PRIETO, 27","city":"VALDEPEÑAS","cp":"13300","fuels":{"Gazole":{"p":1.709,"d":"2026-07-14"},"SP95":{"p":1.609,"d":"2026-07-14"}},"brand":"E.E.S.S. Mira"},{"id":100012909,"lat":38.686944,"lng":-3.437139,"addr":"CARRETERA N - IV KM. 210","city":"VALDEPEÑAS","cp":"13300","fuels":{"Gazole":{"p":1.539,"d":"2026-07-14"},"SP95":{"p":1.549,"d":"2026-07-14"}},"brand":"La Pará Rociera","h24":true},{"id":100009611,"lat":38.843417,"lng":-3.391833,"addr":"AUTOVIA  A-4 km 191,536","city":"VALDEPEÑAS","cp":"13300","fuels":{"Gazole":{"p":1.639,"d":"2026-07-14"},"SP95":{"p":1.569,"d":"2026-07-14"},"SP98":{"p":1.709,"d":"2026-07-14"}},"brand":"Shell","h24":true},{"id":100004819,"lat":38.686917,"lng":-3.436778,"addr":"CTRA. N-IV, P.K. 210","city":"VALDEPEÑAS","cp":"13300","fuels":{"Gazole":{"p":1.599,"d":"2026-07-14"},"SP95":{"p":1.609,"d":"2026-07-14"},"SP98":{"p":1.719,"d":"2026-07-14"}},"brand":"Galp","h24":true},{"id":100016261,"lat":38.749111,"lng":-3.393222,"addr":"AVENIDA DEL SUR, SN","city":"VALDEPEÑAS","cp":"13300","fuels":{"Gazole":{"p":1.496,"d":"2026-07-14"},"SP95":{"p":1.496,"d":"2026-07-14"}},"brand":"Ballenoil","h24":true},{"id":100005169,"lat":38.780917,"lng":-3.395389,"addr":"AUTOVIA A-4 KM. 198,7","city":"VALDEPEÑAS","cp":"13300","fuels":{"Gazole":{"p":1.569,"d":"2026-07-14"},"SP95":{"p":1.519,"d":"2026-07-14"}},"brand":"Fast Fuel","h24":true},{"id":100005168,"lat":38.781139,"lng":-3.395806,"addr":"AUTOVIA A-4 KM. 198,7","city":"VALDEPEÑAS","cp":"13300","fuels":{"Gazole":{"p":1.569,"d":"2026-07-14"},"SP95":{"p":1.519,"d":"2026-07-14"}},"brand":"Fast Fuel","h24":true},{"id":100015392,"lat":38.759528,"lng":-3.389194,"addr":"CALLE CRISTO, 72","city":"VALDEPEÑAS","cp":"13300","fuels":{"Gazole":{"p":1.519,"d":"2026-07-14"}},"brand":"Sis Carburantes","h24":true},{"id":100005158,"lat":38.766444,"lng":-3.3985,"addr":"CR CM-412, 84,8","city":"VALDEPEÑAS","cp":"13300","fuels":{"Gazole":{"p":1.609,"d":"2026-07-14"},"SP95":{"p":1.605,"d":"2026-07-14"},"SP98":{"p":1.775,"d":"2026-07-14"}},"brand":"Repsol"},{"id":100015211,"lat":38.763222,"lng":-3.361917,"addr":"CARRETERA CM 412 KM. 92","city":"VALDEPEÑAS","cp":"13300","fuels":{"Gazole":{"p":1.579,"d":"2026-07-14"},"SP95":{"p":1.589,"d":"2026-07-14"}},"brand":"Mellado"},{"id":100013424,"lat":38.763639,"lng":-3.412944,"addr":"CALLE SUIZA, 1","city":"VALDEPEÑAS","cp":"13300","fuels":{"Gazole":{"p":1.559,"d":"2026-07-14"}},"brand":"Tengo!!","h24":true},{"id":100013659,"lat":38.770972,"lng":-3.393889,"addr":"AVENIDA DE LOS ESTUDIANTES, 70","city":"VALDEPEÑAS","cp":"13300","fuels":{"Gazole":{"p":1.499,"d":"2026-07-14"},"SP95":{"p":1.499,"d":"2026-07-14"}},"brand":"Hafesa Oil","h24":true},{"id":100015447,"lat":38.760778,"lng":-3.374417,"addr":"CALLE VERACRUZ, 90","city":"VALDEPEÑAS","cp":"13300","fuels":{"Gazole":{"p":1.709,"d":"2026-07-14"},"SP95":{"p":1.609,"d":"2026-07-14"}},"brand":"E.S. Mira"},{"id":100005292,"lat":38.9015,"lng":-3.391639,"addr":"AUTOVIA ANDALUCIA KM. 185","city":"CONSOLACION","cp":"13310","fuels":{"Gazole":{"p":1.595,"d":"2026-07-14"},"SP95":{"p":1.599,"d":"2026-07-14"},"SP98":{"p":1.779,"d":"2026-07-14"}},"brand":"Eni","h24":true},{"id":100005293,"lat":38.899917,"lng":-3.390278,"addr":"AUTOVIA ANDALUCIA KM. 185","city":"CONSOLACION","cp":"13310","fuels":{"Gazole":{"p":1.549,"d":"2026-07-14"},"SP95":{"p":1.539,"d":"2026-07-14"}},"brand":"Atenoil","h24":true},{"id":100014621,"lat":38.883583,"lng":-3.39175,"addr":"AUTOVIA A-4 KM. 187","city":"CONSOLACION","cp":"13310","fuels":{"Gazole":{"p":1.609,"d":"2026-07-14"},"SP95":{"p":1.559,"d":"2026-07-14"},"SP98":{"p":1.729,"d":"2026-07-14"},"GPLc":{"p":0.999,"d":"2026-07-14"}},"brand":"Mlc","h24":true},{"id":100005229,"lat":38.750861,"lng":-2.874611,"addr":"AVENIDA CASTILLA LA MANCHA, 11","city":"VILLAHERMOSA","cp":"13332","fuels":{"Gazole":{"p":1.398,"d":"2026-07-14"},"SP95":{"p":1.438,"d":"2026-07-14"}},"brand":"Chm","h24":true},{"id":100014653,"lat":38.786861,"lng":-4.1415,"addr":"CARRETERA SAN QUINTIN KM. 68","city":"VILLAMAYOR DE CALATRAVA","cp":"13595","fuels":{"Gazole":{"p":1.489,"d":"2026-07-14"},"SP95":{"p":1.489,"d":"2026-07-14"}},"brand":"Montes Norte Energeticos S.L.","h24":true},{"id":100009666,"lat":38.695333,"lng":-2.691639,"addr":"CM 412 km 154.8","city":"VILLANUEVA DE LA FUENTE","cp":"13330","fuels":{"Gazole":{"p":1.459,"d":"2026-07-14"},"SP95":{"p":1.459,"d":"2026-07-14"}},"brand":"Libre"},{"id":100016050,"lat":38.740806,"lng":-3.00625,"addr":"CALLE PIO XII,93, 93","city":"VILLANUEVA LOS INFANTES","cp":"13320","fuels":{"Gazole":{"p":1.459,"d":"2026-07-14"},"SP95":{"p":1.459,"d":"2026-07-14"}},"brand":"A&a","h24":true},{"id":100005197,"lat":38.7385,"lng":-3.025528,"addr":"CR CR-604, 1,4","city":"VILLANUEVA LOS INFANTES","cp":"13320","fuels":{"Gazole":{"p":1.609,"d":"2026-07-14"},"SP95":{"p":1.569,"d":"2026-07-14"},"SP98":{"p":1.739,"d":"2026-07-14"}},"brand":"Campsa"},{"id":100004838,"lat":38.62325,"lng":-3.908611,"addr":"CR CR-504, 18,2","city":"VILLANUEVA DE SAN CARLOS","cp":"13379","fuels":{"Gazole":{"p":1.619,"d":"2026-07-14"},"SP95":{"p":1.605,"d":"2026-07-14"}},"brand":"E.S. Vadillo"},{"id":100008355,"lat":39.216361,"lng":-3.616278,"addr":"CARRETERA CARRETERA DE FUENTE EL FRESNO KM 15 KM. 15","city":"VILLARRUBIA DE LOS OJOS","cp":"13670","fuels":{"Gazole":{"p":1.529,"d":"2026-07-14"},"SP95":{"p":1.499,"d":"2026-07-14"}},"brand":"Avia"},{"id":100008897,"lat":39.211694,"lng":-3.59675,"addr":"CARRETERA CR-201 KM. 17","city":"VILLARRUBIA DE LOS OJOS","cp":"13670","fuels":{"Gazole":{"p":1.459,"d":"2026-07-14"},"SP95":{"p":1.42,"d":"2026-07-14"}},"brand":"El Rubial Soc. Coop.","h24":true},{"id":100004379,"lat":39.226473,"lng":-3.601356,"addr":"PASEO DEL CORDON 104 (CM 4120 km 16,700)","city":"VILLARRUBIA DE LOS OJOS","cp":"13670","fuels":{"Gazole":{"p":1.489,"d":"2026-07-14"},"SP95":{"p":1.459,"d":"2026-07-14"},"SP98":{"p":1.559,"d":"2026-07-14"}},"brand":"Villa Rubeum,s.L."},{"id":100005220,"lat":39.230444,"lng":-3.419139,"addr":"CALLE CERVANTES, 104","city":"VILLARTA DE SAN JUAN","cp":"13210","fuels":{"Gazole":{"p":1.589,"d":"2026-07-14"},"SP95":{"p":1.575,"d":"2026-07-14"}},"brand":"Repsol"},{"id":100004402,"lat":39.250333,"lng":-3.430306,"addr":"AUTOVIA A-4 KM. 145,330","city":"VILLARTA DE SAN JUAN","cp":"13210","fuels":{"Gazole":{"p":1.599,"d":"2026-07-14"},"SP95":{"p":1.599,"d":"2026-07-14"},"SP98":{"p":1.769,"d":"2026-07-14"}},"brand":"Taray","h24":true}]