[{"id":100009356,"lat":41.97325,"lng":-1.635194,"addr":"AVDA. DE RIBAFORADA (CARRETERA km 1)","city":"ABLITAS","cp":"31523","fuels":{"Gazole":{"p":1.5,"d":"2026-07-14"},"SP95":{"p":1.49,"d":"2026-07-14"}},"brand":"An Energeticos","h24":true},{"id":100001161,"lat":42.590333,"lng":-1.363972,"addr":"CR C-5340, 31","city":"AIBAR","cp":"31460","fuels":{"Gazole":{"p":1.599,"d":"2026-07-14"},"SP95":{"p":1.589,"d":"2026-07-14"}},"brand":"Avia"},{"id":100001117,"lat":42.571139,"lng":-2.022194,"addr":"CARRETERA ESTELLA KM. 11,8","city":"ALLO","cp":"31262","fuels":{"Gazole":{"p":1.439,"d":"2026-07-14"},"SP95":{"p":1.529,"d":"2026-07-14"}},"brand":"Hnos. Fernandez Urabain S.L.","h24":true},{"id":100001127,"lat":42.891,"lng":-2.16075,"addr":"AVENIDA PAMPLONA, 24","city":"ALTSASU/ALSASUA","cp":"31800","fuels":{"Gazole":{"p":1.579,"d":"2026-07-14"},"SP95":{"p":1.599,"d":"2026-07-14"},"SP98":{"p":1.769,"d":"2026-07-14"}},"brand":"Repsol"},{"id":100001213,"lat":42.917667,"lng":-2.195389,"addr":"AUTOVIA A1 KM. 401","city":"ALTSASU/ALSASUA","cp":"31800","fuels":{"Gazole":{"p":1.689,"d":"2026-07-14"},"SP95":{"p":1.689,"d":"2026-07-14"}},"brand":"Galp"},{"id":100001214,"lat":42.915306,"lng":-2.197889,"addr":"AUTOVIA A 1 KM. 401","city":"ALTSASU/ALSASUA","cp":"31800","fuels":{"Gazole":{"p":1.649,"d":"2026-07-14"},"SP95":{"p":1.639,"d":"2026-07-14"}},"brand":"Galp","h24":true},{"id":100001125,"lat":42.9155,"lng":-2.183833,"addr":"CARRETERA N-I KM. 398","city":"ALTSASU/ALSASUA","cp":"31800","fuels":{"Gazole":{"p":1.622,"d":"2026-07-14"}},"brand":"Ids","h24":true},{"id":100013810,"lat":42.891472,"lng":-2.163806,"addr":"AVENIDA IRUÑEKO ETORBIDEA/AVENIDA DE PAMPLONA, 18","city":"ALTSASU/ALSASUA","cp":"31800","fuels":{"Gazole":{"p":1.424,"d":"2026-07-14"},"SP95":{"p":1.454,"d":"2026-07-14"}},"brand":"Izelai Fuel","h24":true},{"id":100001211,"lat":42.89,"lng":-2.169028,"addr":"AVENIDA VITORIA, S/N","city":"ALTSASU/ALSASUA","cp":"31800","fuels":{"Gazole":{"p":1.424,"d":"2026-07-14"},"SP95":{"p":1.454,"d":"2026-07-14"}},"brand":"Izelai Fuel","h24":true},{"id":100001157,"lat":42.771222,"lng":-2.130472,"addr":"CALLE SAN ANTON,7,","city":"ZUDAIRE","cp":"31272","fuels":{"Gazole":{"p":1.652,"d":"2026-07-14"},"SP95":{"p":1.67,"d":"2026-07-14"}},"brand":"Petronor"},{"id":100011599,"lat":42.379861,"lng":-1.957333,"addr":"CARRETERA EJE DEL EBRO KM. 55","city":"ANDOSILLA","cp":"31261","fuels":{"Gazole":{"p":1.489,"d":"2026-07-14"},"SP95":{"p":1.499,"d":"2026-07-14"}},"brand":"An Energeticos Andosilla","h24":true},{"id":100010583,"lat":42.931806,"lng":-1.608806,"addr":"CARRETERA PAMPLONA-IRUN KM. 17,3","city":"BURUTAIN","cp":"31798","fuels":{"Gazole":{"p":1.609,"d":"2026-07-14"},"SP95":{"p":1.599,"d":"2026-07-14"},"E10":{"p":1.699,"d":"2026-07-14"}},"brand":"Mlc","h24":true},{"id":100001112,"lat":42.784389,"lng":-1.372472,"addr":"CALLE DOMINGO ELIZONDO, 12","city":"AOIZ/AGOITZ","cp":"31430","fuels":{"Gazole":{"p":1.619,"d":"2026-07-14"},"SP95":{"p":1.629,"d":"2026-07-14"}},"brand":"Estacion De Servicio Aoiz, S.L."},{"id":100001218,"lat":43.033417,"lng":-1.983694,"addr":"CALLE ORELLA, S/N","city":"ARRIBE","cp":"31891","fuels":{"Gazole":{"p":1.589,"d":"2026-07-14"},"SP95":{"p":1.595,"d":"2026-07-14"}},"brand":"Repsol"},{"id":100001234,"lat":42.9125,"lng":-1.863028,"addr":"CR A-10    AUTOVIA DE LA BARRANCA","city":"ETXARREN","cp":"31868","fuels":{"Gazole":{"p":1.635,"d":"2026-07-14"},"SP95":{"p":1.639,"d":"2026-07-14"},"SP98":{"p":1.799,"d":"2026-07-14"}},"brand":"Repsol"},{"id":100014707,"lat":42.786,"lng":-1.624222,"addr":"CALLE A, DEL POLÍGONO INDUSTRIAL MUTILVA BAJA, 21","city":"MUTILVA BAJA/MUTILOABEITI","cp":"31192","fuels":{"GPLc":{"p":1.089,"d":"2026-07-14"}},"brand":"Lc Repost - M.G. Mutilva"},{"id":100008487,"lat":42.800611,"lng":-1.611611,"addr":"CARRETERA N-32 KM. 5,2","city":"MUTILVA BAJA/MUTILOABEITI","cp":"31192","fuels":{"Gazole":{"p":1.639,"d":"2026-07-14"},"SP95":{"p":1.689,"d":"2026-07-14"},"SP98":{"p":1.879,"d":"2026-07-14"}},"brand":"Repsol"},{"id":100008488,"lat":42.80175,"lng":-1.612667,"addr":"CARRETERA N-32 KM. 5,2","city":"MUTILVA BAJA/MUTILOABEITI","cp":"31192","fuels":{"Gazole":{"p":1.639,"d":"2026-07-14"},"SP95":{"p":1.689,"d":"2026-07-14"},"SP98":{"p":1.879,"d":"2026-07-14"}},"brand":"Repsol"},{"id":100001198,"lat":42.776111,"lng":-1.634722,"addr":"CARRETERA N-121 KM. 5","city":"ARANGUREN","cp":"31192","fuels":{"Gazole":{"p":1.625,"d":"2026-07-14"},"SP95":{"p":1.629,"d":"2026-07-14"}},"brand":"Repsol"},{"id":100001174,"lat":42.774333,"lng":-1.633278,"addr":"POLIGONO TALLUNTXE II, S/N","city":"ARANGUREN","cp":"31192","fuels":{"Gazole":{"p":1.439,"d":"2026-07-14"},"SP95":{"p":1.499,"d":"2026-07-14"}},"brand":"Gasolinera Noáin","h24":true},{"id":100009229,"lat":42.770083,"lng":-1.624917,"addr":"CAMPA CAMPO DE TAJONAR, S/N","city":"TAJONAR/TAXOARE","cp":"31192","fuels":{"Gazole":{"p":1.489,"d":"2026-07-14"},"SP95":{"p":1.479,"d":"2026-07-14"}},"brand":"An Energéticos - Tajonar","h24":true},{"id":100012745,"lat":42.555556,"lng":-2.180833,"addr":"CARRETERA NA-129 ACEDO-SESMA-LODOSA KM. 14,6","city":"ARCOS (LOS)","cp":"31210","fuels":{"Gazole":{"p":1.699,"d":"2026-07-14"},"SP95":{"p":1.679,"d":"2026-07-14"},"SP98":{"p":1.849,"d":"2026-07-14"}},"brand":"Cepsa"},{"id":100009442,"lat":42.577278,"lng":-2.198417,"addr":"CARRETERA CARRETERA LOS ARCOS-ACEDO KM. 1,5","city":"ARCOS (LOS)","cp":"31210","fuels":{"Gazole":{"p":1.489,"d":"2026-07-14"}},"brand":"A.N. Energeticos - Los Arcos","h24":true},{"id":100010235,"lat":42.573972,"lng":-2.194278,"addr":"CALLE JOAQUIN MARIA GASTON, 12","city":"ARCOS (LOS)","cp":"31210","fuels":{"Gazole":{"p":1.489,"d":"2026-07-14"},"SP95":{"p":1.659,"d":"2026-07-14"}},"brand":"Can S.L.","h24":true},{"id":100001114,"lat":42.568333,"lng":-2.191722,"addr":"MALVASIA, 5","city":"ARCOS (LOS)","cp":"31210","fuels":{"Gazole":{"p":1.479,"d":"2026-07-14"},"SP98":{"p":1.599,"d":"2026-07-14"}},"brand":"Avia"},{"id":100009573,"lat":42.171139,"lng":-1.587944,"addr":"CAMINO BARDENAS REALES, S/N","city":"ARGUEDAS","cp":"31513","fuels":{"Gazole":{"p":1.489,"d":"2026-07-14"},"SP95":{"p":1.479,"d":"2026-07-14"}},"brand":"An Energeticos - Arguedas","h24":true},{"id":100001142,"lat":42.167611,"lng":-1.593083,"addr":"NA-134 km 13,6","city":"ARGUEDAS","cp":"31513","fuels":{"Gazole":{"p":1.529,"d":"2026-07-14"},"SP95":{"p":1.515,"d":"2026-07-14"}},"brand":"E.S.La Recta"},{"id":100001151,"lat":42.945722,"lng":-1.265667,"addr":"CALLE SANTA MARIA, 13","city":"ARIBE","cp":"31671","fuels":{"Gazole":{"p":1.6,"d":"2026-07-14"},"SP95":{"p":1.6,"d":"2026-07-14"}},"brand":"Petronor"},{"id":100011683,"lat":42.584222,"lng":-2.09075,"addr":"POLIGONO POLIGONO INDUSTRIAL 10, 10","city":"ARRONIZ","cp":"31243","fuels":{"Gazole":{"p":1.489,"d":"2026-07-14"},"SP95":{"p":1.479,"d":"2026-07-14"}},"brand":"An Energéticos - Ezkibel","h24":true},{"id":100001108,"lat":42.586528,"lng":-1.76475,"addr":"CALLE AVDA DIPUTACIÓN FORAL, 7,","city":"ARTAJONA","cp":"31140","fuels":{"Gazole":{"p":1.504,"d":"2026-07-14"},"SP95":{"p":1.518,"d":"2026-07-14"}},"brand":"Adelfas Oil"},{"id":100012279,"lat":42.586972,"lng":-1.766083,"addr":"TRAVESÍA SAN ISIDRO LABRADOR, S/N","city":"ARTAJONA","cp":"31140","fuels":{"Gazole":{"p":1.48,"d":"2026-07-14"},"SP95":{"p":1.47,"d":"2026-07-14"}},"brand":"An Energeticos Artajona","h24":true},{"id":100011693,"lat":42.315667,"lng":-1.902167,"addr":"POLIGONO INDUSTRIAL, CALLE D, 8","city":"AZAGRA","cp":"31560","fuels":{"Gazole":{"p":1.509,"d":"2026-07-14"},"SP95":{"p":1.509,"d":"2026-07-14"}},"brand":"An Energeticos Azagra","h24":true},{"id":100001147,"lat":42.806861,"lng":-1.67675,"addr":"RONDA DE BARAÑAIN, 2","city":"BARAÑAIN","cp":"31010","fuels":{"Gazole":{"p":1.645,"d":"2026-07-14"},"SP95":{"p":1.645,"d":"2026-07-14"}},"brand":"Cepsa"},{"id":100009376,"lat":42.60225,"lng":-1.644417,"addr":"CTRA. SOLCHAGA, S/N","city":"BARASOAIN","cp":"31395","fuels":{"Gazole":{"p":1.438,"d":"2026-07-14"},"SP95":{"p":1.448,"d":"2026-07-14"}},"brand":"Talleres Arrubla"},{"id":100009568,"lat":43.180167,"lng":-1.489222,"addr":"BARRIO ORDOKI","city":"ARIZKUN","cp":"31713","fuels":{"Gazole":{"p":1.509,"d":"2026-07-14"},"SP95":{"p":1.499,"d":"2026-07-14"}},"brand":"An Energeticos","h24":true},{"id":100001194,"lat":43.148639,"lng":-1.512361,"addr":"CR N-121B, 59 (N-121B km 58)","city":"ELIZONDO","cp":"31700","fuels":{"Gazole":{"p":1.605,"d":"2026-07-14"},"SP95":{"p":1.639,"d":"2026-07-14"}},"brand":"Campsa"},{"id":100011843,"lat":43.140028,"lng":-1.572778,"addr":"CARRETERA NA-121B KM. 45","city":"ARRAIOZ","cp":"31794","fuels":{"Gazole":{"p":1.409,"d":"2026-07-14"},"SP95":{"p":1.449,"d":"2026-07-14"},"SP98":{"p":1.639,"d":"2026-07-14"}},"brand":"Nafar Mendi"},{"id":100001193,"lat":43.137472,"lng":-1.611139,"addr":"CR N-121, 48","city":"MUGAIRI(ORONOZ)","cp":"31720","fuels":{"Gazole":{"p":1.569,"d":"2026-07-14"},"SP95":{"p":1.569,"d":"2026-07-14"}},"brand":"Zona Auto Mugaire Avia","h24":true},{"id":100010778,"lat":43.309361,"lng":-1.687444,"addr":"BARRIO IBARDIN, S/N","city":"BERA / VERA DE BIDASOA","cp":"31780","fuels":{"Gazole":{"p":1.569,"d":"2026-07-14"},"SP95":{"p":1.579,"d":"2026-07-14"},"SP98":{"p":1.679,"d":"2026-07-14"}},"brand":"Avia"},{"id":100012477,"lat":43.309306,"lng":-1.684056,"addr":"BARRIO IBARDIN, 19","city":"BERA / VERA DE BIDASOA","cp":"31780","fuels":{"Gazole":{"p":1.569,"d":"2026-07-14"},"SP95":{"p":1.579,"d":"2026-07-14"},"SP98":{"p":1.679,"d":"2026-07-14"}},"brand":"Nafaroil"},{"id":100001201,"lat":43.270833,"lng":-1.687167,"addr":"CR N-121, 75","city":"BERA / VERA DE BIDASOA","cp":"31780","fuels":{"Gazole":{"p":1.579,"d":"2026-07-14"},"SP95":{"p":1.599,"d":"2026-07-14"}},"brand":"Petronor"},{"id":100013548,"lat":43.276611,"lng":-1.700306,"addr":"POLIGONO POLIGONO INDUSTRIAL ZALAIN, S-P PARCELA 3/104/2, 104","city":"BERA / VERA DE BIDASOA","cp":"31780","fuels":{"Gazole":{"p":1.539,"d":"2026-07-14"},"SP95":{"p":1.499,"d":"2026-07-14"}},"brand":"Noil","h24":true},{"id":100012389,"lat":43.278083,"lng":-1.700278,"addr":"POLIGONO ZALAIN, 5","city":"BERA / VERA DE BIDASOA","cp":"31780","fuels":{"Gazole":{"p":1.585,"d":"2026-07-14"},"SP95":{"p":1.595,"d":"2026-07-14"}},"brand":"BP","h24":true},{"id":100013651,"lat":43.276444,"lng":-1.700889,"addr":"CALLE ZALAIN, 18","city":"BERA / VERA DE BIDASOA","cp":"31780","fuels":{"Gazole":{"p":1.579,"d":"2026-07-14"},"SP95":{"p":1.529,"d":"2026-07-14"}},"brand":"Petromiralles Bera","h24":true},{"id":100001136,"lat":43.278278,"lng":-1.710056,"addr":"CARRETERA NA-121 A KM. 77,39","city":"BERA / VERA DE BIDASOA","cp":"31780","fuels":{"Gazole":{"p":1.595,"d":"2026-07-14"},"SP95":{"p":1.595,"d":"2026-07-14"}},"brand":"Repsol"},{"id":100001137,"lat":43.278111,"lng":-1.708583,"addr":"CARRETERA NA-121A KM. 77,3","city":"BERA / VERA DE BIDASOA","cp":"31780","fuels":{"Gazole":{"p":1.585,"d":"2026-07-14"},"SP95":{"p":1.595,"d":"2026-07-14"}},"brand":"Repsol","h24":true},{"id":100009352,"lat":42.522889,"lng":-1.837889,"addr":"CTRA. LERIN S/N","city":"BERBINZANA","cp":"31252","fuels":{"Gazole":{"p":1.489,"d":"2026-07-14"}},"brand":"Energeticos Berbinzana","h24":true},{"id":100001109,"lat":42.736,"lng":-1.633139,"addr":"N-121 PAMPLONA-ZARAGOZA km 9,4","city":"BERIAIN","cp":"31191","fuels":{"Gazole":{"p":1.396,"d":"2026-07-14"},"SP95":{"p":1.426,"d":"2026-07-14"}},"brand":"Ballenoil","h24":true},{"id":100001102,"lat":42.734444,"lng":-1.633556,"addr":"N-121 KM 9,4,","city":"BERIAIN","cp":"31191","fuels":{"Gazole":{"p":1.645,"d":"2026-07-14"},"SP95":{"p":1.645,"d":"2026-07-14"}},"brand":"Moeve"},{"id":100011437,"lat":42.737417,"lng":-1.630694,"addr":"POLIGONO ERREKALDEA A, 3","city":"BERIAIN","cp":"31191","fuels":{"Gazole":{"p":1.399,"d":"2026-07-14"}},"brand":"Abycer"},{"id":100001126,"lat":42.734722,"lng":-1.633889,"addr":"CTRA. N-121 km 9,5","city":"BERIAIN","cp":"31195","fuels":{"Gazole":{"p":1.627,"d":"2026-07-14"}},"brand":"Ids","h24":true},{"id":100001106,"lat":42.84325,"lng":-1.681528,"addr":"CTRA.GUIPUZCOA-N-240 km 5,5","city":"AIZOAIN","cp":"31195","fuels":{"Gazole":{"p":1.429,"d":"2026-07-14"},"SP95":{"p":1.479,"d":"2026-07-14"},"GPLc":{"p":1.099,"d":"2026-07-14"}},"brand":"Estacion De Servicio Aralar"},{"id":100008295,"lat":42.842889,"lng":-1.681833,"addr":"CALLE MARIA VISCARRET - NUEVO ARTICA, 39","city":"BERRIOPLANO","cp":"31195","fuels":{"Gazole":{"p":1.495,"d":"2026-07-14"},"SP95":{"p":1.494,"d":"2026-07-14"},"SP98":{"p":1.655,"d":"2026-07-14"}},"brand":"Galp"},{"id":100011847,"lat":42.835722,"lng":-1.689,"addr":"POLIGONO COMARCA I     CALLE D, S/N","city":"BERRIOPLANO","cp":"31195","fuels":{"Gazole":{"p":1.399,"d":"2026-07-14"}},"brand":"Transportes Cruz","h24":true},{"id":100014857,"lat":42.833667,"lng":-1.652306,"addr":"CALLE ARTICA, 30","city":"BERRIOPLANO","cp":"31195","fuels":{"Gazole":{"p":1.419,"d":"2026-07-14"},"SP95":{"p":1.479,"d":"2026-07-14"}},"brand":"Petroprix","h24":true},{"id":100008296,"lat":42.831583,"lng":-1.651222,"addr":"CALLE ARTICA ESQ  C/ANSOAIN, SN","city":"ARTICA","cp":"31013","fuels":{"Gazole":{"p":1.52,"d":"2026-07-14"},"SP95":{"p":1.53,"d":"2026-07-14"},"SP98":{"p":1.677,"d":"2026-07-14"}},"brand":"Galp"},{"id":100013747,"lat":42.836861,"lng":-1.672889,"addr":"CARRETERA AVD. GUIPUZCOA N-240 KM. 4","city":"BERRIOZAR","cp":"31013","fuels":{"Gazole":{"p":1.625,"d":"2026-07-14"},"SP95":{"p":1.619,"d":"2026-07-14"},"SP98":{"p":1.789,"d":"2026-07-14"},"GPLc":{"p":1.085,"d":"2026-07-14"}},"brand":"Repsol"},{"id":100008344,"lat":43.130444,"lng":-1.630722,"addr":"CARRETERA N-121A KM. 44,5","city":"LEGASA","cp":"31792","fuels":{"Gazole":{"p":1.595,"d":"2026-07-14"},"SP95":{"p":1.629,"d":"2026-07-14"},"SP98":{"p":1.799,"d":"2026-07-14"}},"brand":"Repsol"},{"id":100008250,"lat":43.129972,"lng":-1.631611,"addr":"CARRETERA N-121A KM. 44,5","city":"LEGASA","cp":"31792","fuels":{"Gazole":{"p":1.605,"d":"2026-07-14"},"SP95":{"p":1.629,"d":"2026-07-14"},"SP98":{"p":1.799,"d":"2026-07-14"}},"brand":"Repsol"},{"id":100001221,"lat":41.975444,"lng":-1.44,"addr":"PASEO DEL EBRO, 10","city":"BUÑUEL","cp":"31540","fuels":{"Gazole":{"p":1.357,"d":"2026-07-14"},"SP95":{"p":1.357,"d":"2026-07-14"}},"brand":"Euronor Energy","h24":true},{"id":100016160,"lat":42.831222,"lng":-1.620389,"addr":"POLIGONO MUGAZURI, 3","city":"BURLADA/BURLATA","cp":"31600","fuels":{"Gazole":{"p":1.419,"d":"2026-07-14"},"SP95":{"p":1.479,"d":"2026-07-14"}},"brand":"Plenergy","h24":true},{"id":100011009,"lat":42.830778,"lng":-1.61925,"addr":"POLIGONO MUGAZURI PARCELA B, 4","city":"BURLADA/BURLATA","cp":"31600","fuels":{"Gazole":{"p":1.419,"d":"2026-07-14"},"SP95":{"p":1.479,"d":"2026-07-14"},"SP98":{"p":1.519,"d":"2026-07-14"}},"brand":"Alcampo"},{"id":100001232,"lat":42.029556,"lng":-1.516056,"addr":"CARRETERA TAUSTE KM. 8,5","city":"CABANILLAS","cp":"31511","fuels":{"Gazole":{"p":1.559,"d":"2026-07-14"},"SP95":{"p":1.589,"d":"2026-07-14"}},"brand":"Petronor"},{"id":100012713,"lat":42.221944,"lng":-1.688611,"addr":"POLIGONO LAS NAVAS, CALLE A, 1","city":"CADREITA","cp":"31515","fuels":{"Gazole":{"p":1.539,"d":"2026-07-14"},"SP95":{"p":1.529,"d":"2026-07-14"}},"brand":"An Energeticos - Cadreita","h24":true},{"id":100009653,"lat":42.338722,"lng":-1.646167,"addr":"CAMINO CAMINO DEL CEMENTERIO, S/N","city":"CAPARROSO","cp":"31380","fuels":{"Gazole":{"p":1.489,"d":"2026-07-14"},"SP95":{"p":1.479,"d":"2026-07-14"}},"brand":"An Energeticos - Caparroso","h24":true},{"id":100001189,"lat":42.350722,"lng":-1.650389,"addr":"CARRETERA NACIONAL 121 KM. 56","city":"CAPARROSO","cp":"31380","fuels":{"Gazole":{"p":1.678,"d":"2026-07-14"},"SP95":{"p":1.645,"d":"2026-07-14"}},"brand":"Moeve"},{"id":100001226,"lat":42.400583,"lng":-1.964639,"addr":"CR NA-122, 31","city":"CARCAR","cp":"31579","fuels":{"Gazole":{"p":1.469,"d":"2026-07-14"},"SP95":{"p":1.479,"d":"2026-07-14"}},"brand":"Combustibles Piudo","h24":true},{"id":100010959,"lat":42.396167,"lng":-1.98675,"addr":"POLIGONO EL MALLATON, 6","city":"CARCAR","cp":"31579","fuels":{"Gazole":{"p":1.469,"d":"2026-07-14"}},"brand":"Luis Moreno Roldan","h24":true},{"id":100009468,"lat":42.373833,"lng":-1.443222,"addr":"AVENIDA ARAGON 50","city":"CARCASTILLO","cp":"31310","fuels":{"Gazole":{"p":1.489,"d":"2026-07-14"},"SP95":{"p":1.479,"d":"2026-07-14"}},"brand":"An Energeticos - Carcastillo","h24":true},{"id":100001119,"lat":42.036472,"lng":-1.631,"addr":"CARRETERA N-121 KM. KM 3,55","city":"CASCANTE","cp":"31520","fuels":{"Gazole":{"p":1.559,"d":"2026-07-14"},"SP95":{"p":1.599,"d":"2026-07-14"},"SP98":{"p":1.669,"d":"2026-07-14"}},"brand":"Q8"},{"id":100001215,"lat":41.993278,"lng":-1.676361,"addr":"CR N-121  C, 10","city":"CASCANTE","cp":"31520","fuels":{"Gazole":{"p":1.609,"d":"2026-07-14"},"SP95":{"p":1.625,"d":"2026-07-14"},"SP98":{"p":1.795,"d":"2026-07-14"}},"brand":"Repsol"},{"id":100009551,"lat":42.529306,"lng":-1.364778,"addr":"CTRA. GALLIPIENZO KM. 1","city":"CASEDA","cp":"31490","fuels":{"Gazole":{"p":1.489,"d":"2026-07-14"},"SP95":{"p":1.479,"d":"2026-07-14"}},"brand":"An Energeticos - Caseda","h24":true},{"id":100001225,"lat":42.173278,"lng":-1.699139,"addr":"CALLE FINAL CALLE SAN JOSE S.N, S/N","city":"CASTEJON","cp":"31590","fuels":{"Gazole":{"p":1.477,"d":"2026-07-14"},"SP95":{"p":1.538,"d":"2026-07-14"}},"brand":"Atugas"},{"id":100001133,"lat":42.136917,"lng":-1.699944,"addr":"CARRETERA Nº 232 P.K. 82 KM. 82","city":"CASTEJON","cp":"31590","fuels":{"Gazole":{"p":1.605,"d":"2026-07-14"},"SP95":{"p":1.595,"d":"2026-07-14"},"SP98":{"p":1.765,"d":"2026-07-14"}},"brand":"Repsol"},{"id":100009152,"lat":42.135028,"lng":-1.700306,"addr":"CARRETERA N-232 KM. 83,7","city":"CASTEJON","cp":"31590","fuels":{"Gazole":{"p":1.399,"d":"2026-07-14"},"SP95":{"p":1.399,"d":"2026-07-14"}},"brand":"Beroil","h24":true},{"id":100012277,"lat":42.179222,"lng":-1.696611,"addr":"CARRETERA N-113 KM. 77","city":"CASTEJON","cp":"31590","fuels":{"Gazole":{"p":1.489,"d":"2026-07-14"},"SP95":{"p":1.479,"d":"2026-07-14"}},"brand":"An Energeticos - Castejon","h24":true},{"id":100001190,"lat":42.076944,"lng":-1.79675,"addr":"CARRETERA N-113 KM. 91,5","city":"CINTRUENIGO","cp":"31592","fuels":{"Gazole":{"p":1.678,"d":"2026-07-14"},"SP95":{"p":1.645,"d":"2026-07-14"}},"brand":"Moeve"},{"id":100015520,"lat":42.08725,"lng":-1.816167,"addr":"POLIGONO COMERCIAL ALHAMA, SN","city":"CINTRUENIGO","cp":"31592","fuels":{"Gazole":{"p":1.479,"d":"2026-07-14"},"SP95":{"p":1.479,"d":"2026-07-14"},"SP98":{"p":1.629,"d":"2026-07-14"}},"brand":"Bm Complet"},{"id":100012001,"lat":42.072611,"lng":-1.793361,"addr":"POLIGONO POLIGONO INDUSTRIAL S/N, 2","city":"CINTRUENIGO","cp":"31592","fuels":{"Gazole":{"p":1.489,"d":"2026-07-14"},"SP95":{"p":1.479,"d":"2026-07-14"}},"brand":"An Energeticos/bodega Cirbonera","h24":true},{"id":100009264,"lat":42.071833,"lng":-1.797758,"addr":"POLIGONO INDUSTRIAL CALLE F, 1","city":"CINTRUENIGO","cp":"31592","fuels":{"Gazole":{"p":1.568,"d":"2026-07-14"},"SP95":{"p":1.618,"d":"2026-07-14"}},"brand":"Estacion De Servicio Pradesol","h24":true},{"id":100001140,"lat":42.7775,"lng":-1.707611,"addr":"AUTOVIA A-12 KM. 7,3","city":"GAZOLAZ","cp":"31190","fuels":{"Gazole":{"p":1.637,"d":"2026-07-14"},"SP95":{"p":1.605,"d":"2026-07-14"},"SP98":{"p":1.797,"d":"2026-07-14"}},"brand":"Cepsa"},{"id":100001141,"lat":42.7775,"lng":-1.707611,"addr":"AUTOVIA A-12 KM. 7,3","city":"GAZOLAZ","cp":"31190","fuels":{"Gazole":{"p":1.634,"d":"2026-07-14"},"SP95":{"p":1.605,"d":"2026-07-14"}},"brand":"Cepsa"},{"id":100016479,"lat":42.778278,"lng":-1.707139,"addr":"AUTOVIA A-12 KM. 7,3","city":"ASTRAIN","cp":"31190","fuels":{"Gazole":{"p":1.379,"d":"2026-07-14"},"SP95":{"p":1.419,"d":"2026-07-14"}},"brand":"Ballenoil","h24":true},{"id":100010969,"lat":42.114611,"lng":-1.797889,"addr":"POLIGONO INDUSTRIAL OMBATILLO, S/N","city":"CORELLA","cp":"31591","fuels":{"Gazole":{"p":1.636,"d":"2026-07-14"},"SP95":{"p":1.654,"d":"2026-07-14"},"SP98":{"p":1.846,"d":"2026-07-14"}},"brand":"Sertelgas,sl"},{"id":100013109,"lat":42.113194,"lng":-1.779778,"addr":"CARRETERA NA-6920 KM. 3,850","city":"CORELLA","cp":"31591","fuels":{"Gazole":{"p":1.525,"d":"2026-07-14"},"SP95":{"p":1.496,"d":"2026-07-14"}},"brand":"Estacion De Servicio La Noria"},{"id":100014908,"lat":41.926556,"lng":-1.422056,"addr":"AVENIDA CARMEN BELLIDO, 52","city":"CORTES","cp":"31530","fuels":{"Gazole":{"p":1.489,"d":"2026-07-14"},"SP95":{"p":1.479,"d":"2026-07-14"}},"brand":"An Energeticos, S.L.","h24":true},{"id":100001115,"lat":43.136083,"lng":-1.680583,"addr":"CARRETERA COMARCAL NA-170 km 31,1","city":"DONEZTEBE/SANTESTEBAN","cp":"31740","fuels":{"Gazole":{"p":1.519,"d":"2026-07-14"},"SP95":{"p":1.529,"d":"2026-07-14"}},"brand":"Avia"},{"id":100008271,"lat":43.152556,"lng":-1.668083,"addr":"CARRETERA N-121-A KM. 55","city":"DONEZTEBE/SANTESTEBAN","cp":"31740","fuels":{"Gazole":{"p":1.645,"d":"2026-07-14"},"SP95":{"p":1.623,"d":"2026-07-14"}},"brand":"Moeve","h24":true},{"id":100001239,"lat":43.155889,"lng":-1.670167,"addr":"CARRETERA NACIONAL 121-A KM. 48,5","city":"DONEZTEBE/SANTESTEBAN","cp":"31740","fuels":{"Gazole":{"p":1.429,"d":"2026-07-14"},"SP95":{"p":1.479,"d":"2026-07-14"}},"brand":"E.S. Kontxa S.L."},{"id":100001240,"lat":42.826944,"lng":-1.567917,"addr":"CARRETERA NA150 KM. 1,56","city":"ALZUZA","cp":"31486","fuels":{"Gazole":{"p":1.499,"d":"2026-07-14"},"SP95":{"p":1.519,"d":"2026-07-14"}},"brand":"Dst","h24":true},{"id":100011099,"lat":42.824167,"lng":-1.563056,"addr":"POLIGONO INDUSTRIAL, S/N","city":"EGUES","cp":"31486","fuels":{"Gazole":{"p":1.536,"d":"2026-07-14"}},"brand":"Igoa Y Patxi Sl","h24":true},{"id":100012693,"lat":42.826028,"lng":-1.562972,"addr":"CARRETERA NA-150 KM. 2","city":"EGUES","cp":"31486","fuels":{"Gazole":{"p":1.479,"d":"2026-07-14"},"SP95":{"p":1.469,"d":"2026-07-14"}},"brand":"An Energeticos - Urroz","h24":true},{"id":100014479,"lat":42.815556,"lng":-1.590667,"addr":"CALLE OLAZ, 3","city":"OLAZ","cp":"31620","fuels":{"Gazole":{"p":1.519,"d":"2026-07-14"},"SP95":{"p":1.509,"d":"2026-07-14"}},"brand":"An Energeticos S.L. - Sarriguren","h24":true},{"id":100001130,"lat":42.816111,"lng":-1.593222,"addr":"CR N-135, 4,6","city":"OLAZ","cp":"31620","fuels":{"Gazole":{"p":1.619,"d":"2026-07-14"},"SP95":{"p":1.625,"d":"2026-07-14"},"SP98":{"p":1.795,"d":"2026-07-14"}},"brand":"Repsol"},{"id":100001131,"lat":42.817194,"lng":-1.59275,"addr":"CARRETERA N-135 KM. 4,6","city":"OLAZ","cp":"31620","fuels":{"Gazole":{"p":1.619,"d":"2026-07-14"},"SP95":{"p":1.625,"d":"2026-07-14"},"SP98":{"p":1.795,"d":"2026-07-14"}},"brand":"Repsol"},{"id":100013025,"lat":42.977861,"lng":-1.364,"addr":"CARRETERA N-135 KM. 41","city":"AURIZBERRI / ESPINAL","cp":"31694","fuels":{"Gazole":{"p":1.629,"d":"2026-07-14"},"SP95":{"p":1.569,"d":"2026-07-14"}},"brand":"Low Cost Fuel Oil","h24":true},{"id":100001101,"lat":42.664361,"lng":-2.032528,"addr":"CARLOS VII, 22","city":"ESTELLA O LIZARRA","cp":"31200","fuels":{"Gazole":{"p":1.529,"d":"2026-07-14"},"SP95":{"p":1.539,"d":"2026-07-14"}},"brand":"Avia"},{"id":100001235,"lat":42.6535,"lng":-2.026667,"addr":"PG MERKATONDOA - UPP3 PARC.4, S.N.","city":"ESTELLA O LIZARRA","cp":"31200","fuels":{"Gazole":{"p":1.619,"d":"2026-07-14"},"SP95":{"p":1.615,"d":"2026-07-14"},"SP98":{"p":1.755,"d":"2026-07-14"}},"brand":"Bp Estella"},{"id":100012151,"lat":42.660972,"lng":-2.034167,"addr":"CALLE CARLOS VII, 28","city":"ESTELLA O LIZARRA","cp":"31200","fuels":{"Gazole":{"p":1.34,"d":"2026-07-14"},"SP95":{"p":1.4,"d":"2026-07-14"}},"brand":"Alcampo"},{"id":100011171,"lat":42.677889,"lng":-2.035861,"addr":"AVENIDA GUIPUZCOA, S/N","city":"ESTELLA O LIZARRA","cp":"31200","fuels":{"Gazole":{"p":1.509,"d":"2026-07-14"},"SP95":{"p":1.529,"d":"2026-07-14"}},"brand":"Iguzquiza Y Echeverria S.L."},{"id":100014249,"lat":42.663028,"lng":-2.031194,"addr":"CALLE MERKATONDOA, 7","city":"ESTELLA O LIZARRA","cp":"31200","fuels":{"Gazole":{"p":1.34,"d":"2026-07-14"},"SP95":{"p":1.37,"d":"2026-07-14"}},"brand":"Eroski","h24":true},{"id":100001110,"lat":42.665944,"lng":-2.020167,"addr":"AVENIDA PAMPLONA, 28","city":"ESTELLA O LIZARRA","cp":"31200","fuels":{"Gazole":{"p":1.529,"d":"2026-07-14"},"SP95":{"p":1.529,"d":"2026-07-14"}},"brand":"Avia","h24":true},{"id":100012641,"lat":42.655139,"lng":-2.027778,"addr":"POLIGONO MERKATONDOA, 28","city":"ESTELLA O LIZARRA","cp":"31200","fuels":{"Gazole":{"p":1.54,"d":"2026-07-14"},"SP95":{"p":1.55,"d":"2026-07-14"}},"brand":"Del Villar Energia"},{"id":100001103,"lat":42.665972,"lng":-2.020806,"addr":"AVENIDA PAMPLONA, 33","city":"ESTELLA O LIZARRA","cp":"31200","fuels":{"Gazole":{"p":1.49,"d":"2026-07-14"},"SP95":{"p":1.49,"d":"2026-07-14"}},"brand":"Avia","h24":true},{"id":100012995,"lat":42.8365,"lng":-1.586917,"addr":"AVENIDA RONCESVALLES, 29","city":"OLLOKI","cp":"31699","fuels":{"Gazole":{"p":1.519,"d":"2026-07-14"},"SP95":{"p":1.509,"d":"2026-07-14"}},"brand":"Shell","h24":true},{"id":100001231,"lat":42.937167,"lng":-1.503167,"addr":"CARRETERA N-138 KM. 19,7","city":"SAIGOTS","cp":"31639","fuels":{"Gazole":{"p":1.569,"d":"2026-07-14"},"SP95":{"p":1.569,"d":"2026-07-14"}},"brand":"Josenea Zubiri Avia"},{"id":100011146,"lat":43.060278,"lng":-1.453556,"addr":"CRTA N-135 KM 18,5 QUINTO REAL","city":"EUGI","cp":"31638","fuels":{"Gazole":{"p":1.699,"d":"2026-07-14"},"SP95":{"p":1.649,"d":"2026-07-14"}},"brand":"Avia"},{"id":100009544,"lat":43.235944,"lng":-1.642167,"addr":"BO BEOLALDEA S/N","city":"ETXALAR","cp":"31760","fuels":{"Gazole":{"p":1.509,"d":"2026-07-14"},"SP95":{"p":1.479,"d":"2026-07-14"}},"brand":"An Energéticos - Etxalar","h24":true},{"id":100010741,"lat":42.899639,"lng":-2.075944,"addr":"POLIGONO ZUMURDIÑETA, 15","city":"ETXARRI-ARANATZ","cp":"31820","fuels":{"Gazole":{"p":1.419,"d":"2026-07-14"},"SP95":{"p":1.488,"d":"2026-07-14"}},"brand":"Etxarri Oil","h24":true},{"id":100001202,"lat":42.856083,"lng":-1.618917,"addr":"CARRETERA N-121-A KM. 7,6","city":"ORICAIN","cp":"31194","fuels":{"Gazole":{"p":1.429,"d":"2026-07-14"},"SP95":{"p":1.479,"d":"2026-07-14"}},"brand":"Aralar"},{"id":100012779,"lat":42.387778,"lng":-1.7875,"addr":"CARRETERA NA-6210 KM. 5","city":"FALCES","cp":"31370","fuels":{"Gazole":{"p":1.509,"d":"2026-07-14"},"SP95":{"p":1.499,"d":"2026-07-14"},"SP98":{"p":1.599,"d":"2026-07-14"}},"brand":"An Energeticos - Falces","h24":true},{"id":100001159,"lat":42.055861,"lng":-1.861722,"addr":"CARRETERA NA-160 KM. 24","city":"FITERO","cp":"31593","fuels":{"Gazole":{"p":1.599,"d":"2026-07-14"},"SP95":{"p":1.595,"d":"2026-07-14"},"SP98":{"p":1.765,"d":"2026-07-14"}},"brand":"Repsol"},{"id":100015989,"lat":42.023583,"lng":-1.580222,"addr":"AUTOVIA A-68 KM. 99","city":"BOCAL (EL)","cp":"31512","fuels":{"Gazole":{"p":1.395,"d":"2026-07-14"},"SP95":{"p":1.367,"d":"2026-07-14"}},"brand":"Plenergy","h24":true},{"id":100001171,"lat":42.024778,"lng":-1.580333,"addr":"CARRETERA A-68 KM. 99,82","city":"FONTELLAS","cp":"31512","fuels":{"Gazole":{"p":1.395,"d":"2026-07-14"},"SP95":{"p":1.367,"d":"2026-07-14"}},"brand":"Plenergy","h24":true},{"id":100001183,"lat":42.012583,"lng":-1.600861,"addr":"AUTOPISTA A-68 KM. 222","city":"FONTELLAS","cp":"31512","fuels":{"Gazole":{"p":1.615,"d":"2026-07-14"},"SP95":{"p":1.649,"d":"2026-07-14"},"SP98":{"p":1.759,"d":"2026-07-14"},"GPLc":{"p":1.099,"d":"2026-07-14"}},"brand":"Repsol","h24":true},{"id":100009439,"lat":42.308472,"lng":-1.795139,"addr":"POLIGONO SARDILLA, S/N","city":"FUNES","cp":"31360","fuels":{"Gazole":{"p":1.439,"d":"2026-07-14"},"SP95":{"p":1.469,"d":"2026-07-14"}},"brand":"An Energeticos - Funes","h24":true},{"id":100015261,"lat":42.256806,"lng":-1.835417,"addr":"POLIGONO BODEGA ROMANA, VIAL OESTE, S/N","city":"FUNES","cp":"31360","fuels":{"Gazole":{"p":1.539,"d":"2026-07-14"},"SP95":{"p":1.529,"d":"2026-07-14"}},"brand":"An Energeticos - Funes 2","h24":true},{"id":100011135,"lat":42.023833,"lng":-1.494472,"addr":"POLIGONO EL CALVARIO, 1","city":"FUSTIÑANA","cp":"31510","fuels":{"Gazole":{"p":1.469,"d":"2026-07-14"},"SP95":{"p":1.479,"d":"2026-07-14"}},"brand":"Avia","h24":true},{"id":100009437,"lat":42.0235,"lng":-1.488639,"addr":"CALLE PABLO SARASATE, 52","city":"FUSTIÑANA","cp":"31510","fuels":{"Gazole":{"p":1.489,"d":"2026-07-14"}},"brand":"An Energeticos S.L. - Fustiñana","h24":true},{"id":100015566,"lat":42.789778,"lng":-1.639611,"addr":"POLIGONO POLIGONO INDUSTRIAL CORDOVILLA-GALAR, PARCELA 382, S/N","city":"CORDOVILLA","cp":"31191","fuels":{"Gazole":{"p":1.665,"d":"2026-07-14"},"SP95":{"p":1.643,"d":"2026-07-14"}},"brand":"Moeve"},{"id":100007961,"lat":42.785194,"lng":-1.634278,"addr":"BARRIO LA MOREA,","city":"CORDOVILLA","cp":"31191","fuels":{"Gazole":{"p":1.419,"d":"2026-07-14"},"SP95":{"p":1.429,"d":"2026-07-14"}},"brand":"Leclerc","h24":true},{"id":100012263,"lat":42.748556,"lng":-1.641444,"addr":"POLIGONO MESETA DE SALINAS, 4","city":"SALINAS DE PAMPLONA","cp":"31191","fuels":{"Gazole":{"p":1.435,"d":"2026-07-14"}},"brand":"Bideko Aterpe","h24":true},{"id":100009230,"lat":42.761083,"lng":-1.661194,"addr":"PARAJE SAN BABIL 1, BAJO","city":"SALINAS DE PAMPLONA","cp":"31191","fuels":{"Gazole":{"p":1.425,"d":"2026-07-14"}},"brand":"Gasoleos Mercadaiz","h24":true},{"id":100001175,"lat":42.818278,"lng":-1.60325,"addr":"CALLE ALTXUTXATE, 50","city":"HUARTE","cp":"31620","fuels":{"Gazole":{"p":1.589,"d":"2026-07-14"},"SP95":{"p":1.609,"d":"2026-07-14"}},"brand":"Repsol"},{"id":100001230,"lat":42.831361,"lng":-1.585417,"addr":"CALLE INTXAURDIA, 6","city":"HUARTE","cp":"31620","fuels":{"Gazole":{"p":1.619,"d":"2026-07-14"},"SP95":{"p":1.615,"d":"2026-07-14"},"SP98":{"p":1.755,"d":"2026-07-14"}},"brand":"Bp Huarte"},{"id":100012052,"lat":42.827806,"lng":-1.597611,"addr":"CALLE OLAZ CHIPI S/N, S/N","city":"HUARTE","cp":"31620","fuels":{"Gazole":{"p":1.519,"d":"2026-07-14"},"SP95":{"p":1.509,"d":"2026-07-14"}},"brand":"An Energeticos - Huarte","h24":true},{"id":100011603,"lat":42.923167,"lng":-1.831778,"addr":"POLIGONO AKABORRO, 1","city":"IRURTZUN","cp":"31860","fuels":{"Gazole":{"p":1.456,"d":"2026-07-14"},"SP95":{"p":1.505,"d":"2026-07-14"}},"brand":"Bi Ahizpak"},{"id":100001158,"lat":42.892,"lng":-1.777806,"addr":"CARRETERA PAMPLONA-S.SEBASTIAN KM. 15","city":"SARASATE","cp":"31892","fuels":{"Gazole":{"p":1.409,"d":"2026-07-14"},"SP95":{"p":1.469,"d":"2026-07-14"}},"brand":"Sarasate"},{"id":100001143,"lat":42.861639,"lng":-1.743917,"addr":"AU A-15, 98,5","city":"ZUASTI","cp":"31892","fuels":{"Gazole":{"p":1.619,"d":"2026-07-14"},"SP95":{"p":1.629,"d":"2026-07-14"},"SP98":{"p":1.749,"d":"2026-07-14"},"GPLc":{"p":1.085,"d":"2026-07-14"}},"brand":"Repsol","h24":true},{"id":100010645,"lat":42.922111,"lng":-2.0145,"addr":"CARRETERA NA-2410 KM. 17","city":"LAKUNTZA","cp":"31830","fuels":{"Gazole":{"p":1.678,"d":"2026-07-14"},"SP95":{"p":1.645,"d":"2026-07-14"}},"brand":"Moeve"},{"id":100001145,"lat":42.983333,"lng":-1.630528,"addr":"CARRETERA N-121-A KM. 23,7","city":"LANTZ","cp":"31798","fuels":{"Gazole":{"p":1.645,"d":"2026-07-14"},"SP95":{"p":1.623,"d":"2026-07-14"}},"brand":"Cepsa"},{"id":100009636,"lat":42.562194,"lng":-1.847667,"addr":"CALLE DEL PINAR, S/N","city":"LARRAGA","cp":"31251","fuels":{"Gazole":{"p":1.489,"d":"2026-07-14"},"SP95":{"p":1.479,"d":"2026-07-14"}},"brand":"An Energeticos - Larraga-Artajona","h24":true},{"id":100011410,"lat":42.551806,"lng":-1.852028,"addr":"CARRETERA CARRETERA LERÍN KM,2 KM. 2","city":"LARRAGA","cp":"31251","fuels":{"Gazole":{"p":1.489,"d":"2026-07-14"},"SP95":{"p":1.479,"d":"2026-07-14"}},"brand":"An Energeticos - Larraga San Isidro","h24":true},{"id":100001203,"lat":43.058806,"lng":-1.955944,"addr":"AUTOVIA A-15 (MRG.DCHO.) KM. 134,4","city":"GORRITI","cp":"31877","fuels":{"Gazole":{"p":1.665,"d":"2026-07-14"},"SP95":{"p":1.643,"d":"2026-07-14"}},"brand":"Moeve","h24":true},{"id":100001204,"lat":43.059111,"lng":-1.957306,"addr":"AUTOVIA A-15 (MRG.IZDO.) KM. 134,5","city":"GORRITI","cp":"31877","fuels":{"Gazole":{"p":1.635,"d":"2026-07-14"},"SP95":{"p":1.623,"d":"2026-07-14"}},"brand":"Moeve","h24":true},{"id":100008489,"lat":43.000028,"lng":-1.886167,"addr":"AUTOVIA A-15 KM. 124,488","city":"MUGIRO","cp":"31878","fuels":{"Gazole":{"p":1.644,"d":"2026-07-14"},"SP95":{"p":1.629,"d":"2026-07-14"}},"brand":"Shell","h24":true},{"id":100001238,"lat":43.084972,"lng":-1.922278,"addr":"CARRETERA CTRA. NA170 KM.1.98 KM. 1","city":"LEITZA","cp":"31880","fuels":{"Gazole":{"p":1.629,"d":"2026-07-14"},"SP95":{"p":1.639,"d":"2026-07-14"}},"brand":"Campsa"},{"id":100009522,"lat":42.459167,"lng":-1.972917,"addr":"NA-122 km 24,5","city":"LERIN","cp":"31260","fuels":{"Gazole":{"p":1.48,"d":"2026-07-14"}},"brand":"An Energeticos - Lerin","h24":true},{"id":100011179,"lat":42.486917,"lng":-1.981556,"addr":"CARRETERA NA-122 KM. 21,200","city":"LERIN","cp":"31260","fuels":{"Gazole":{"p":1.519,"d":"2026-07-14"},"SP95":{"p":1.529,"d":"2026-07-14"},"SP98":{"p":1.994,"d":"2026-07-14"}},"brand":"Marisa","h24":true},{"id":100011145,"lat":43.279444,"lng":-1.692167,"addr":"ZIOBI,6. POL. INDUSTRIAL ALKAIAGA","city":"LESAKA","cp":"31770","fuels":{"Gazole":{"p":1.399,"d":"2026-07-14"}},"brand":"Neumaticos Bidasoa"},{"id":100011194,"lat":43.2545,"lng":-1.681202,"addr":"CARRETERA LESAKA-OIARTZUN km 0.1","city":"LESAKA","cp":"31770","fuels":{"Gazole":{"p":1.579,"d":"2026-07-14"}},"brand":"Transportes Bidasoa","h24":true},{"id":100001196,"lat":42.614194,"lng":-1.27825,"addr":"CR N-240, 41","city":"LIEDENA","cp":"31487","fuels":{"Gazole":{"p":1.625,"d":"2026-07-14"},"SP95":{"p":1.639,"d":"2026-07-14"},"SP98":{"p":1.809,"d":"2026-07-14"}},"brand":"Repsol"},{"id":100001222,"lat":42.416556,"lng":-2.076861,"addr":"CARRETERA NA-123 KM. 0,7","city":"LODOSA","cp":"31580","fuels":{"Gazole":{"p":1.645,"d":"2026-07-14"},"SP95":{"p":1.645,"d":"2026-07-14"}},"brand":"Cepsa"},{"id":100009450,"lat":42.658778,"lng":-1.297639,"addr":"AVDA DIPUTACION FORAL S/N","city":"LUMBIER","cp":"31440","fuels":{"Gazole":{"p":1.489,"d":"2026-07-14"},"SP95":{"p":1.479,"d":"2026-07-14"}},"brand":"An Energeticos - Lumbier","h24":true},{"id":100011981,"lat":43.116889,"lng":-1.271333,"addr":"BARRIO PEKOTXETA, S/N","city":"AZOLETA","cp":"31669","fuels":{"Gazole":{"p":1.654,"d":"2026-07-14"},"SP95":{"p":1.719,"d":"2026-07-14"},"SP98":{"p":1.755,"d":"2026-07-14"},"GPLc":{"p":1.069,"d":"2026-07-14"}},"brand":"Asle"},{"id":100011106,"lat":43.11725,"lng":-1.2705,"addr":"POLIGONO POL. IND 1- PARCELA 105, 105","city":"LUZAIDE/VALCARLOS","cp":"31660","fuels":{"Gazole":{"p":1.654,"d":"2026-07-14"},"SP95":{"p":1.719,"d":"2026-07-14"},"SP98":{"p":1.755,"d":"2026-07-14"}},"brand":"Luzaide"},{"id":100001229,"lat":43.109083,"lng":-1.283028,"addr":"CR C-135 66","city":"LUZAIDE/VALCARLOS","cp":"31660","fuels":{"Gazole":{"p":1.654,"d":"2026-07-14"},"SP95":{"p":1.719,"d":"2026-07-14"}},"brand":"Zona Auto Luaide Avia"},{"id":100011114,"lat":42.329694,"lng":-1.735083,"addr":"AVENIDA LA ESTACION, 32","city":"MARCILLA","cp":"31340","fuels":{"Gazole":{"p":1.589,"d":"2026-07-14"},"SP95":{"p":1.579,"d":"2026-07-14"}},"brand":"Blanca"},{"id":100010653,"lat":42.355139,"lng":-1.557944,"addr":"POLIGONO BAJO ARAGON, S/N","city":"MELIDA","cp":"31382","fuels":{"Gazole":{"p":1.489,"d":"2026-07-14"},"SP95":{"p":1.479,"d":"2026-07-14"}},"brand":"An Energeticos - Melida","h24":true},{"id":100001223,"lat":42.449611,"lng":-2.212222,"addr":"CR NA-134, 79","city":"MENDAVIA","cp":"31587","fuels":{"Gazole":{"p":1.599,"d":"2026-07-14"},"SP95":{"p":1.559,"d":"2026-07-14"},"SP98":{"p":1.759,"d":"2026-07-14"}},"brand":"Repsol"},{"id":100009341,"lat":42.443944,"lng":-2.191639,"addr":"CARRETERA LODOSA SN","city":"MENDAVIA","cp":"31587","fuels":{"Gazole":{"p":1.539,"d":"2026-07-14"},"SP95":{"p":1.506,"d":"2026-07-14"}},"brand":"An Energeticos - Mendavia","h24":true},{"id":100001113,"lat":42.666917,"lng":-2.252397,"addr":"CARRETERA NA-132-A km 19","city":"ACEDO","cp":"31282","fuels":{"Gazole":{"p":1.599,"d":"2026-07-14"},"SP95":{"p":1.599,"d":"2026-07-14"}},"brand":"Avia","h24":true},{"id":100009559,"lat":42.612833,"lng":-1.842889,"addr":"CTRA.LARRAGA km 2","city":"MENDIGORRIA","cp":"31150","fuels":{"Gazole":{"p":1.463,"d":"2026-07-14"}},"brand":"An Energeticos - Mendigorria","h24":true},{"id":100008205,"lat":42.244139,"lng":-1.769944,"addr":"NAVAS DE TOLOSA, 78 (VALTIERRA-SAN ADRIAN-NA-134 km 12,64)","city":"MILAGRO","cp":"31320","fuels":{"Gazole":{"p":1.579,"d":"2026-07-14"},"SP95":{"p":1.569,"d":"2026-07-14"}},"brand":"Avia"},{"id":100015263,"lat":42.246528,"lng":-1.781278,"addr":"CALLE LA RIBERA, 1","city":"MILAGRO","cp":"31320","fuels":{"Gazole":{"p":1.51,"d":"2026-07-14"},"SP95":{"p":1.51,"d":"2026-07-14"}},"brand":"Gasolinera G & S","h24":true},{"id":100010938,"lat":42.492944,"lng":-1.840083,"addr":"CARRETERA DE LERIN km 1,3","city":"MIRANDA DE ARGA","cp":"31253","fuels":{"Gazole":{"p":1.489,"d":"2026-07-14"},"SP95":{"p":1.479,"d":"2026-07-14"}},"brand":"An Energeticos - Miranda De Arga","h24":true},{"id":100001118,"lat":42.607389,"lng":-2.016806,"addr":"NA- 122 km 7","city":"MORENTIN","cp":"31264","fuels":{"Gazole":{"p":1.439,"d":"2026-07-14"},"SP95":{"p":1.449,"d":"2026-07-14"}},"brand":"Avanza Oil","h24":true},{"id":100009126,"lat":42.036083,"lng":-1.646556,"addr":"C/MAYOR, S/N","city":"MURCHANTE","cp":"31521","fuels":{"Gazole":{"p":1.529,"d":"2026-07-14"},"SP95":{"p":1.539,"d":"2026-07-14"}},"brand":"E.S. Murchante  Avia","h24":true},{"id":100015781,"lat":42.7255,"lng":-1.616389,"addr":"CALLE OLITE  - CIUDAD DEL TRANSPORTE, 28","city":"ELORZ/ELORTZ","cp":"31470","fuels":{"Gazole":{"p":1.635,"d":"2026-07-14"}},"brand":"Transportes Azpiroz"},{"id":100012013,"lat":42.732583,"lng":-1.613972,"addr":"AVENIDA ESTE (CIUDAD DEL TRANSPORTE PAMPLONA), 1","city":"IMARCOAIN","cp":"31119","fuels":{"Gazole":{"p":1.629,"d":"2026-07-14"},"SP95":{"p":1.608,"d":"2026-07-14"},"SP98":{"p":1.729,"d":"2026-07-14"}},"brand":"Andamur \"pamplona\"","h24":true},{"id":100001178,"lat":42.731944,"lng":-1.618028,"addr":"AU A-15, 78","city":"IMARCOAIN","cp":"31119","fuels":{"Gazole":{"p":1.635,"d":"2026-07-14"},"SP95":{"p":1.633,"d":"2026-07-14"},"GPLc":{"p":1.111,"d":"2026-07-14"}},"brand":"Moeve","h24":true},{"id":100001179,"lat":42.731944,"lng":-1.616889,"addr":"AUTOPISTA AP-15 KM. 78","city":"IMARCOAIN","cp":"31119","fuels":{"Gazole":{"p":1.665,"d":"2026-07-14"},"SP95":{"p":1.643,"d":"2026-07-14"},"SP98":{"p":1.815,"d":"2026-07-14"},"GPLc":{"p":1.111,"d":"2026-07-14"}},"brand":"Moeve","h24":true},{"id":100009153,"lat":42.725194,"lng":-1.611111,"addr":"OLITE S/N (CIUDAD DEL TRANSPORTE DE PAMPLONA)","city":"IMARCOAIN","cp":"31119","fuels":{"Gazole":{"p":1.489,"d":"2026-07-14"},"SP95":{"p":1.439,"d":"2026-07-14"}},"brand":"Ural Energy","h24":true},{"id":100014184,"lat":42.776194,"lng":-1.636972,"addr":"POLIGONO Y, 10","city":"NOAIN","cp":"31110","fuels":{"Gazole":{"p":1.419,"d":"2026-07-14"},"SP95":{"p":1.479,"d":"2026-07-14"}},"brand":"Bidasoa Combustibles","h24":true},{"id":100001197,"lat":42.775972,"lng":-1.635278,"addr":"CR N-121, 5","city":"NOAIN","cp":"31110","fuels":{"Gazole":{"p":1.625,"d":"2026-07-14"},"SP95":{"p":1.629,"d":"2026-07-14"},"SP98":{"p":1.799,"d":"2026-07-14"},"GPLc":{"p":1.095,"d":"2026-07-14"}},"brand":"Repsol"},{"id":100001210,"lat":42.756667,"lng":-1.624167,"addr":"N-240 km 378","city":"NOAIN","cp":"31110","fuels":{"Gazole":{"p":1.639,"d":"2026-07-14"},"SP95":{"p":1.689,"d":"2026-07-14"},"SP98":{"p":1.859,"d":"2026-07-14"}},"brand":"Repsol"},{"id":100011091,"lat":42.762889,"lng":-1.633722,"addr":"CALLE REAL, 66","city":"NOAIN","cp":"31110","fuels":{"Gazole":{"p":1.689,"d":"2026-07-14"},"SP95":{"p":1.699,"d":"2026-07-14"},"SP98":{"p":1.849,"d":"2026-07-14"}},"brand":"Repsol"},{"id":100015619,"lat":42.882222,"lng":-2.185444,"addr":"CALLE DE LA ESTACION, 30","city":"OLAZTI/OLAZAGUTIA","cp":"31809","fuels":{"Gazole":{"p":1.426,"d":"2026-07-14"}},"brand":"Transportes Sakana Scl","h24":true},{"id":100010525,"lat":42.878917,"lng":-2.196944,"addr":"BARRIO DE LA ESTACION S/N","city":"OLAZTI/OLAZAGUTIA","cp":"31809","fuels":{"Gazole":{"p":1.649,"d":"2026-07-14"},"SP95":{"p":1.589,"d":"2026-07-14"}},"brand":"Valcarce","h24":true},{"id":100011368,"lat":42.494639,"lng":-1.665056,"addr":"POLIGONO C/A, S/N","city":"OLITE","cp":"31390","fuels":{"Gazole":{"p":1.489,"d":"2026-07-14"},"SP95":{"p":1.479,"d":"2026-07-14"}},"brand":"An Energeticos - Olite","h24":true},{"id":100001208,"lat":42.818417,"lng":-1.718111,"addr":"CARRETERA CR NA-7000, 5,3 KM. 5,3","city":"ARAZURI","cp":"31170","fuels":{"Gazole":{"p":1.619,"d":"2026-07-14"},"SP95":{"p":1.619,"d":"2026-07-14"}},"brand":"Petronor"},{"id":100012916,"lat":42.821639,"lng":-1.688694,"addr":"PARQUE EMPRESARIAL LA MUGA, 7","city":"ORCOYEN","cp":"31160","fuels":{"Gazole":{"p":1.459,"d":"2026-07-14"},"SP95":{"p":1.499,"d":"2026-07-14"}},"brand":"Petro Swap"},{"id":100011122,"lat":42.826417,"lng":-1.688083,"addr":"POL. COMARCA I, PARCELA D 25","city":"ORCOYEN","cp":"31160","fuels":{"Gazole":{"p":1.42,"d":"2026-07-14"}},"brand":"Argi"},{"id":100001153,"lat":42.868083,"lng":-1.096694,"addr":"CALLE MAYOR, 3","city":"ORONZ","cp":"31451","fuels":{"Gazole":{"p":1.625,"d":"2026-07-14"},"SP95":{"p":1.639,"d":"2026-07-14"}},"brand":"Avia"},{"id":100011112,"lat":42.829722,"lng":-1.686222,"addr":"POL.AGUSTINOS CALLE A PARCELA 3B","city":"PAMPLONA/IRUÑA","cp":"31001","fuels":{"Gazole":{"p":1.387,"d":"2026-07-14"},"SP95":{"p":1.435,"d":"2026-07-14"},"GPLc":{"p":1.099,"d":"2026-07-14"}},"brand":"Eurocam","h24":true},{"id":100001163,"lat":42.814333,"lng":-1.684278,"addr":"CL POLIGONO LANDABEN, S.N.","city":"PAMPLONA/IRUÑA","cp":"31012","fuels":{"Gazole":{"p":1.619,"d":"2026-07-14"},"SP95":{"p":1.615,"d":"2026-07-14"},"SP98":{"p":1.785,"d":"2026-07-14"}},"brand":"Petronor"},{"id":100013598,"lat":42.814028,"lng":-1.684528,"addr":"POLIGONO LANDABEN, CALLE F, 2","city":"PAMPLONA/IRUÑA","cp":"31012","fuels":{"Gazole":{"p":1.379,"d":"2026-07-14"},"SP95":{"p":1.389,"d":"2026-07-14"}},"brand":"Avanza Oil Pamplona","h24":true},{"id":100014331,"lat":42.814806,"lng":-1.684778,"addr":"CALLE E, 1","city":"PAMPLONA/IRUÑA","cp":"31012","fuels":{"Gazole":{"p":1.377,"d":"2026-07-14"},"SP95":{"p":1.387,"d":"2026-07-14"}},"brand":"Petroprix","h24":true},{"id":100012865,"lat":42.820528,"lng":-1.655806,"addr":"AVENIDA GUIPUZCOA, 1","city":"PAMPLONA/IRUÑA","cp":"31014","fuels":{"Gazole":{"p":1.665,"d":"2026-07-14"},"SP95":{"p":1.613,"d":"2026-07-14"},"GPLc":{"p":1.133,"d":"2026-07-14"}},"brand":"Moeve"},{"id":100001182,"lat":42.806833,"lng":-1.661611,"addr":"CALLE SANCHO RAMIREZ, 2","city":"PAMPLONA/IRUÑA","cp":"31008","fuels":{"Gazole":{"p":1.619,"d":"2026-07-14"},"SP95":{"p":1.618,"d":"2026-07-14"},"SP98":{"p":1.799,"d":"2026-07-14"}},"brand":"Moeve","h24":true},{"id":100011175,"lat":42.802861,"lng":-1.65198,"addr":"ESQUIROZ","city":"PAMPLONA/IRUÑA","cp":"31007","fuels":{"Gazole":{"p":1.509,"d":"2026-07-14"},"SP95":{"p":1.549,"d":"2026-07-14"}},"brand":"Iturser S.L."},{"id":100013390,"lat":42.804028,"lng":-1.627861,"addr":"AVENIDA JUAN PABLO II, 23","city":"PAMPLONA/IRUÑA","cp":"31006","fuels":{"Gazole":{"p":1.429,"d":"2026-07-14"},"SP95":{"p":1.479,"d":"2026-07-14"},"SP98":{"p":1.709,"d":"2026-07-14"},"GPLc":{"p":1.099,"d":"2026-07-14"}},"brand":"Aralar"},{"id":100014283,"lat":42.797694,"lng":-1.645583,"addr":"CALLE SADAR S/N, S/N","city":"PAMPLONA/IRUÑA","cp":"31006","fuels":{"Gazole":{"p":1.625,"d":"2026-07-14"},"SP95":{"p":1.639,"d":"2026-07-14"},"SP98":{"p":1.799,"d":"2026-07-14"},"GPLc":{"p":1.095,"d":"2026-07-14"}},"brand":"Repsol"},{"id":100010364,"lat":42.813306,"lng":-1.626333,"addr":"CALLE CARRETERA BAODSTAIN, 2","city":"PAMPLONA/IRUÑA","cp":"31006","fuels":{"Gazole":{"p":1.599,"d":"2026-07-14"},"SP95":{"p":1.619,"d":"2026-07-14"},"SP98":{"p":1.719,"d":"2026-07-14"}},"brand":"Avia"},{"id":100001237,"lat":42.8355,"lng":-1.653361,"addr":"CL CARRETERA DE ARTICA,S.N.","city":"PAMPLONA/IRUÑA","cp":"31013","fuels":{"Gazole":{"p":1.615,"d":"2026-07-14"},"SP95":{"p":1.629,"d":"2026-07-14"},"SP98":{"p":1.799,"d":"2026-07-14"},"GPLc":{"p":1.085,"d":"2026-07-14"}},"brand":"Repsol"},{"id":100001123,"lat":42.832389,"lng":-1.677639,"addr":"CALLE POLIGONO AGUSTINOS,CALLE A, LOCAL 1598,","city":"PAMPLONA/IRUÑA","cp":"31080","fuels":{"Gazole":{"p":1.387,"d":"2026-07-14"},"SP95":{"p":1.397,"d":"2026-07-14"}},"brand":"Eroski"},{"id":100011223,"lat":42.335944,"lng":-1.789972,"addr":"CARRETERA PERALTA KM. 128","city":"PERALTA","cp":"31350","fuels":{"Gazole":{"p":1.473,"d":"2026-07-14"},"SP95":{"p":1.463,"d":"2026-07-14"}},"brand":"Eroski","h24":true},{"id":100009557,"lat":42.337694,"lng":-1.809778,"addr":"AVENIDA SAN SILVESTRE, S/N","city":"PERALTA","cp":"31350","fuels":{"Gazole":{"p":1.483,"d":"2026-07-14"},"SP95":{"p":1.473,"d":"2026-07-14"}},"brand":"A.N. Energeticos, S.L - Peralta","h24":true},{"id":100008192,"lat":42.670611,"lng":-1.815611,"addr":"PASEO DE LOS FUEROS, S/Nº (NACIONAL III km 24)","city":"PUENTE LA REINA/GARES","cp":"31100","fuels":{"Gazole":{"p":1.605,"d":"2026-07-14"},"SP95":{"p":1.639,"d":"2026-07-14"}},"brand":"Repsol"},{"id":100011712,"lat":41.986667,"lng":-1.530389,"addr":"AUTOVIA A-68 KM. 105,6","city":"RIBAFORADA","cp":"31550","fuels":{"Gazole":{"p":1.647,"d":"2026-07-14"},"SP95":{"p":1.589,"d":"2026-07-14"}},"brand":"Valcarce","h24":true},{"id":100012106,"lat":41.994389,"lng":-1.5155,"addr":"AVENIDA NUESTRA SRA DEL CARMEN, S/N","city":"RIBAFORADA","cp":"31550","fuels":{"Gazole":{"p":1.479,"d":"2026-07-14"},"SP95":{"p":1.489,"d":"2026-07-14"}},"brand":"An Energeticos - Ribaforada","h24":true},{"id":100010079,"lat":41.9905,"lng":-1.517056,"addr":"CAMINO CEMENTERIO, S/N","city":"RIBAFORADA","cp":"31550","fuels":{"Gazole":{"p":1.517,"d":"2026-07-14"}},"brand":"Forrajes De Ribaforada, S.L.","h24":true},{"id":100001132,"lat":42.350639,"lng":-1.937639,"addr":"CARRETERA NA-134 KM. 51,7","city":"SAN ADRIAN","cp":"31570","fuels":{"Gazole":{"p":1.599,"d":"2026-07-14"},"SP95":{"p":1.615,"d":"2026-07-14"},"SP98":{"p":1.785,"d":"2026-07-14"}},"brand":"Repsol"},{"id":100011980,"lat":42.343417,"lng":-1.942222,"addr":"POLIGONO REPARCELACION DE LA UE-1 DEL AR-3, 3","city":"SAN ADRIAN","cp":"31570","fuels":{"Gazole":{"p":1.509,"d":"2026-07-14"},"SP95":{"p":1.495,"d":"2026-07-14"}},"brand":"Avia","h24":true},{"id":100001105,"lat":42.581139,"lng":-1.285639,"addr":"PADRE RAIMUNDO DE LUMBIER, 14","city":"SANGUESA","cp":"31400","fuels":{"Gazole":{"p":1.579,"d":"2026-07-14"},"SP95":{"p":1.579,"d":"2026-07-14"},"SP98":{"p":1.749,"d":"2026-07-14"}},"brand":"Avia"},{"id":100009446,"lat":42.573889,"lng":-1.275722,"addr":"CARRETERA JAVIER KM. S/N","city":"SANGUESA","cp":"31400","fuels":{"Gazole":{"p":1.489,"d":"2026-07-14"},"SP95":{"p":1.479,"d":"2026-07-14"}},"brand":"An Energeticos - Sanguesa","h24":true},{"id":100001100,"lat":42.380306,"lng":-1.552944,"addr":"CARRETERA PITILLAS-SANTACARA NA5330 KM. 9,800","city":"SANTACARA","cp":"31314","fuels":{"Gazole":{"p":1.635,"d":"2026-07-14"},"SP95":{"p":1.629,"d":"2026-07-14"}},"brand":"Avia","h24":true},{"id":100011300,"lat":42.38925,"lng":-2.053806,"addr":"POLIGONO INDUSTRIAL GOBELLA FASE I S/N","city":"SARTAGUDA","cp":"31589","fuels":{"Gazole":{"p":1.489,"d":"2026-07-14"},"SP95":{"p":1.479,"d":"2026-07-14"}},"brand":"An Energéticos - Sartaguda","h24":true},{"id":100011846,"lat":42.476194,"lng":-2.092,"addr":"CAMINO CAMINO MENDAVIA S/N, S/N","city":"SESMA","cp":"31293","fuels":{"Gazole":{"p":1.489,"d":"2026-07-14"},"SP95":{"p":1.479,"d":"2026-07-14"}},"brand":"An Energeticos - Sesma","h24":true},{"id":100009458,"lat":42.522861,"lng":-1.685056,"addr":"CAMINO MIRANDA S/N","city":"TAFALLA","cp":"31300","fuels":{"Gazole":{"p":1.489,"d":"2026-07-14"},"SP95":{"p":1.479,"d":"2026-07-14"}},"brand":"An Energeticos - Tafalla","h24":true},{"id":100001236,"lat":42.53175,"lng":-1.672444,"addr":"AV PAMPLONA S/N","city":"TAFALLA","cp":"31300","fuels":{"Gazole":{"p":1.625,"d":"2026-07-14"},"SP95":{"p":1.639,"d":"2026-07-14"},"GPLc":{"p":1.085,"d":"2026-07-14"}},"brand":"Repsol"},{"id":100001129,"lat":42.498389,"lng":-1.673778,"addr":"CR N-121, 38,1","city":"TAFALLA","cp":"31300","fuels":{"Gazole":{"p":1.619,"d":"2026-07-14"},"SP95":{"p":1.615,"d":"2026-07-14"},"SP98":{"p":1.755,"d":"2026-07-14"}},"brand":"Bp Tafalla","h24":true},{"id":100011129,"lat":42.514472,"lng":-1.675778,"addr":"CARRETERA ZARAGOZA, KM 33.5 KM. 33","city":"TAFALLA","cp":"31300","fuels":{"Gazole":{"p":1.599,"d":"2026-07-14"},"SP95":{"p":1.615,"d":"2026-07-14"},"SP98":{"p":1.742,"d":"2026-07-14"}},"brand":"Avia"},{"id":100009064,"lat":42.717694,"lng":-1.633556,"addr":"NA121;CTRA FRANCIA km 11,3","city":"TIEBAS","cp":"31398","fuels":{"Gazole":{"p":1.399,"d":"2026-07-14"},"SP95":{"p":1.429,"d":"2026-07-14"}},"brand":"Tiebas","h24":true},{"id":100009063,"lat":42.717972,"lng":-1.634611,"addr":"NA121;CTRA FRANCIA km 11,3","city":"TIEBAS","cp":"31398","fuels":{"Gazole":{"p":1.399,"d":"2026-07-14"},"SP95":{"p":1.429,"d":"2026-07-14"}},"brand":"E.S. Tiebas","h24":true},{"id":100014784,"lat":42.040639,"lng":-1.590028,"addr":"CALLE CANAL DE TAUSTE, 290","city":"TUDELA","cp":"31500","fuels":{"Gazole":{"p":1.329,"d":"2026-07-14"},"SP95":{"p":1.319,"d":"2026-07-14"}},"brand":"Petroprix","h24":true},{"id":100013740,"lat":42.070167,"lng":-1.638444,"addr":"POLIGONO LAS LABRADAS VIAL ASTURIAS, 378","city":"TUDELA","cp":"31500","fuels":{"Gazole":{"p":1.359,"d":"2026-07-14"},"GPLc":{"p":1.099,"d":"2026-07-14"}},"brand":"Eurocam","h24":true},{"id":100015371,"lat":42.066139,"lng":-1.625806,"addr":"CALLE VIAL B, 34","city":"TUDELA","cp":"31500","fuels":{"Gazole":{"p":1.559,"d":"2026-07-14"}},"brand":"Petrotudela","h24":true},{"id":100010239,"lat":42.062278,"lng":-1.620111,"addr":"CARRERA CORELLA, 2","city":"TUDELA","cp":"31500","fuels":{"Gazole":{"p":1.369,"d":"2026-07-14"},"SP95":{"p":1.349,"d":"2026-07-14"}},"brand":"Plenergy","h24":true},{"id":100001186,"lat":42.058083,"lng":-1.599861,"addr":"AVENIDA ZARAGOZA, 48","city":"TUDELA","cp":"31500","fuels":{"Gazole":{"p":1.619,"d":"2026-07-14"},"SP95":{"p":1.649,"d":"2026-07-14"},"SP98":{"p":1.719,"d":"2026-07-14"}},"brand":"Repsol","h24":true},{"id":100013565,"lat":42.121167,"lng":-1.675639,"addr":"POLIGONO MONTES DEL CIERZO, 67","city":"TUDELA","cp":"31500","fuels":{"Gazole":{"p":1.589,"d":"2026-07-14"},"SP95":{"p":1.649,"d":"2026-07-14"}},"brand":"Valcarce","h24":true},{"id":100011111,"lat":42.0685,"lng":-1.637591,"addr":"POLIGONO LAS LABRADAS MANZANA 12","city":"TUDELA","cp":"31500","fuels":{"Gazole":{"p":1.359,"d":"2026-07-14"},"SP95":{"p":1.399,"d":"2026-07-14"},"GPLc":{"p":1.099,"d":"2026-07-14"}},"brand":"Eurocam","h24":true},{"id":100009500,"lat":42.059194,"lng":-1.640944,"addr":"CARRETERA CORELLA KM. 3,5","city":"TUDELA","cp":"31500","fuels":{"Gazole":{"p":1.489,"d":"2026-07-14"},"SP95":{"p":1.479,"d":"2026-07-14"}},"brand":"An Energeticos S.L. - Tudela 1","h24":true},{"id":100011100,"lat":42.064333,"lng":-1.634778,"addr":"VIAL RIOJA, 3,1","city":"TUDELA","cp":"31500","fuels":{"Gazole":{"p":1.379,"d":"2026-07-14"}},"brand":"Tudefrigo Logistica","h24":true},{"id":100015811,"lat":42.042972,"lng":-1.591278,"addr":"CARRER CANAL DE LODOSA, S/N","city":"TUDELA","cp":"31500","fuels":{"Gazole":{"p":1.379,"d":"2026-07-14"},"SP95":{"p":1.379,"d":"2026-07-14"}},"brand":"Gm Oil","h24":true},{"id":100011325,"lat":42.043861,"lng":-1.6195,"addr":"CARRETERA DE TARAZONA KM. 3","city":"TUDELA","cp":"31500","fuels":{"Gazole":{"p":1.379,"d":"2026-07-14"},"SP95":{"p":1.449,"d":"2026-07-14"},"SP98":{"p":1.689,"d":"2026-07-14"}},"brand":"Carrefour","h24":true},{"id":100011922,"lat":42.076222,"lng":-1.642889,"addr":"POLIGONO LA SERNA - CALLE B - A68(N232) SALIDA 91, S/N","city":"TUDELA","cp":"31500","fuels":{"Gazole":{"p":1.396,"d":"2026-07-14"},"SP95":{"p":1.368,"d":"2026-07-14"}},"brand":"E.S. Bardenas","h24":true},{"id":100001124,"lat":42.0355,"lng":-1.588,"addr":"CARRETERA CTRA. ZARAGOZA KM. S/N","city":"TUDELA","cp":"31500","fuels":{"Gazole":{"p":1.373,"d":"2026-07-14"},"SP95":{"p":1.378,"d":"2026-07-14"}},"brand":"Eroski"},{"id":100001188,"lat":42.052528,"lng":-1.597056,"addr":"AVENIDA ZARAGOZA, 73","city":"TUDELA","cp":"31500","fuels":{"Gazole":{"p":1.609,"d":"2026-07-14"},"SP95":{"p":1.619,"d":"2026-07-14"},"SP98":{"p":1.779,"d":"2026-07-14"},"GPLc":{"p":1.089,"d":"2026-07-14"}},"brand":"Repsol","h24":true},{"id":100015746,"lat":42.061194,"lng":-1.622472,"addr":"CARRETERA CORELLA KM. S/N","city":"TUDELA","cp":"31500","fuels":{"Gazole":{"p":1.369,"d":"2026-07-14"},"SP95":{"p":1.349,"d":"2026-07-14"}},"brand":"Plenergy","h24":true},{"id":100012705,"lat":42.066389,"lng":-1.617778,"addr":"CARRETERA ALFARO S/N KM. 0","city":"TUDELA","cp":"31500","fuels":{"Gazole":{"p":1.489,"d":"2026-07-14"},"SP95":{"p":1.479,"d":"2026-07-14"}},"brand":"An Energeticos - Tudela 2","h24":true},{"id":100016323,"lat":42.047111,"lng":-1.594472,"addr":"AVENIDA ZARAGOZA, S/N","city":"TUDELA","cp":"31500","fuels":{"Gazole":{"p":1.369,"d":"2026-07-14"},"SP95":{"p":1.329,"d":"2026-07-14"}},"brand":"Plenergy","h24":true},{"id":100015961,"lat":42.039139,"lng":-1.589083,"addr":"CALLE CANAL DE MAÑERU, 332","city":"TUDELA","cp":"31500","fuels":{"Gazole":{"p":1.37,"d":"2026-07-14"},"SP95":{"p":1.333,"d":"2026-07-14"}},"brand":"BonÀrea","h24":true},{"id":100008933,"lat":43.000778,"lng":-1.661786,"addr":"POLIGONO INDUSTRIAL ELORDI C/A 4","city":"IRAIZOTZ","cp":"31797","fuels":{"Gazole":{"p":1.499,"d":"2026-07-14"},"SP95":{"p":1.559,"d":"2026-07-14"}},"brand":"Alpe"},{"id":100011852,"lat":43.290556,"lng":-1.505806,"addr":"CARRETERA N-121 KM. 79,5","city":"DANTXARINEA","cp":"31712","fuels":{"Gazole":{"p":1.639,"d":"2026-07-14"},"SP95":{"p":1.615,"d":"2026-07-14"},"SP98":{"p":1.725,"d":"2026-07-14"},"GPLc":{"p":1.075,"d":"2026-07-14"}},"brand":"Repsol"},{"id":100010683,"lat":43.291361,"lng":-1.504944,"addr":"CAMINO LANDIBAR, 14","city":"DANTXARINEA","cp":"31712","fuels":{"Gazole":{"p":1.619,"d":"2026-07-14"},"SP95":{"p":1.605,"d":"2026-07-14"},"SP98":{"p":1.725,"d":"2026-07-14"},"GPLc":{"p":0.999,"d":"2026-07-14"}},"brand":"Josenea  Avia"},{"id":100015519,"lat":43.284083,"lng":-1.505778,"addr":"CALLE LANDIBAR 10, POLIGONO 2, PARCELA 21, 10","city":"LANDIBAR","cp":"31711","fuels":{"Gazole":{"p":1.609,"d":"2026-07-14"},"SP95":{"p":1.599,"d":"2026-07-14"},"SP98":{"p":1.719,"d":"2026-07-14"}},"brand":"Es Landibar"},{"id":100011857,"lat":43.289583,"lng":-1.505806,"addr":"BARRIO DANTXARINEA, 2","city":"URDAZUBI / URDAX","cp":"31711","fuels":{"Gazole":{"p":1.649,"d":"2026-07-14"},"SP95":{"p":1.629,"d":"2026-07-14"},"SP98":{"p":1.789,"d":"2026-07-14"}},"brand":"Cepsa"},{"id":100001216,"lat":43.287444,"lng":-1.505667,"addr":"CARRETERA N-121B KM. 79,500","city":"URDAZUBI / URDAX","cp":"31711","fuels":{"Gazole":{"p":1.649,"d":"2026-07-14"},"SP95":{"p":1.629,"d":"2026-07-14"}},"brand":"Cepsa"},{"id":100001176,"lat":42.837667,"lng":-0.939306,"addr":"CR NA-137, 28,7","city":"URZAINQUI","cp":"31416","fuels":{"Gazole":{"p":1.629,"d":"2026-07-14"},"SP95":{"p":1.669,"d":"2026-07-14"},"SP98":{"p":1.789,"d":"2026-07-14"}},"brand":"Petronor"},{"id":100001180,"lat":42.200333,"lng":-1.676278,"addr":"AU A-15, 14","city":"VALTIERRA","cp":"31514","fuels":{"Gazole":{"p":1.595,"d":"2026-07-14"},"SP95":{"p":1.605,"d":"2026-07-14"},"SP98":{"p":1.775,"d":"2026-07-14"}},"brand":"Repsol","h24":true},{"id":100001181,"lat":42.200361,"lng":-1.674889,"addr":"AU A-15, 14","city":"VALTIERRA","cp":"31514","fuels":{"Gazole":{"p":1.595,"d":"2026-07-14"},"SP95":{"p":1.615,"d":"2026-07-14"},"SP98":{"p":1.775,"d":"2026-07-14"}},"brand":"Repsol","h24":true},{"id":100001206,"lat":42.201611,"lng":-1.642861,"addr":"PS DE LA RIBERA, 215 (NA-134 km 19)","city":"VALTIERRA","cp":"31514","fuels":{"Gazole":{"p":1.559,"d":"2026-07-14"},"SP95":{"p":1.599,"d":"2026-07-14"}},"brand":"Repsol"},{"id":100011608,"lat":42.185444,"lng":-1.62125,"addr":"POLIGONO INDUSTRIAL VALTIERRA-ARGUEDAS, 2","city":"VALTIERRA","cp":"31514","fuels":{"Gazole":{"p":1.459,"d":"2026-07-14"},"SP95":{"p":1.479,"d":"2026-07-14"}},"brand":"Carburantes Valtierra S.L.","h24":true},{"id":100011257,"lat":42.187306,"lng":-1.619861,"addr":"CARRETERA CARRETERA TUDELA KM. N8","city":"VALTIERRA","cp":"31514","fuels":{"Gazole":{"p":1.479,"d":"2026-07-14"},"SP95":{"p":1.489,"d":"2026-07-14"}},"brand":"An Energeticos - Valtierra","h24":true},{"id":100001219,"lat":42.512583,"lng":-2.374028,"addr":"AVENIDA SAN LUIS GONZAGA, 3","city":"VIANA","cp":"31230","fuels":{"Gazole":{"p":1.629,"d":"2026-07-14"},"SP95":{"p":1.619,"d":"2026-07-14"},"SP98":{"p":1.729,"d":"2026-07-14"}},"brand":"Repsol"},{"id":100011375,"lat":42.2825,"lng":-1.74225,"addr":"CAMINO CAMINO DE CAPARROSO, S/N","city":"VILLAFRANCA","cp":"31330","fuels":{"Gazole":{"p":1.489,"d":"2026-07-14"},"SP95":{"p":1.479,"d":"2026-07-14"}},"brand":"An Energeticos - Villafranca","h24":true},{"id":100012724,"lat":42.272444,"lng":-1.74425,"addr":"POLIGONO ALESVES, N","city":"VILLAFRANCA","cp":"31330","fuels":{"Gazole":{"p":1.499,"d":"2026-07-14"},"SP95":{"p":1.499,"d":"2026-07-14"}},"brand":"Combustibles Villafranca","h24":true},{"id":100016336,"lat":42.653583,"lng":-2.004667,"addr":"CARRETERA NA-132 KM. 2","city":"LEGARDETA","cp":"31292","fuels":{"Gazole":{"p":1.489,"d":"2026-07-14"},"SP95":{"p":1.539,"d":"2026-07-14"}},"brand":"Trueba Energy","h24":true},{"id":100001155,"lat":42.834944,"lng":-1.609389,"addr":"AVENIDA CARRETERA FRANCIA S/N, S/N","city":"VILLAVA O ATARRABIA","cp":"31610","fuels":{"Gazole":{"p":1.619,"d":"2026-07-14"},"SP95":{"p":1.615,"d":"2026-07-14"},"SP98":{"p":1.755,"d":"2026-07-14"}},"brand":"Bp Villava","h24":true},{"id":100009591,"lat":42.732361,"lng":-1.987972,"addr":"CARRETERA CARRETERA PAMPLONA KM. 37,5","city":"AZCONA","cp":"31177","fuels":{"Gazole":{"p":1.418,"d":"2026-07-14"}},"brand":"An Energeticos - Yerri","h24":true},{"id":100010823,"lat":42.865028,"lng":-2.236361,"addr":"CTRA. A-1 km 391","city":"ZIORDIA","cp":"31809","fuels":{"Gazole":{"p":1.689,"d":"2026-07-14"},"SP95":{"p":1.639,"d":"2026-07-14"}},"brand":"Galp","h24":true},{"id":100013628,"lat":42.787028,"lng":-1.698306,"addr":"CALLE ARROBIA KALEA, S/N","city":"ZIZUR MAYOR/ZIZUR NAGUSIA","cp":"31180","fuels":{"Gazole":{"p":1.419,"d":"2026-07-14"},"SP95":{"p":1.429,"d":"2026-07-14"}},"brand":"E. Leclerc","h24":true},{"id":100008201,"lat":42.792917,"lng":-1.684194,"addr":"AVENIDA ESTELLA, 9","city":"ZIZUR MAYOR/ZIZUR NAGUSIA","cp":"31180","fuels":{"Gazole":{"p":1.585,"d":"2026-07-14"},"SP95":{"p":1.615,"d":"2026-07-14"},"SP98":{"p":1.755,"d":"2026-07-14"}},"brand":"Repsol","h24":true},{"id":100016423,"lat":42.792833,"lng":-1.686583,"addr":"AVENIDA ESTELLA, 9","city":"ZIZUR MAYOR/ZIZUR NAGUSIA","cp":"31180","fuels":{"Gazole":{"p":1.585,"d":"2026-07-14"},"SP95":{"p":1.615,"d":"2026-07-14"},"SP98":{"p":1.755,"d":"2026-07-14"}},"brand":"Repsol"}]