[{"id":100006230,"lat":41.805583,"lng":-2.786306,"addr":"CARRERA N-234, 376,5","city":"ABEJAR","cp":"42146","fuels":{"Gazole":{"p":1.599,"d":"2026-07-14"},"SP95":{"p":1.615,"d":"2026-07-14"},"SP98":{"p":1.785,"d":"2026-07-14"}},"brand":"Repsol"},{"id":100008928,"lat":41.840167,"lng":-1.940833,"addr":"POL. INDUSTRIAL LA DEHESA S/N","city":"AGREDA","cp":"42100","fuels":{"SP95":{"p":1.489,"d":"2026-07-14"}},"brand":"El Mayoria Combustibles","h24":true},{"id":100006289,"lat":41.853917,"lng":-1.926472,"addr":"CARRETERA N-122 KM. 102","city":"AGREDA","cp":"42100","fuels":{"Gazole":{"p":1.589,"d":"2026-07-14"},"SP95":{"p":1.575,"d":"2026-07-14"},"SP98":{"p":1.745,"d":"2026-07-14"}},"brand":"Repsol"},{"id":100016159,"lat":41.260889,"lng":-2.467472,"addr":"CARRETERA SO-P KM. 3046","city":"RADONA","cp":"42295","fuels":{"Gazole":{"p":1.479,"d":"2026-07-14"},"SP95":{"p":1.479,"d":"2026-07-14"}},"brand":"Área 117","h24":true},{"id":100004933,"lat":41.903806,"lng":-2.463972,"addr":"CARRETERA N-111 KM. 243,8","city":"ALMARZA","cp":"42169","fuels":{"Gazole":{"p":1.609,"d":"2026-07-14"},"SP95":{"p":1.589,"d":"2026-07-14"},"SP98":{"p":1.749,"d":"2026-07-14"}},"brand":"E.S. El Valle"},{"id":100015399,"lat":41.470639,"lng":-2.528056,"addr":"AVENIDA POLIGONO INDUSTRIAL LA DEHESA, 1","city":"ALMAZAN","cp":"42200","fuels":{"Gazole":{"p":1.499,"d":"2026-07-14"},"SP95":{"p":1.499,"d":"2026-07-14"},"SP98":{"p":1.679,"d":"2026-07-14"}},"brand":"La Valenti"},{"id":100006275,"lat":41.480917,"lng":-2.528833,"addr":"CR N-111, 190","city":"ALMAZAN","cp":"42200","fuels":{"Gazole":{"p":1.629,"d":"2026-07-14"},"SP95":{"p":1.595,"d":"2026-07-14"},"SP98":{"p":1.765,"d":"2026-07-14"}},"brand":"Repsol"},{"id":100011794,"lat":41.471333,"lng":-2.534333,"addr":"CALLE HAYA,","city":"ALMAZAN","cp":"42200","fuels":{"Gazole":{"p":1.519,"d":"2026-07-14"},"SP95":{"p":1.519,"d":"2026-07-14"}},"brand":"Gamar","h24":true},{"id":100014668,"lat":41.499889,"lng":-2.537056,"addr":"AVENIDA SORIA, 40","city":"ALMAZAN","cp":"42200","fuels":{"Gazole":{"p":1.579,"d":"2026-07-14"},"SP95":{"p":1.559,"d":"2026-07-14"},"GPLc":{"p":0.909,"d":"2026-07-14"}},"brand":"Oruca","h24":true},{"id":100006090,"lat":41.217083,"lng":-2.291139,"addr":"CARRETERA CTRA. N-II 167,2 KM. 167,2","city":"ARCOS DE JALON","cp":"42250","fuels":{"Gazole":{"p":1.599,"d":"2026-07-14"},"SP95":{"p":1.619,"d":"2026-07-14"},"SP98":{"p":1.759,"d":"2026-07-14"}},"brand":"Galp","h24":true},{"id":100013615,"lat":41.214861,"lng":-2.292056,"addr":"POLIGONO POLIGONO INDUSTRIAL LA MALITA-PARC. 15 Y 32, 167","city":"ARCOS DE JALON","cp":"42250","fuels":{"Gazole":{"p":1.479,"d":"2026-07-14"}},"brand":"Ghc Soria","h24":true},{"id":100006102,"lat":41.223944,"lng":-2.260194,"addr":"AUTOVIA A-2 KM. 170,2","city":"ARCOS DE JALON","cp":"42250","fuels":{"Gazole":{"p":1.659,"d":"2026-07-14"},"SP95":{"p":1.559,"d":"2026-07-14"}},"brand":"Moeve"},{"id":100006190,"lat":41.248361,"lng":-2.217778,"addr":"CR N-2, 174,5","city":"MONTUENGA DE SORIA","cp":"42259","fuels":{"Gazole":{"p":1.649,"d":"2026-07-14"},"SP95":{"p":1.679,"d":"2026-07-14"},"SP98":{"p":1.749,"d":"2026-07-14"}},"brand":"Repsol","h24":true},{"id":100004946,"lat":41.495833,"lng":-2.87075,"addr":"CALLE CL166 KM18,700,","city":"HORTEZUELA","cp":"42366","fuels":{"Gazole":{"p":1.619,"d":"2026-07-14"},"SP95":{"p":1.619,"d":"2026-07-14"}},"brand":"Repsol"},{"id":100012503,"lat":41.573917,"lng":-3.111806,"addr":"AUTOVIA A-11 KM. 218,000","city":"BURGO DE OSMA (EL)","cp":"42300","fuels":{"Gazole":{"p":1.629,"d":"2026-07-14"},"SP95":{"p":1.639,"d":"2026-07-14"}},"brand":"Cepsa"},{"id":100006310,"lat":41.586833,"lng":-3.058417,"addr":"CR N-122, 210","city":"BURGO DE OSMA (EL)","cp":"42300","fuels":{"Gazole":{"p":1.618,"d":"2026-07-14"},"SP95":{"p":1.638,"d":"2026-07-14"},"SP98":{"p":1.798,"d":"2026-07-14"}},"brand":"Repsol"},{"id":100015393,"lat":41.555528,"lng":-3.090556,"addr":"POLIGONO LA GÜERA, S/N","city":"BURGO DE OSMA (EL)","cp":"42300","fuels":{"Gazole":{"p":1.389,"d":"2026-07-14"},"SP95":{"p":1.399,"d":"2026-07-14"}},"brand":"Beroil","h24":true},{"id":100015650,"lat":41.584694,"lng":-3.074611,"addr":"CALLE LA RASA, 24","city":"BURGO DE OSMA (EL)","cp":"42300","fuels":{"Gazole":{"p":1.399,"d":"2026-07-14"},"SP95":{"p":1.409,"d":"2026-07-14"}},"brand":"Gashome","h24":true},{"id":100012329,"lat":41.798667,"lng":-2.850611,"addr":"POLIGONO POLIGONO LA NAVA  EN  CABREJAS PINAR, SN","city":"CABREJAS DEL PINAR","cp":"42147","fuels":{"Gazole":{"p":1.429,"d":"2026-07-14"},"SP95":{"p":1.429,"d":"2026-07-14"}},"brand":"Gasoleos Martin Navas Slu"},{"id":100006106,"lat":41.708,"lng":-2.775417,"addr":"CARRETERA N-122 KM. 185","city":"ALDEHUELA DE CALATAÑAZOR","cp":"42193","fuels":{"Gazole":{"p":1.629,"d":"2026-07-14"},"SP95":{"p":1.629,"d":"2026-07-14"}},"brand":"Cepsa"},{"id":100015866,"lat":41.928917,"lng":-2.875556,"addr":"CARRETERA SO-850, P.KM. 24 KM. 24","city":"COVALEDA","cp":"42157","fuels":{"Gazole":{"p":1.449,"d":"2026-07-14"},"SP95":{"p":1.469,"d":"2026-07-14"},"SP98":{"p":1.559,"d":"2026-07-14"}},"brand":"Estacion De Servicio Hermanos Olalla","h24":true},{"id":100008337,"lat":41.77325,"lng":-2.497417,"addr":"ZONA CENTRO COMERCIAL LAS CAMARETAS CALLE A, SN","city":"GOLMAYO","cp":"42190","fuels":{"Gazole":{"p":1.354,"d":"2026-07-14"},"SP95":{"p":1.405,"d":"2026-07-14"},"SP98":{"p":1.523,"d":"2026-07-14"}},"brand":"Alcampo","h24":true},{"id":100006232,"lat":41.840889,"lng":-2.044556,"addr":"CR N-122 112","city":"MATALEBRERAS","cp":"42113","fuels":{"Gazole":{"p":1.589,"d":"2026-07-14"},"SP95":{"p":1.579,"d":"2026-07-14"},"SP98":{"p":1.749,"d":"2026-07-14"}},"brand":"Repsol"},{"id":100006207,"lat":41.189222,"lng":-2.403972,"addr":"AUTOVIA A-2 KM. 154","city":"LODARES","cp":"42248","fuels":{"Gazole":{"p":1.589,"d":"2026-07-14"},"SP95":{"p":1.605,"d":"2026-07-14"},"SP98":{"p":1.775,"d":"2026-07-14"},"GPLc":{"p":1.085,"d":"2026-07-14"}},"brand":"Repsol","h24":true},{"id":100006354,"lat":41.168972,"lng":-2.421167,"addr":"N-2 km 150","city":"MEDINACELI","cp":"42240","fuels":{"Gazole":{"p":1.629,"d":"2026-07-14"},"SP95":{"p":1.619,"d":"2026-07-14"},"SP98":{"p":1.776,"d":"2026-07-14"}},"brand":"Repsol","h24":true},{"id":100010295,"lat":41.783833,"lng":-1.991889,"addr":"AVENIDA VALLADOLID, 13","city":"OLVEGA","cp":"42110","fuels":{"Gazole":{"p":1.458,"d":"2026-07-14"},"SP95":{"p":1.463,"d":"2026-07-14"}},"brand":"Sin Determinar","h24":true},{"id":100012160,"lat":41.673972,"lng":-2.533389,"addr":"POLIGONO POL. IND. DE NAVALCABALLO PARCELA 19,","city":"NAVALCABALLO","cp":"42290","fuels":{"Gazole":{"p":1.507,"d":"2026-07-14"},"SP95":{"p":1.542,"d":"2026-07-14"}},"brand":"Avia"},{"id":100006353,"lat":41.569,"lng":-3.192556,"addr":"CARRETERA N-122 KM. 222","city":"SAN ESTEBAN DE GORMAZ","cp":"42330","fuels":{"Gazole":{"p":1.619,"d":"2026-07-14"},"SP95":{"p":1.609,"d":"2026-07-14"},"SP98":{"p":1.779,"d":"2026-07-14"}},"brand":"Repsol"},{"id":100006261,"lat":41.83125,"lng":-3.056222,"addr":"CARRETERA NACIONAL 234 KM. 401","city":"SAN LEONARDO DE YAGUE","cp":"42140","fuels":{"Gazole":{"p":1.599,"d":"2026-07-14"},"SP95":{"p":1.615,"d":"2026-07-14"}},"brand":"Repsol"},{"id":100006340,"lat":42.027778,"lng":-2.231972,"addr":"CARRETERA CARRETERA SORIA 17, SAN PEDRO MANRIQUE KM. 0,20","city":"SAN PEDRO MANRIQUE","cp":"42174","fuels":{"Gazole":{"p":1.605,"d":"2026-07-14"},"SP95":{"p":1.579,"d":"2026-07-14"}},"brand":"Repsol"},{"id":100006271,"lat":41.2835,"lng":-2.173806,"addr":"AUTOVIA A-2, 180","city":"SANTA MARIA DE HUERTA","cp":"42260","fuels":{"Gazole":{"p":1.619,"d":"2026-07-14"},"SP95":{"p":1.579,"d":"2026-07-14"},"SP98":{"p":1.749,"d":"2026-07-14"}},"brand":"Repsol"},{"id":100006418,"lat":41.761417,"lng":-2.478111,"addr":"CALLE EDUARDO SAAVEDRA, 24","city":"SORIA","cp":"42004","fuels":{"Gazole":{"p":1.354,"d":"2026-07-14"},"SP95":{"p":1.385,"d":"2026-07-14"}},"brand":"Ballenoil","h24":true},{"id":100006131,"lat":41.770444,"lng":-2.493972,"addr":"AVENIDA VALLADOLID, S/N (N-122 KM 155,4)","city":"SORIA","cp":"42001","fuels":{"Gazole":{"p":1.585,"d":"2026-07-14"},"SP95":{"p":1.565,"d":"2026-07-14"},"SP98":{"p":1.753,"d":"2026-07-14"},"GPLc":{"p":1.144,"d":"2026-07-14"}},"brand":"Moeve","h24":true},{"id":100015647,"lat":41.771889,"lng":-2.488389,"addr":"POLIGONO LAS CASAS CL. I-N, 294","city":"SORIA","cp":"42005","fuels":{"Gazole":{"p":1.419,"d":"2026-07-14"},"SP95":{"p":1.409,"d":"2026-07-14"}},"brand":"Gashome","h24":true},{"id":100006217,"lat":41.762361,"lng":-2.412528,"addr":"CARRETERA N-122 KM. 147","city":"SORIA","cp":"42005","fuels":{"Gazole":{"p":1.605,"d":"2026-07-14"},"SP95":{"p":1.599,"d":"2026-07-14"}},"brand":"Repsol"},{"id":100013476,"lat":41.757861,"lng":-2.413583,"addr":"POLIGONO VALCORBA PARC Nº 52, SUR D-13, 52","city":"SORIA","cp":"42005","fuels":{"SP95":{"p":1.4,"d":"2026-07-14"}},"brand":"Copiso","h24":true},{"id":100004735,"lat":41.772667,"lng":-2.485194,"addr":"CALLE J, 290","city":"SORIA","cp":"42005","fuels":{"Gazole":{"p":1.385,"d":"2026-07-14"},"SP95":{"p":1.405,"d":"2026-07-14"}},"brand":"E. Leclerc","h24":true},{"id":100006128,"lat":41.785083,"lng":-2.475611,"addr":"N-111 km 229,1","city":"SORIA","cp":"42005","fuels":{"Gazole":{"p":1.608,"d":"2026-07-14"},"SP95":{"p":1.587,"d":"2026-07-14"}},"brand":"Es Las Casas"},{"id":100015272,"lat":41.7815,"lng":-2.483722,"addr":"POLIGONO LAS CASAS CALLE D, 44","city":"SORIA","cp":"42005","fuels":{"Gazole":{"p":1.468,"d":"2026-07-14"},"SP95":{"p":1.453,"d":"2026-07-14"}},"brand":"Dpm","h24":true},{"id":100006085,"lat":41.776139,"lng":-2.488556,"addr":"POLIGONO LAS CASAS CALLE G PARCELA 7, 7","city":"SORIA","cp":"42005","fuels":{"Gazole":{"p":1.354,"d":"2026-07-14"},"SP95":{"p":1.385,"d":"2026-07-14"}},"brand":"Eureka","h24":true},{"id":100006364,"lat":41.761917,"lng":-2.404778,"addr":"CR N-122, 146","city":"SORIA","cp":"42005","fuels":{"Gazole":{"p":1.595,"d":"2026-07-14"},"SP95":{"p":1.589,"d":"2026-07-14"},"SP98":{"p":1.759,"d":"2026-07-14"},"GPLc":{"p":1.079,"d":"2026-07-14"}},"brand":"Repsol"},{"id":100014960,"lat":41.768778,"lng":-2.485861,"addr":"AVENIDA VALLADOLID  EN  SORIA, 62","city":"SORIA","cp":"42005","fuels":{"Gazole":{"p":1.354,"d":"2026-07-14"},"SP95":{"p":1.385,"d":"2026-07-14"}},"brand":"Petroprix","h24":true},{"id":100013521,"lat":41.757333,"lng":-2.481111,"addr":"AVENIDA EUROPA  EN  SORIA, 28","city":"SORIA","cp":"42005","fuels":{"Gazole":{"p":1.354,"d":"2026-07-14"},"SP95":{"p":1.385,"d":"2026-07-14"},"GPLc":{"p":0.999,"d":"2026-07-14"}},"brand":"+b Energias","h24":true}]