[{"id":100006235,"lat":41.417472,"lng":-3.383889,"addr":"CR N-110, 97,8  D","city":"AYLLON","cp":"40520","fuels":{"Gazole":{"p":1.569,"d":"2026-07-14"},"SP95":{"p":1.569,"d":"2026-07-14"}},"brand":"Buquerin"},{"id":100013619,"lat":41.329417,"lng":-3.633667,"addr":"CARRETERA NACIONAL 1 PARCELA 402 KM. 116,7","city":"BOCEGUILLAS","cp":"40560","fuels":{"Gazole":{"p":1.499,"d":"2026-07-14"},"SP95":{"p":1.539,"d":"2026-07-14"}},"brand":"Beroil","h24":true},{"id":100006404,"lat":41.325139,"lng":-3.631417,"addr":"AT  A-1 P.K. 116,0 D","city":"BOCEGUILLAS","cp":"40560","fuels":{"Gazole":{"p":1.679,"d":"2026-07-14"},"SP95":{"p":1.639,"d":"2026-07-14"},"SP98":{"p":1.809,"d":"2026-07-14"}},"brand":"Repsol"},{"id":100006329,"lat":41.255389,"lng":-3.929,"addr":"CARRETERA SEGOVIA KM. 4","city":"CANTALEJO","cp":"40320","fuels":{"Gazole":{"p":1.479,"d":"2026-07-14"},"SP95":{"p":1.429,"d":"2026-07-14"},"SP98":{"p":1.569,"d":"2026-07-14"}},"brand":"G Cantalejo","h24":true},{"id":100013235,"lat":41.264389,"lng":-3.929389,"addr":"CALLEJA, CALLEJÓN HOSPITAL, 7","city":"CANTALEJO","cp":"40320","fuels":{"Gazole":{"p":1.399,"d":"2026-07-14"},"SP95":{"p":1.419,"d":"2026-07-14"}},"brand":"Beroil","h24":true},{"id":100013165,"lat":41.264,"lng":-3.928306,"addr":"CALLE CTRA. ARANDA, 4","city":"CANTALEJO","cp":"40320","fuels":{"Gazole":{"p":1.479,"d":"2026-07-14"},"SP95":{"p":1.429,"d":"2026-07-14"}},"brand":"G Cantalejo","h24":true},{"id":100006298,"lat":41.11775,"lng":-4.263333,"addr":"CR CL-601, 83,7","city":"CARBONERO EL MAYOR","cp":"40270","fuels":{"Gazole":{"p":1.659,"d":"2026-07-14"},"SP95":{"p":1.645,"d":"2026-07-14"},"SP98":{"p":1.815,"d":"2026-07-14"}},"brand":"Repsol"},{"id":100012646,"lat":41.112611,"lng":-4.253806,"addr":"AUTOVIA A-601 VALLADOLID-SEGOVIA KM. 90,800","city":"CARBONERO EL MAYOR","cp":"40270","fuels":{"Gazole":{"p":1.519,"d":"2026-07-14"},"SP95":{"p":1.489,"d":"2026-07-14"}},"brand":"An Energeticos Mesenor","h24":true},{"id":100006281,"lat":41.258,"lng":-3.595722,"addr":"AUTOVIA AUTOVIA DEL NORTE MADRID-IRUN A-1 KM. 107","city":"CASTILLEJO DE MESLEON","cp":"40593","fuels":{"Gazole":{"p":1.629,"d":"2026-07-14"},"SP95":{"p":1.639,"d":"2026-07-14"},"SP98":{"p":1.779,"d":"2026-07-14"},"GPLc":{"p":1.179,"d":"2026-07-14"}},"brand":"Cepsa"},{"id":100006193,"lat":41.259278,"lng":-3.591194,"addr":"AUTOVIA AUTOVIA DEL NORTE MADRID-IRUN A-1 KM. 107,4","city":"CASTILLEJO DE MESLEON","cp":"40593","fuels":{"Gazole":{"p":1.668,"d":"2026-07-14"},"SP95":{"p":1.688,"d":"2026-07-14"},"SP98":{"p":1.788,"d":"2026-07-14"},"GPLc":{"p":1.088,"d":"2026-07-14"}},"brand":"Repsol","h24":true},{"id":100006396,"lat":41.219083,"lng":-3.591083,"addr":"CR N-1, 103","city":"CEREZO DE ABAJO","cp":"40591","fuels":{"Gazole":{"p":1.629,"d":"2026-07-14"},"SP95":{"p":1.649,"d":"2026-07-14"},"SP98":{"p":1.779,"d":"2026-07-14"}},"brand":"Petronor"},{"id":100006373,"lat":41.339722,"lng":-4.441861,"addr":"CARRETERA SEGOVIA 333 KM. 13,90","city":"CHAÑE","cp":"40216","fuels":{"Gazole":{"p":1.669,"d":"2026-07-14"},"SP95":{"p":1.635,"d":"2026-07-14"}},"brand":"Repsol"},{"id":100006269,"lat":41.213417,"lng":-4.52675,"addr":"CARRETERA CUELLAR-ALDEANUEVA 32.6 KM. 3431","city":"COCA","cp":"40480","fuels":{"Gazole":{"p":1.669,"d":"2026-07-14"},"SP95":{"p":1.639,"d":"2026-07-14"}},"brand":"Repsol"},{"id":100006258,"lat":41.037222,"lng":-3.921861,"addr":"CR N-110, 171","city":"COLLADO HERMOSO","cp":"40170","fuels":{"Gazole":{"p":1.628,"d":"2026-07-14"},"SP95":{"p":1.598,"d":"2026-07-14"},"SP98":{"p":1.748,"d":"2026-07-14"}},"brand":"Repsol"},{"id":100010777,"lat":41.39025,"lng":-4.302806,"addr":"SEGOVIA km 00","city":"CUELLAR","cp":"40200","fuels":{"Gazole":{"p":1.519,"d":"2026-07-14"},"SP95":{"p":1.489,"d":"2026-07-14"}},"brand":"An Glus","h24":true},{"id":100006168,"lat":41.409167,"lng":-4.33425,"addr":"CR CL-601 , 46","city":"CUELLAR","cp":"40200","fuels":{"Gazole":{"p":1.655,"d":"2026-07-14"},"SP95":{"p":1.659,"d":"2026-07-14"}},"brand":"Repsol"},{"id":100006316,"lat":41.394417,"lng":-4.305333,"addr":"CARRETERA CL-601 KM. 51,1","city":"CUELLAR","cp":"40200","fuels":{"Gazole":{"p":1.669,"d":"2026-07-14"},"SP95":{"p":1.639,"d":"2026-07-14"},"SP98":{"p":1.809,"d":"2026-07-14"}},"brand":"Repsol"},{"id":100014294,"lat":41.405972,"lng":-4.326972,"addr":"CARRETERA VALLADOLID S/N FINCA 16114 KM. 148","city":"CUELLAR","cp":"40200","fuels":{"Gazole":{"p":1.519,"d":"2026-07-14"},"SP95":{"p":1.489,"d":"2026-07-14"}},"brand":"El Surtidor","h24":true},{"id":100012348,"lat":40.721389,"lng":-4.258778,"addr":"CALLE LOS LLANOS, 1","city":"ESPINAR (EL)","cp":"40400","fuels":{"Gazole":{"p":1.459,"d":"2026-07-14"},"SP95":{"p":1.459,"d":"2026-07-14"}},"brand":"Carlos Diez Segovia","h24":true},{"id":100006186,"lat":40.717417,"lng":-4.234611,"addr":"PASEO DE LAS PEÑITAS, 104","city":"ESPINAR (EL)","cp":"40400","fuels":{"Gazole":{"p":1.675,"d":"2026-07-14"},"SP95":{"p":1.665,"d":"2026-07-14"}},"brand":"Repsol"},{"id":100011283,"lat":40.776917,"lng":-4.207917,"addr":"CARRETERA 603 KM. 71,2","city":"ESPINAR (EL)","cp":"40440","fuels":{"Gazole":{"p":1.629,"d":"2026-07-14"},"SP95":{"p":1.609,"d":"2026-07-14"},"SP98":{"p":1.749,"d":"2026-07-14"}},"brand":"Shell"},{"id":100006423,"lat":40.713472,"lng":-4.188389,"addr":"AVDA. ALTO DEL LEÓN, Nº 3","city":"SAN RAFAEL","cp":"40410","fuels":{"Gazole":{"p":1.489,"d":"2026-07-14"},"SP95":{"p":1.509,"d":"2026-07-14"}},"brand":"Gasolinera El Espinar De San Rafael"},{"id":100004755,"lat":41.332306,"lng":-3.468861,"addr":"NACIONAL 110 (SORIA-PLASENCIA) km 110,6","city":"FRESNO DE CANTESPINO","cp":"40516","fuels":{"Gazole":{"p":1.629,"d":"2026-07-14"},"SP95":{"p":1.639,"d":"2026-07-14"},"SP98":{"p":1.779,"d":"2026-07-14"}},"brand":"Cepsa"},{"id":100011760,"lat":41.2215,"lng":-4.187889,"addr":"CARRETERA TUREGANO KM. 18,700","city":"FUENTEPELAYO","cp":"40260","fuels":{"Gazole":{"p":1.489,"d":"2026-07-14"}},"brand":"Andres Tejedor E Hijos","h24":true},{"id":100009384,"lat":41.428611,"lng":-4.064667,"addr":"CARRETERA FUENTESAUCO - VEGAFRIA KM. 0,6","city":"FUENTESAUCO FUENTIDUEÑA","cp":"40355","fuels":{"Gazole":{"p":1.519,"d":"2026-07-14"},"SP95":{"p":1.489,"d":"2026-07-14"}},"brand":"A.N. Glus","h24":true},{"id":100006253,"lat":40.986333,"lng":-4.263944,"addr":"CARRETERA C L 605 DE SEGOVIA A ZAMORA KM. 14","city":"GARCILLAN","cp":"40120","fuels":{"Gazole":{"p":1.649,"d":"2026-07-14"},"SP95":{"p":1.625,"d":"2026-07-14"},"SP98":{"p":1.795,"d":"2026-07-14"}},"brand":"Campsa"},{"id":100006283,"lat":41.291694,"lng":-4.299639,"addr":"AUTOVIA CL 601 KM. 63","city":"GOMEZSERRACIN","cp":"40240","fuels":{"Gazole":{"p":1.655,"d":"2026-07-14"},"SP95":{"p":1.659,"d":"2026-07-14"}},"brand":"Repsol"},{"id":100006402,"lat":41.367417,"lng":-3.641806,"addr":"CARRETERA CARRETERA DE ENCINAS KM. 121,1","city":"GRAJERA","cp":"40569","fuels":{"Gazole":{"p":1.669,"d":"2026-07-14"},"SP95":{"p":1.689,"d":"2026-07-14"},"SP98":{"p":1.829,"d":"2026-07-14"}},"brand":"Repsol"},{"id":100004960,"lat":41.347444,"lng":-4.119111,"addr":"CARRERA RIAZA A TORO, SN","city":"HONTALBILLA","cp":"40353","fuels":{"Gazole":{"p":1.669,"d":"2026-07-14"},"SP95":{"p":1.629,"d":"2026-07-14"}},"brand":"Repostar","h24":true},{"id":100006113,"lat":40.837444,"lng":-4.51725,"addr":"CARRETERA N-6 MADRID CORUÑA KM. 94,600","city":"LABAJOS","cp":"40146","fuels":{"Gazole":{"p":1.645,"d":"2026-07-14"},"SP95":{"p":1.605,"d":"2026-07-14"}},"brand":"Moeve"},{"id":100014636,"lat":40.967833,"lng":-4.094667,"addr":"CARRETERA SORIA KM. 40","city":"LASTRILLA (LA)","cp":"40196","fuels":{"Gazole":{"p":1.509,"d":"2026-07-14"},"SP95":{"p":1.509,"d":"2026-07-14"}},"brand":"Ballenoil","h24":true},{"id":100004744,"lat":40.969556,"lng":-4.102722,"addr":"CL-601 (VALLADOLID-SEGOVIA) km 105","city":"LASTRILLA (LA)","cp":"40196","fuels":{"Gazole":{"p":1.509,"d":"2026-07-14"},"SP95":{"p":1.509,"d":"2026-07-14"}},"brand":"Ballenoil","h24":true},{"id":100006097,"lat":40.965917,"lng":-4.098417,"addr":"CARRETERA N-110 A SORIA KM 189 PARKING SUPERMERCADO KM. 110","city":"LASTRILLA (LA)","cp":"40196","fuels":{"Gazole":{"p":1.579,"d":"2026-07-14"},"SP95":{"p":1.559,"d":"2026-07-14"},"SP98":{"p":1.619,"d":"2026-07-14"}},"brand":"Q8"},{"id":100006166,"lat":41.052917,"lng":-4.699306,"addr":"AUTOVIA A-6 KM. 124","city":"MARTIN MUÑOZ DE LA DEHESA","cp":"40466","fuels":{"Gazole":{"p":1.659,"d":"2026-07-14"},"SP95":{"p":1.659,"d":"2026-07-14"},"SP98":{"p":1.799,"d":"2026-07-14"}},"brand":"Galp"},{"id":100006167,"lat":40.99525,"lng":-4.599694,"addr":"CARRETERA N-601 KM. 116,3","city":"MARTIN MUÑOZ DE LAS POSADAS","cp":"40446","fuels":{"Gazole":{"p":1.679,"d":"2026-07-14"},"SP95":{"p":1.659,"d":"2026-07-14"},"SP98":{"p":1.809,"d":"2026-07-14"}},"brand":"Repsol"},{"id":100006169,"lat":41.143028,"lng":-4.19175,"addr":"CARRETERA YANGUAS-PEÑAFIEL KM. 11,700","city":"MOZONCILLO","cp":"40250","fuels":{"Gazole":{"p":1.669,"d":"2026-07-14"},"SP95":{"p":1.659,"d":"2026-07-14"},"SP98":{"p":1.889,"d":"2026-07-14"}},"brand":"Repsol"},{"id":100006270,"lat":41.145028,"lng":-4.484083,"addr":"CARRETERA SG-341 STA.MA.NIEVA-NAVA 10.1 KM. 341","city":"NAVA DE LA ASUNCION","cp":"40450","fuels":{"Gazole":{"p":1.669,"d":"2026-07-14"},"SP95":{"p":1.639,"d":"2026-07-14"}},"brand":"Repsol"},{"id":100014666,"lat":41.156556,"lng":-4.510972,"addr":"CALLE REQUIJADA, 2","city":"NAVA DE LA ASUNCION","cp":"40450","fuels":{"Gazole":{"p":1.499,"d":"2026-07-14"},"SP95":{"p":1.499,"d":"2026-07-14"}},"brand":"Gar","h24":true},{"id":100012974,"lat":41.186444,"lng":-4.269944,"addr":"AUTOVIA A-601 KM. 75,9","city":"NAVALMANZANO","cp":"40280","fuels":{"Gazole":{"p":1.479,"d":"2026-07-14"},"SP95":{"p":1.469,"d":"2026-07-14"},"SP98":{"p":1.699,"d":"2026-07-14"},"GPLc":{"p":1.065,"d":"2026-07-14"}},"brand":"Navatrans","h24":true},{"id":100014935,"lat":41.185361,"lng":-4.268694,"addr":"POLIGONO POLIGONO 13, PARCELA 46. MOLINO, 46","city":"NAVALMANZANO","cp":"40280","fuels":{"Gazole":{"p":1.399,"d":"2026-07-14"},"SP95":{"p":1.419,"d":"2026-07-14"}},"brand":"Beroil Navalmanzano","h24":true},{"id":100006393,"lat":40.749194,"lng":-4.298139,"addr":"CARRETERA N-VI KM. 72","city":"NAVAS DE SAN ANTONIO","cp":"40408","fuels":{"Gazole":{"p":1.598,"d":"2026-07-14"},"SP95":{"p":1.583,"d":"2026-07-14"},"SP98":{"p":1.693,"d":"2026-07-14"}},"brand":"BP"},{"id":100014878,"lat":40.922694,"lng":-4.077667,"addr":"CALLE LAS ESPIGAS, 191","city":"PEÑAS DEL ERIZO","cp":"40194","fuels":{"Gazole":{"p":1.579,"d":"2026-07-14"},"SP95":{"p":1.569,"d":"2026-07-14"}},"brand":"Galp&go","h24":true},{"id":100006395,"lat":41.439806,"lng":-3.678028,"addr":"CARRERA CARABIAS, 130","city":"CARABIAS","cp":"40540","fuels":{"Gazole":{"p":1.689,"d":"2026-07-14"},"SP95":{"p":1.699,"d":"2026-07-14"},"SP98":{"p":1.927,"d":"2026-07-14"}},"brand":"Repsol"},{"id":100009326,"lat":41.149167,"lng":-3.671944,"addr":"CTRA N-110 PK 144,600","city":"PRADENA","cp":"40165","fuels":{"Gazole":{"p":1.588,"d":"2026-07-14"},"SP95":{"p":1.622,"d":"2026-07-14"},"SP98":{"p":1.773,"d":"2026-07-14"}},"brand":"Repsol"},{"id":100006237,"lat":41.276917,"lng":-3.485139,"addr":"CARRETERA NACIONAL 110 KM. 117,800","city":"RIAZA","cp":"40500","fuels":{"Gazole":{"p":1.569,"d":"2026-07-14"},"SP95":{"p":1.569,"d":"2026-07-14"},"SP98":{"p":1.699,"d":"2026-07-14"}},"brand":"Buquerin"},{"id":100012364,"lat":40.952278,"lng":-4.088056,"addr":"CARRETERA SG-V-6123 KM. 2","city":"SAN CRISTOBAL DE SEGOVIA","cp":"40197","fuels":{"Gazole":{"p":1.599,"d":"2026-07-14"},"SP95":{"p":1.579,"d":"2026-07-14"},"SP98":{"p":1.719,"d":"2026-07-14"}},"brand":"Shell"},{"id":100006265,"lat":40.904472,"lng":-4.020333,"addr":"CR CL-601, 120,1  I","city":"SAN ILDEFONSO O LA GRANJA","cp":"40100","fuels":{"Gazole":{"p":1.649,"d":"2026-07-14"},"SP95":{"p":1.625,"d":"2026-07-14"},"SP98":{"p":1.795,"d":"2026-07-14"}},"brand":"Repsol"},{"id":100006226,"lat":41.397417,"lng":-3.952194,"addr":"CR C-603, 65","city":"SAN MIGUEL DE BERNUY","cp":"40332","fuels":{"Gazole":{"p":1.558,"d":"2026-07-14"},"SP95":{"p":1.559,"d":"2026-07-14"}},"brand":"Bravoil"},{"id":100004951,"lat":40.949639,"lng":-4.414056,"addr":"CTRA.DE SEGOVIA, S/N","city":"SANGARCIA","cp":"40134","fuels":{"Gazole":{"p":1.649,"d":"2026-07-14"},"SP95":{"p":1.619,"d":"2026-07-14"}},"brand":"Agrocomercial Higuera"},{"id":100006377,"lat":41.068028,"lng":-4.403333,"addr":"CL CORONEL ORTEGA 45 (C-605 km 30)","city":"SANTA MARIA LA REAL DE NIEVA","cp":"40440","fuels":{"Gazole":{"p":1.529,"d":"2026-07-14"},"SP95":{"p":1.559,"d":"2026-07-14"}},"brand":"Polo","h24":true},{"id":100013957,"lat":41.188222,"lng":-3.584028,"addr":"AUTOVIA A1 KM. 99","city":"VILLAREJO","cp":"40590","fuels":{"Gazole":{"p":1.639,"d":"2026-07-14"},"SP95":{"p":1.629,"d":"2026-07-14"}},"brand":"E.S. Mirasierra","h24":true},{"id":100006249,"lat":40.948194,"lng":-4.115778,"addr":"AVENIDA PADRE CLARET (DEL), 8","city":"SEGOVIA","cp":"40001","fuels":{"Gazole":{"p":1.649,"d":"2026-07-14"},"SP95":{"p":1.629,"d":"2026-07-14"},"SP98":{"p":1.829,"d":"2026-07-14"}},"brand":"Repsol"},{"id":100006309,"lat":40.946111,"lng":-4.122944,"addr":"PASEO EZEQUIEL GONZALEZ, 28","city":"SEGOVIA","cp":"40002","fuels":{"Gazole":{"p":1.649,"d":"2026-07-14"},"SP95":{"p":1.625,"d":"2026-07-14"},"SP98":{"p":1.795,"d":"2026-07-14"}},"brand":"Repsol","h24":true},{"id":100006204,"lat":40.941472,"lng":-4.105694,"addr":"CALLE LOS DORADORES, 6","city":"SEGOVIA","cp":"40004","fuels":{"Gazole":{"p":1.649,"d":"2026-07-14"},"SP95":{"p":1.629,"d":"2026-07-14"},"SP98":{"p":1.799,"d":"2026-07-14"}},"brand":"Repsol"},{"id":100006138,"lat":40.932944,"lng":-4.108611,"addr":"CALLE CARRETERA SAN RAFAEL, 5","city":"SEGOVIA","cp":"40005","fuels":{"Gazole":{"p":1.694,"d":"2026-07-14"},"SP95":{"p":1.645,"d":"2026-07-14"}},"brand":"Cepsa"},{"id":100006136,"lat":40.937778,"lng":-4.11125,"addr":"AVDA. JUAN CARLOS I, 19 (N-603 km 94,5)","city":"SEGOVIA","cp":"40005","fuels":{"Gazole":{"p":1.539,"d":"2026-07-14"},"SP95":{"p":1.529,"d":"2026-07-14"}},"brand":"Ballenoil","h24":true},{"id":100014832,"lat":40.931444,"lng":-4.1135,"addr":"CALLE GUADARRAMA, 14","city":"SEGOVIA","cp":"40006","fuels":{"Gazole":{"p":1.539,"d":"2026-07-14"},"SP95":{"p":1.529,"d":"2026-07-14"}},"brand":"Ballenoil","h24":true},{"id":100006082,"lat":40.922639,"lng":-4.112028,"addr":"POLIGONO POLÍGONO INDUSTRIAL EL CERRO, LUZ DE CASTILLA, S/N","city":"SEGOVIA","cp":"40006","fuels":{"Gazole":{"p":1.619,"d":"2026-07-14"},"SP95":{"p":1.599,"d":"2026-07-14"},"SP98":{"p":1.799,"d":"2026-07-14"}},"brand":"Carrefour","h24":true},{"id":100004738,"lat":40.927194,"lng":-4.109194,"addr":"C.N.-603-MARGEN DERECHO km 93.60000","city":"SEGOVIA","cp":"40006","fuels":{"Gazole":{"p":1.599,"d":"2026-07-14"},"SP95":{"p":1.579,"d":"2026-07-14"},"SP98":{"p":1.719,"d":"2026-07-14"},"GPLc":{"p":1.029,"d":"2026-07-14"}},"brand":"Shell"},{"id":100004922,"lat":40.927194,"lng":-4.109694,"addr":"C.N.-603-MARGEN IZQUIERDO km 93.60000","city":"SEGOVIA","cp":"40006","fuels":{"Gazole":{"p":1.599,"d":"2026-07-14"},"SP95":{"p":1.579,"d":"2026-07-14"},"SP98":{"p":1.719,"d":"2026-07-14"}},"brand":"Shell"},{"id":100006244,"lat":40.936222,"lng":-4.112417,"addr":"CL PLAZA PUERTA MADRID S.N.","city":"SEGOVIA","cp":"40006","fuels":{"Gazole":{"p":1.649,"d":"2026-07-14"},"SP95":{"p":1.629,"d":"2026-07-14"}},"brand":"Repsol"},{"id":100015703,"lat":40.926556,"lng":-4.115056,"addr":"CALLE NAVACERRADA, 1","city":"SEGOVIA","cp":"40006","fuels":{"Gazole":{"p":1.539,"d":"2026-07-14"},"SP95":{"p":1.529,"d":"2026-07-14"}},"brand":"Plenergy","h24":true},{"id":100010572,"lat":40.91825,"lng":-4.108528,"addr":"CARRETERA SAN RAFAEL N-603 KM. 87","city":"SEGOVIA","cp":"40006","fuels":{"Gazole":{"p":1.519,"d":"2026-07-14"},"SP95":{"p":1.509,"d":"2026-07-14"}},"brand":"Semutransa","h24":true},{"id":100015552,"lat":40.910139,"lng":-4.058111,"addr":"CALLE LA GRANJA, 2","city":"REVENGA","cp":"40194","fuels":{"Gazole":{"p":1.539,"d":"2026-07-14"},"SP95":{"p":1.529,"d":"2026-07-14"}},"brand":"Plenergy","h24":true},{"id":100006218,"lat":41.298722,"lng":-3.744833,"addr":"CALLE ALFONSO VI, 29","city":"SEPULVEDA","cp":"40300","fuels":{"Gazole":{"p":1.499,"d":"2026-07-14"},"SP95":{"p":1.539,"d":"2026-07-14"}},"brand":"Beroil","h24":true},{"id":100006363,"lat":41.134167,"lng":-4.6495,"addr":"CR N-601, 131","city":"TOLOCIRIO","cp":"40467","fuels":{"Gazole":{"p":1.645,"d":"2026-07-14"},"SP95":{"p":1.629,"d":"2026-07-14"},"SP98":{"p":1.799,"d":"2026-07-14"}},"brand":"Repsol"},{"id":100011793,"lat":40.986139,"lng":-4.040444,"addr":"CARRETERA N-110 KM. 182,650","city":"ALDEHUELA","cp":"40160","fuels":{"Gazole":{"p":1.495,"d":"2026-07-14"},"SP95":{"p":1.495,"d":"2026-07-14"},"SP98":{"p":1.819,"d":"2026-07-14"}},"brand":"Cepsa  E.S. Torrecaballeros (llorsoil)"},{"id":100006366,"lat":41.153472,"lng":-4.007611,"addr":"CARRETERA ARANDA DE DUERO  -  SEGOVIA KM. 68","city":"TUREGANO","cp":"40370","fuels":{"Gazole":{"p":1.665,"d":"2026-07-14"},"SP95":{"p":1.655,"d":"2026-07-14"}},"brand":"Repsol"},{"id":100014385,"lat":41.398889,"lng":-4.443889,"addr":"CARRETERA CL 602 OLMEDO- CUELLAR KM. 101,640","city":"VALLELADO","cp":"40213","fuels":{"Gazole":{"p":1.529,"d":"2026-07-14"},"SP95":{"p":1.499,"d":"2026-07-14"}},"brand":"Low Cost Vallelado","h24":true},{"id":100006188,"lat":40.998861,"lng":-4.148778,"addr":"CARRETERA CL-601 KM. 100,800","city":"VALSECA","cp":"40390","fuels":{"Gazole":{"p":1.659,"d":"2026-07-14"},"SP95":{"p":1.659,"d":"2026-07-14"},"SP98":{"p":1.829,"d":"2026-07-14"}},"brand":"Repsol"},{"id":100013607,"lat":40.95775,"lng":-4.200139,"addr":"CALLE FRESNO, 72","city":"VALVERDE DEL MAJANO","cp":"40140","fuels":{"Gazole":{"p":1.535,"d":"2026-07-14"},"SP95":{"p":1.525,"d":"2026-07-14"}},"brand":"Llorsoil- E. S. Valverde","h24":true},{"id":100006401,"lat":40.7975,"lng":-4.462889,"addr":"AUTOPISTA A6 KM. 0","city":"VILLACASTIN","cp":"40150","fuels":{"Gazole":{"p":1.619,"d":"2026-07-14"},"SP95":{"p":1.584,"d":"2026-07-14"},"SP98":{"p":1.724,"d":"2026-07-14"}},"brand":"Galp"},{"id":100006177,"lat":40.7975,"lng":-4.460889,"addr":"AUTOPISTA A6 KM. 0","city":"VILLACASTIN","cp":"40150","fuels":{"Gazole":{"p":1.619,"d":"2026-07-14"},"SP95":{"p":1.584,"d":"2026-07-14"},"SP98":{"p":1.724,"d":"2026-07-14"}},"brand":"Galp","h24":true},{"id":100006147,"lat":40.771972,"lng":-4.397611,"addr":"AUTOPISTA AP-6 KM. 80","city":"VILLACASTIN","cp":"40150","fuels":{"Gazole":{"p":1.669,"d":"2026-07-14"},"SP95":{"p":1.619,"d":"2026-07-14"},"SP98":{"p":1.759,"d":"2026-07-14"}},"brand":"Bp Ap6 Villacastin Norte","h24":true},{"id":100006146,"lat":40.770722,"lng":-4.39875,"addr":"AUTOPISTA AP-6 KM. 80","city":"VILLACASTIN","cp":"40150","fuels":{"Gazole":{"p":1.669,"d":"2026-07-14"},"SP95":{"p":1.619,"d":"2026-07-14"},"SP98":{"p":1.759,"d":"2026-07-14"}},"brand":"Bp Ap6 Villacastin Sur","h24":true},{"id":100006315,"lat":40.777556,"lng":-4.398917,"addr":"CARRETERA N-VI KM. 82","city":"VILLACASTIN","cp":"40150","fuels":{"Gazole":{"p":1.598,"d":"2026-07-14"},"SP95":{"p":1.583,"d":"2026-07-14"},"SP98":{"p":1.693,"d":"2026-07-14"}},"brand":"E.S. Villacastin, S.L."}]