[{"id":200083564,"lat":41.40016,"lng":-8.52512,"addr":"Rua S. Julião, n.º 831","city":"Calendário","cp":"4760-384","fuels":{"Gazole":{"p":1.747,"d":"2026-07-07"},"SP95":{"p":1.817,"d":"2026-07-07"}},"brand":"Intermarché"},{"id":200094922,"lat":41.51878,"lng":-8.449879,"addr":"Travessa da União","city":"Celeirós","cp":"4705-462","fuels":{"Gazole":{"p":1.749,"d":"2026-07-13"},"SP95":{"p":1.785,"d":"2026-07-13"}},"brand":"Plenergy"},{"id":200093290,"lat":41.50758,"lng":-7.989193,"addr":"AVENIDA REI DOM MANUEL I","city":"Cabeceiras de Basto","cp":"4860-370","fuels":{"Gazole":{"p":1.759,"d":"2026-07-09"},"SP95":{"p":1.889,"d":"2026-07-09"},"SP98":{"p":1.969,"d":"2026-07-09"}},"brand":"Intermarché"},{"id":200070636,"lat":41.532079,"lng":-8.421299,"addr":"Rua do Parque Comercial","city":"Nogueira","cp":"4711-911","fuels":{"Gazole":{"p":1.759,"d":"2026-07-14"}},"brand":"Recheio"},{"id":200092049,"lat":41.42188,"lng":-8.35589,"addr":"Lugar do Lameirinho - Selho - S. Jorge","city":"Guimarães","cp":"4835-326","fuels":{"Gazole":{"p":1.769,"d":"2026-07-14"},"SP95":{"p":1.829,"d":"2026-07-14"}}},{"id":200093507,"lat":41.541302,"lng":-8.425741,"addr":"PONTE DOS PLAMES, LUGAR DO COUTEIRO","city":"São José de São Lázaro","cp":"4700-000","fuels":{"Gazole":{"p":1.771,"d":"2026-07-13"},"SP95":{"p":1.852,"d":"2026-07-13"}},"brand":"G-Energy"},{"id":200093388,"lat":41.5211,"lng":-8.60856,"addr":"Rua Irmão Martinho Corral Alcalde, nº 175 Barcelinhos","city":"Barcelos","cp":"4755-054","fuels":{"Gazole":{"p":1.779,"d":"2026-07-14"},"SP95":{"p":1.825,"d":"2026-07-14"}},"brand":"Leclerc"},{"id":200091858,"lat":41.548195,"lng":-8.623167,"addr":"Avenida Paulo Felisberto, Lugar de Jordão, Vila Boa","city":"Vila Frescainha","cp":"4750-698","fuels":{"Gazole":{"p":1.785,"d":"2026-07-13"},"SP95":{"p":1.829,"d":"2026-07-13"},"SP98":{"p":1.905,"d":"2026-07-13"}},"brand":"Intermarché"},{"id":200093567,"lat":41.446487,"lng":-8.555279,"addr":"Rua Santa Maria de Viatodos - Edifício Intermarché","city":"Viatodos","cp":"4775-250","fuels":{"Gazole":{"p":1.785,"d":"2026-07-14"},"SP95":{"p":1.829,"d":"2026-07-14"},"SP98":{"p":1.909,"d":"2026-07-14"}},"brand":"Intermarché"},{"id":200072346,"lat":41.48656,"lng":-8.5663,"addr":"EN 204 (Rua de Pigeiros n.º 660)","city":"Carreira","cp":"4775-064","fuels":{"Gazole":{"p":1.787,"d":"2026-07-13"},"SP95":{"p":1.818,"d":"2026-07-13"},"SP98":{"p":1.975,"d":"2026-07-13"}}},{"id":200080028,"lat":41.539,"lng":-8.43849,"addr":"Rua Padre Cruz, Nº 5\nMaximinos","city":"Braga","cp":"4700-236","fuels":{"Gazole":{"p":1.788,"d":"2026-07-13"},"SP95":{"p":1.823,"d":"2026-07-13"}},"brand":"Rede Energia"},{"id":200094483,"lat":41.57254,"lng":-8.523811,"addr":"EN 205, km 33,300 - Lugar de Crasto  - Ucha de São Romão","city":"Ucha","cp":"4750-767","fuels":{"Gazole":{"p":1.788,"d":"2026-07-13"},"SP95":{"p":1.836,"d":"2026-07-13"},"SP98":{"p":1.946,"d":"2026-07-13"},"GPLc":{"p":0.871,"d":"2026-07-13"}},"brand":"BP"},{"id":200093394,"lat":41.534834,"lng":-8.447248,"addr":"Rua Frei José Vilaça, 297","city":"Ferreiros","cp":"4705-265","fuels":{"Gazole":{"p":1.789,"d":"2026-07-13"},"SP95":{"p":1.824,"d":"2026-07-13"}},"brand":"Leclerc"},{"id":200067245,"lat":41.53522,"lng":-8.4305,"addr":"Rua da Mouta","city":"Lomar","cp":"4705-180","fuels":{"Gazole":{"p":1.789,"d":"2026-07-13"},"SP95":{"p":1.824,"d":"2026-07-13"},"SP98":{"p":1.994,"d":"2026-07-13"}},"brand":"Intermarché"},{"id":200089558,"lat":41.534244,"lng":-8.438093,"addr":"Avenida Cidade do Porto, EN 14","city":"União das Freguesias de Ferreiros e Gondizalves","cp":"4705-084","fuels":{"Gazole":{"p":1.789,"d":"2026-07-13"},"SP95":{"p":1.819,"d":"2026-07-13"}},"brand":"Bxpress"},{"id":200088005,"lat":41.605434,"lng":-8.467021,"addr":"Lugar de Estrada ou Outeiro","city":"Vila de Prado","cp":"4730-466","fuels":{"Gazole":{"p":1.789,"d":"2026-07-13"},"SP95":{"p":1.829,"d":"2026-07-13"},"SP98":{"p":1.899,"d":"2026-07-13"}},"brand":"Intermarché"},{"id":200094663,"lat":41.356785,"lng":-8.550841,"addr":"EN 14 AO KM 21,535 LD","city":"Ribeirão","cp":"4760-706","fuels":{"Gazole":{"p":1.789,"d":"2026-07-13"},"SP95":{"p":1.789,"d":"2026-07-13"}},"brand":"Petroprix"},{"id":200070150,"lat":41.42127,"lng":-8.4415,"addr":"Av. João XXI","city":"Vermoim","cp":"4770-754","fuels":{"Gazole":{"p":1.789,"d":"2026-07-14"},"SP95":{"p":1.819,"d":"2026-07-14"},"SP98":{"p":1.929,"d":"2026-07-14"},"GPLc":{"p":0.889,"d":"2026-07-14"}}},{"id":200093501,"lat":41.658179,"lng":-8.431526,"addr":"EN 101","city":"Lugar do Souto-Geme","cp":"4730-180","fuels":{"Gazole":{"p":1.789,"d":"2026-07-14"},"SP95":{"p":1.829,"d":"2026-07-14"}},"brand":"Intermarché"},{"id":200067403,"lat":41.625835,"lng":-8.360552,"addr":"Rua da Cintura","city":"Bornaria-Qtª do Paço-Ferreiros","cp":"4720-333","fuels":{"Gazole":{"p":1.789,"d":"2026-07-14"},"SP95":{"p":1.829,"d":"2026-07-14"},"SP98":{"p":1.899,"d":"2026-07-14"}},"brand":"Intermarché"},{"id":200094455,"lat":41.40331,"lng":-8.405636,"addr":"Av. 25 de Abril, 1020","city":"Santa Maria Oliveira","cp":"4765-801","fuels":{"Gazole":{"p":1.796,"d":"2026-07-13"},"SP95":{"p":1.86,"d":"2026-07-13"},"SP98":{"p":1.99,"d":"2026-07-13"}}},{"id":200078651,"lat":41.51535,"lng":-8.61622,"addr":"Rua 25 de Abril, nº 1273","city":"Alvelos","cp":"4755-034","fuels":{"Gazole":{"p":1.798,"d":"2026-07-07"},"SP95":{"p":1.895,"d":"2026-07-07"},"SP98":{"p":1.965,"d":"2026-07-07"}},"brand":"BP"},{"id":200076388,"lat":41.42455,"lng":-8.29936,"addr":"Rua Pinheiro Manso nº 443 / lote 10","city":"Guimarães","cp":"4810-107","fuels":{"Gazole":{"p":1.798,"d":"2026-07-13"},"SP95":{"p":1.838,"d":"2026-07-13"},"SP98":{"p":1.938,"d":"2026-07-13"}},"brand":"Intermarché"},{"id":200077592,"lat":41.411793,"lng":-8.512639,"addr":"EN 206 Av.do Brasil lote, nº2","city":"Vila Nova de Famalicão","cp":"4760-010","fuels":{"Gazole":{"p":1.799,"d":"2026-07-13"},"SP95":{"p":1.829,"d":"2026-07-13"},"GPLc":{"p":0.869,"d":"2026-07-13"}},"brand":"Auchan"},{"id":200074503,"lat":41.44742,"lng":-8.341431,"addr":"Rua 25 de Abril, 999 Silvares","city":"Guimarães","cp":"4835-400","fuels":{"Gazole":{"p":1.799,"d":"2026-07-13"},"SP95":{"p":1.839,"d":"2026-07-13"},"GPLc":{"p":0.889,"d":"2026-07-13"}},"brand":"Auchan"},{"id":200094137,"lat":41.45479,"lng":-8.545514,"addr":"Largo da Estação Nº 27.","city":"Nine","cp":"4775-446","fuels":{"Gazole":{"p":1.799,"d":"2026-07-13"},"SP95":{"p":1.854,"d":"2026-07-13"},"SP98":{"p":1.954,"d":"2026-07-13"}},"brand":"Q8"},{"id":200067619,"lat":41.45493,"lng":-8.27512,"addr":"Rua da Eira nº 85","city":"Mesão Frio","cp":"4810-007","fuels":{"Gazole":{"p":1.799,"d":"2026-07-13"},"SP95":{"p":1.839,"d":"2026-07-13"}},"brand":"Intermarché"},{"id":200071046,"lat":41.48498,"lng":-8.76023,"addr":"Av. da Praia","city":"Apúlia","cp":"4740-033","fuels":{"Gazole":{"p":1.8,"d":"2026-07-13"},"SP95":{"p":1.885,"d":"2026-07-13"},"SP98":{"p":1.91,"d":"2026-07-13"}},"brand":"BP"},{"id":200093380,"lat":41.416539,"lng":-8.518858,"addr":"Rua de Talvai","city":"Vila Nova de Famalicão","cp":"4764-503","fuels":{"Gazole":{"p":1.807,"d":"2026-07-13"},"SP95":{"p":1.827,"d":"2026-07-13"}},"brand":"Leclerc"},{"id":200076396,"lat":41.48632,"lng":-8.351243,"addr":"Rua Comandante Carvalho Crato (EN 101)","city":"Caldas das Taipas","cp":"4805-104","fuels":{"Gazole":{"p":1.808,"d":"2026-07-13"},"SP95":{"p":1.838,"d":"2026-07-13"}},"brand":"Intermarché"},{"id":200067207,"lat":41.36401,"lng":-8.30262,"addr":"SOUTO DOS MILAGRES, 74","city":"VIZELA","cp":"4620-574","fuels":{"Gazole":{"p":1.808,"d":"2026-07-14"},"SP95":{"p":1.838,"d":"2026-07-14"}},"brand":"Intermarché"},{"id":200083705,"lat":41.37373,"lng":-8.59804,"addr":"Rua Santa Leocádia","city":"Fradelos","cp":"4760-485","fuels":{"Gazole":{"p":1.809,"d":"2026-07-06"},"SP95":{"p":1.899,"d":"2026-07-06"},"SP98":{"p":2.099,"d":"2026-07-06"}},"brand":"Nova"},{"id":200070533,"lat":41.535347,"lng":-8.601057,"addr":"Av. das Pontes 153, Tamel S. Veríssimo (EN 205 Km 600)","city":"Tamel S. Veríssimo","cp":"4750-754","fuels":{"Gazole":{"p":1.819,"d":"2026-07-14"},"SP95":{"p":1.879,"d":"2026-07-14"},"SP98":{"p":1.959,"d":"2026-07-14"},"GPLc":{"p":0.993,"d":"2026-07-14"}},"brand":"Freitas"},{"id":200065164,"lat":41.52279,"lng":-8.593953,"addr":"Rua da Estrada Nova 905","city":"Gamil","cp":"4755-602","fuels":{"Gazole":{"p":1.819,"d":"2026-07-14"},"SP95":{"p":1.879,"d":"2026-07-14"},"SP98":{"p":1.959,"d":"2026-07-14"}}},{"id":200093838,"lat":41.47191,"lng":-8.487272,"addr":"Av Conde Arnoso, 1902","city":"Santa Maria de Arnoso","cp":"4770-526","fuels":{"Gazole":{"p":1.828,"d":"2026-07-13"},"SP95":{"p":1.879,"d":"2026-07-13"},"GPLc":{"p":0.968,"d":"2026-07-13"}}},{"id":200067028,"lat":41.44433,"lng":-8.16837,"addr":"Bouça de Cavadas","city":"Fafe","cp":"4820-099","fuels":{"Gazole":{"p":1.828,"d":"2026-07-14"},"SP95":{"p":1.858,"d":"2026-07-14"},"SP98":{"p":1.948,"d":"2026-07-14"}},"brand":"Intermarché"},{"id":200093390,"lat":41.453073,"lng":-8.189715,"addr":"Rua Cidade de Guimarães","city":"Campo do Lameiro – Santo Ovídeo","cp":"4820-178","fuels":{"Gazole":{"p":1.829,"d":"2026-07-13"},"SP95":{"p":1.859,"d":"2026-07-13"},"SP98":{"p":1.949,"d":"2026-07-13"},"GPLc":{"p":0.999,"d":"2026-07-13"}},"brand":"Leclerc"},{"id":200073901,"lat":41.64359,"lng":-8.43295,"addr":"Av. Mesquita Gavião, 206","city":"Vila Verde-Lugar da Torre","cp":"4730-010","fuels":{"Gazole":{"p":1.831,"d":"2026-07-14"},"SP95":{"p":1.863,"d":"2026-07-14"}},"brand":"Pingo Doce"},{"id":200076718,"lat":41.444955,"lng":-8.164413,"addr":"Lugar de Cavadas","city":"Fafe","cp":"4820-587","fuels":{"Gazole":{"p":1.831,"d":"2026-07-14"},"SP95":{"p":1.863,"d":"2026-07-14"}},"brand":"Pingo Doce"},{"id":200093475,"lat":41.45777,"lng":-8.71975,"addr":"Estrada Nacional 205 - km 9","city":"Barqueiros","cp":"4740-694","fuels":{"Gazole":{"p":1.834,"d":"2026-07-13"},"SP95":{"p":1.899,"d":"2026-07-13"},"GPLc":{"p":0.929,"d":"2026-07-13"}},"brand":"OZ Energia"},{"id":200066286,"lat":41.55827,"lng":-8.40696,"addr":"Av. Padre Júlio Fragata","city":"S. Vitor, Quinta dos Congregados (Feira Nova)","cp":"4700-427","fuels":{"Gazole":{"p":1.836,"d":"2026-07-07"},"SP95":{"p":1.913,"d":"2026-07-07"}},"brand":"Cepsa"},{"id":200069119,"lat":41.602937,"lng":-8.740943,"addr":"Lugar da Igreja - EN103 Barcelos/Viana (Av. Rodrigues de Faria)","city":"Esposende","cp":"4740-438","fuels":{"Gazole":{"p":1.836,"d":"2026-07-07"},"SP95":{"p":1.913,"d":"2026-07-07"}},"brand":"Cepsa"},{"id":200095193,"lat":41.389393,"lng":-8.261781,"addr":"Rua 26 de Junho","city":"São Paio Vizela","cp":"4815-587","fuels":{"Gazole":{"p":1.839,"d":"2026-07-06"},"SP95":{"p":1.919,"d":"2026-07-06"}},"brand":"Freitas"},{"id":200083466,"lat":41.4041,"lng":-8.16035,"addr":"Rua de Várzea","city":"Silvares São Martinho","cp":"4820-715","fuels":{"Gazole":{"p":1.839,"d":"2026-07-11"},"SP95":{"p":1.914,"d":"2026-07-11"},"SP98":{"p":2.094,"d":"2026-07-11"}}},{"id":200093399,"lat":41.682404,"lng":-8.090336,"addr":"RUA CENTRAL DE SALAMONDE, Nº 1896","city":"Salamonde","cp":"4850-369","fuels":{"Gazole":{"p":1.844,"d":"2026-07-07"},"SP95":{"p":1.934,"d":"2026-07-07"}}},{"id":200093385,"lat":41.3682,"lng":-8.36873,"addr":"Rua de Mide","city":"Lordelo","cp":"4815-169","fuels":{"Gazole":{"p":1.845,"d":"2026-07-13"},"SP95":{"p":1.826,"d":"2026-07-13"},"SP98":{"p":1.91,"d":"2026-07-13"}},"brand":"Leclerc"},{"id":200068871,"lat":41.543404,"lng":-8.440024,"addr":"Av. Cónego Jorge Peixoto Coutinho- variante 14","city":"Braga","cp":"4700-000","fuels":{"Gazole":{"p":1.849,"d":"2026-07-13"},"SP95":{"p":1.886,"d":"2026-07-13"},"GPLc":{"p":0.939,"d":"2026-07-13"}},"brand":"Moeve"},{"id":200068876,"lat":41.542747,"lng":-8.439816,"addr":"Av. Cónego Jorge Peixoto Coutinho- variante 14","city":"Braga","cp":"4700-000","fuels":{"Gazole":{"p":1.849,"d":"2026-07-13"},"SP95":{"p":1.886,"d":"2026-07-13"}},"brand":"Moeve"},{"id":200067089,"lat":41.62954,"lng":-8.347564,"addr":"Rua Adolfo Vilela, EN 308","city":"Amares","cp":"4720-019","fuels":{"Gazole":{"p":1.849,"d":"2026-07-13"},"SP95":{"p":1.886,"d":"2026-07-13"}},"brand":"Cepsa"},{"id":200067087,"lat":41.585957,"lng":-8.508354,"addr":"Rua de Cruto, nº 10 - Cabanelas","city":"Cabanelas","cp":"4730-093","fuels":{"Gazole":{"p":1.849,"d":"2026-07-13"},"SP95":{"p":1.886,"d":"2026-07-13"}},"brand":"Cepsa"},{"id":200066931,"lat":41.56754,"lng":-8.484898,"addr":"Avenida do Assento, Nº44 - Padim da Graça","city":"Padim da Graça","cp":"4700-646","fuels":{"Gazole":{"p":1.849,"d":"2026-07-13"},"SP95":{"p":1.886,"d":"2026-07-13"}},"brand":"Cepsa"},{"id":200067088,"lat":41.64058,"lng":-8.435425,"addr":"Avenida António Sergio, EN 101 Km 79,700 D","city":"Vila Verde","cp":"4730-710","fuels":{"Gazole":{"p":1.849,"d":"2026-07-13"},"SP95":{"p":1.886,"d":"2026-07-13"}},"brand":"Cepsa"},{"id":200067085,"lat":41.596783,"lng":-8.428371,"addr":"Avenida Cávado 268","city":"Palmeira","cp":"4700-690","fuels":{"Gazole":{"p":1.849,"d":"2026-07-13"},"SP95":{"p":1.886,"d":"2026-07-13"}},"brand":"Moeve"},{"id":200067086,"lat":41.59746,"lng":-8.428921,"addr":"Avenida Cávado 268","city":"Palmeira","cp":"4700-690","fuels":{"Gazole":{"p":1.849,"d":"2026-07-13"},"SP95":{"p":1.886,"d":"2026-07-13"},"GPLc":{"p":0.939,"d":"2026-07-13"}},"brand":"Moeve"},{"id":200068064,"lat":41.372684,"lng":-8.317921,"addr":"Rua Comendador João Pereira Magalhães nº910","city":"Vizela","cp":"4815-400","fuels":{"Gazole":{"p":1.849,"d":"2026-07-13"},"SP95":{"p":1.886,"d":"2026-07-13"}},"brand":"Cepsa"},{"id":200071215,"lat":41.47773,"lng":-8.531881,"addr":"Rua Senhora da Cruz, nº 52","city":"Cambeses","cp":"4775-024","fuels":{"Gazole":{"p":1.849,"d":"2026-07-13"},"SP95":{"p":1.886,"d":"2026-07-13"}},"brand":"Cepsa"},{"id":200065735,"lat":41.37135,"lng":-8.43338,"addr":"Av. Silva Pereira, nº 600","city":"Bairro","cp":"4765-014","fuels":{"Gazole":{"p":1.849,"d":"2026-07-13"},"SP95":{"p":1.869,"d":"2026-07-13"}},"brand":"Prio"},{"id":200094872,"lat":41.45786,"lng":-8.36358,"addr":"Rua São João Batista, nº1700","city":"Brito","cp":"4805-036","fuels":{"Gazole":{"p":1.849,"d":"2026-07-13"},"SP95":{"p":1.889,"d":"2026-07-13"},"SP98":{"p":2.069,"d":"2026-07-13"}}},{"id":200093040,"lat":41.44995,"lng":-8.304528,"addr":"RUA NOSSA SENHORA DA CONCEIÇAO","city":"Guimarães","cp":"4800-100","fuels":{"Gazole":{"p":1.851,"d":"2026-07-13"},"SP95":{"p":1.888,"d":"2026-07-13"}},"brand":"Moeve"},{"id":200066251,"lat":41.357433,"lng":-8.562631,"addr":"Rua Adelino Costa Campos, 57","city":"Ribeirão","cp":"4760-717","fuels":{"Gazole":{"p":1.851,"d":"2026-07-13"},"SP95":{"p":1.888,"d":"2026-07-13"}},"brand":"Cepsa"},{"id":200068761,"lat":41.468636,"lng":-8.496163,"addr":"AVENIDA NOSSA SENHORA DA CONCEIÇÃO, Nº128","city":"Santa Maria de Arnoso","cp":"4770-528","fuels":{"Gazole":{"p":1.853,"d":"2026-07-13"},"SP95":{"p":1.897,"d":"2026-07-13"},"SP98":{"p":2.077,"d":"2026-07-13"}},"brand":"Freitas"},{"id":200071997,"lat":41.51089,"lng":-8.48371,"addr":"Rua General Humberto Delgado","city":"Tadim - Lugar da Estação","cp":"4700-000","fuels":{"Gazole":{"p":1.853,"d":"2026-07-13"},"SP95":{"p":1.897,"d":"2026-07-13"},"SP98":{"p":2.077,"d":"2026-07-13"}},"brand":"Freitas"},{"id":200093450,"lat":41.38069,"lng":-8.50538,"addr":"Rua Senhora dos Aparecidos, 1081","city":"Esmeriz","cp":"4760-480","fuels":{"Gazole":{"p":1.853,"d":"2026-07-14"},"SP95":{"p":1.897,"d":"2026-07-14"}},"brand":"Via"},{"id":200075848,"lat":41.470036,"lng":-8.710185,"addr":"Rua de Ferreiros, n.º867","city":"Cristelo","cp":"4755-181","fuels":{"Gazole":{"p":1.854,"d":"2026-07-13"},"SP95":{"p":1.904,"d":"2026-07-13"},"SP98":{"p":2.019,"d":"2026-07-13"}}},{"id":200068198,"lat":41.53038,"lng":-8.41306,"addr":"Av. Miguel Torga","city":"Nogueira - Lugar do Agrelo","cp":"4710-115","fuels":{"Gazole":{"p":1.857,"d":"2026-07-09"},"SP95":{"p":1.915,"d":"2026-07-09"}},"brand":"OZ Energia"},{"id":200068201,"lat":41.52995,"lng":-8.412699,"addr":"Lugar do Agrelo, Lote 1","city":"Braga","cp":"4710-115","fuels":{"Gazole":{"p":1.857,"d":"2026-07-09"},"SP95":{"p":1.915,"d":"2026-07-09"}},"brand":"OZ Energia"},{"id":200089678,"lat":41.555714,"lng":-8.407441,"addr":"Av. Padre Júlio Fragata, 113","city":"Braga","cp":"4710-001","fuels":{"Gazole":{"p":1.857,"d":"2026-07-10"},"SP95":{"p":1.915,"d":"2026-07-10"}}},{"id":200093265,"lat":41.50905,"lng":-8.62332,"addr":"RUA SENHORA DAS DORES, 765","city":"Alvelos","cp":"4755-035","fuels":{"Gazole":{"p":1.857,"d":"2026-07-14"},"SP95":{"p":1.895,"d":"2026-07-14"}},"brand":"Freitas"},{"id":200067122,"lat":41.57333,"lng":-8.26229,"addr":"Lugar de Ponte Pereiros","city":"Póvoa de Lanhoso","cp":"4830-508","fuels":{"Gazole":{"p":1.858,"d":"2026-07-13"},"SP95":{"p":1.858,"d":"2026-07-13"},"SP98":{"p":1.953,"d":"2026-07-13"}},"brand":"Intermarché"},{"id":200093053,"lat":41.57053,"lng":-8.685565,"addr":"Rua da Estrada Nacional 103, km 12,100","city":"Feitos","cp":"4750-442","fuels":{"Gazole":{"p":1.861,"d":"2026-07-13"},"SP95":{"p":1.967,"d":"2026-07-13"},"SP98":{"p":2.014,"d":"2026-07-13"},"GPLc":{"p":0.894,"d":"2026-07-13"}}},{"id":200065770,"lat":41.67685,"lng":-8.52491,"addr":"EN 201","city":"Marrancos-Arcozelo- Lugar do Monte Afurado","cp":"4731-000","fuels":{"Gazole":{"p":1.869,"d":"2026-07-13"},"SP95":{"p":1.927,"d":"2026-07-13"},"SP98":{"p":2.067,"d":"2026-07-13"},"GPLc":{"p":0.919,"d":"2026-07-13"}},"brand":"Bombagás"},{"id":200068560,"lat":41.676675,"lng":-8.524435,"addr":"EN 201 - Km47,540","city":"Monte Aforado","cp":"4730-282","fuels":{"Gazole":{"p":1.869,"d":"2026-07-13"},"SP95":{"p":1.927,"d":"2026-07-13"},"SP98":{"p":2.067,"d":"2026-07-13"}},"brand":"Bombagás"},{"id":200074841,"lat":41.37565,"lng":-8.54617,"addr":"Rua do Comércio","city":"Vilarinho das Cambas","cp":"4760-739","fuels":{"Gazole":{"p":1.869,"d":"2026-07-13"}},"brand":"Petroibérica"},{"id":200094419,"lat":41.45286,"lng":-8.367333,"addr":"Rua São João Baptista, Nº 915","city":"Brito","cp":"4805-030","fuels":{"Gazole":{"p":1.869,"d":"2026-07-14"},"SP95":{"p":1.919,"d":"2026-07-14"}},"brand":"Freitas"},{"id":200068786,"lat":41.475805,"lng":-8.268977,"addr":"Rua Cidade de Guimarães, nº 2088","city":"S. Torcato","cp":"4800-858","fuels":{"Gazole":{"p":1.869,"d":"2026-07-14"},"SP95":{"p":1.919,"d":"2026-07-14"}},"brand":"Freitas"},{"id":200094136,"lat":41.599396,"lng":-8.785084,"addr":"Avenida de Belinho, nº64 - E.N. 13 - KM 52","city":"Belinho","cp":"4740-161","fuels":{"Gazole":{"p":1.871,"d":"2026-07-13"},"SP95":{"p":1.908,"d":"2026-07-13"},"SP98":{"p":1.986,"d":"2026-07-13"},"GPLc":{"p":0.873,"d":"2026-07-13"}}},{"id":200069392,"lat":41.68995,"lng":-8.504931,"addr":"Lugar do Borral","city":"Rio Mau","cp":"4730-423","fuels":{"Gazole":{"p":1.879,"d":"2026-07-13"},"SP95":{"p":1.929,"d":"2026-07-13"}},"brand":"Freitas"},{"id":200093120,"lat":41.43536,"lng":-8.53979,"addr":"Rua Padre Domingos J.Pereira, 1150","city":"Louro","cp":"4760-563","fuels":{"Gazole":{"p":1.881,"d":"2026-07-13"},"SP95":{"p":1.918,"d":"2026-07-13"}},"brand":"Cepsa"},{"id":200066290,"lat":41.54841,"lng":-8.43383,"addr":"Rua do Caires","city":"Maximinos","cp":"4700-228","fuels":{"Gazole":{"p":1.881,"d":"2026-07-13"},"SP95":{"p":1.918,"d":"2026-07-13"}},"brand":"Cepsa"},{"id":200066124,"lat":41.50221,"lng":-8.5341,"addr":"Avenida de Sequeade, 39","city":"SEQUEADE","cp":"4755-516","fuels":{"Gazole":{"p":1.881,"d":"2026-07-13"},"SP95":{"p":1.918,"d":"2026-07-13"}},"brand":"Cepsa"},{"id":200093282,"lat":41.36136,"lng":-8.054557,"addr":"Rua de Sta Maria nº 3419 - Lugar de Sequeiros","city":"Moreira do Castelo","cp":"4890-455","fuels":{"Gazole":{"p":1.882,"d":"2026-07-13"},"SP95":{"p":1.879,"d":"2026-07-13"},"SP98":{"p":1.934,"d":"2026-07-13"}}},{"id":200079651,"lat":41.59613,"lng":-8.48149,"addr":"E. N. 205, Rua 1 km 38,300","city":"Cabanelas - Vila Verde","cp":"4730-097","fuels":{"Gazole":{"p":1.883,"d":"2026-07-13"},"SP95":{"p":1.927,"d":"2026-07-13"},"SP98":{"p":2.082,"d":"2026-07-13"}},"brand":"Freitas"},{"id":200065166,"lat":41.457577,"lng":-8.566654,"addr":"RUA DE SÃO PEDRO N 201","city":"Monte de Fralães","cp":"4775-177","fuels":{"Gazole":{"p":1.889,"d":"2026-07-06"},"SP95":{"p":1.972,"d":"2026-07-06"}},"brand":"Galp"},{"id":200066254,"lat":41.44105,"lng":-8.40458,"addr":"EN 206","city":"Joane - Lugar de Labruge","cp":"4770-254","fuels":{"Gazole":{"p":1.889,"d":"2026-07-13"},"SP95":{"p":1.929,"d":"2026-07-13"}},"brand":"Cepsa"},{"id":200069126,"lat":41.432363,"lng":-8.421791,"addr":"Av Dr. Mario Soares, 2234","city":"Joane","cp":"4770-260","fuels":{"Gazole":{"p":1.889,"d":"2026-07-13"},"SP95":{"p":1.929,"d":"2026-07-13"}},"brand":"Cepsa"},{"id":200073870,"lat":41.533585,"lng":-8.511274,"addr":"Avenida de Martim, 1166","city":"Martim","cp":"4755-313","fuels":{"Gazole":{"p":1.889,"d":"2026-07-13"},"SP95":{"p":1.939,"d":"2026-07-13"}},"brand":"Freitas"},{"id":200076298,"lat":41.561295,"lng":-8.392031,"addr":"Rua da Estrada Nova, nº 43","city":"Braga","cp":"4715-418","fuels":{"Gazole":{"p":1.889,"d":"2026-07-13"},"SP95":{"p":1.929,"d":"2026-07-13"}},"brand":"Freitas"},{"id":200094191,"lat":41.39386,"lng":-8.374963,"addr":"Rua 25 de Abril","city":"Guardizela","cp":"4765-487","fuels":{"Gazole":{"p":1.889,"d":"2026-07-14"},"SP95":{"p":1.939,"d":"2026-07-14"}},"brand":"Freitas"},{"id":200093152,"lat":41.49459,"lng":-8.74393,"addr":"Rua da Cruz nº 1","city":"Fonte Boa","cp":"4740-418","fuels":{"Gazole":{"p":1.889,"d":"2026-07-14"},"SP95":{"p":1.929,"d":"2026-07-14"}},"brand":"BP"},{"id":200066096,"lat":41.504212,"lng":-8.762344,"addr":"EN 13 Km 40,5 (Av. S. Cristóvão)","city":"Fão","cp":"4740-321","fuels":{"Gazole":{"p":1.889,"d":"2026-07-14"},"SP95":{"p":1.929,"d":"2026-07-14"},"GPLc":{"p":0.999,"d":"2026-07-14"}},"brand":"BP"},{"id":200093161,"lat":41.41369,"lng":-8.464051,"addr":"AV. São Silvestre de Requião, Nº2561 – Famalicão","city":"Requião","cp":"4770-460","fuels":{"Gazole":{"p":1.891,"d":"2026-07-13"},"SP95":{"p":1.928,"d":"2026-07-13"}},"brand":"Cepsa"},{"id":200067884,"lat":41.48778,"lng":-8.429883,"addr":"Avenida do Redondelo, 51 (EN 309 - km 29,970 D)","city":"São Vicente de Penso","cp":"4705-628","fuels":{"Gazole":{"p":1.893,"d":"2026-07-13"},"SP95":{"p":1.937,"d":"2026-07-13"},"GPLc":{"p":0.934,"d":"2026-07-13"}},"brand":"Freitas"},{"id":200069007,"lat":41.533787,"lng":-8.722155,"addr":"Av. do Banho- EN 103-1 Km 9.175","city":"Vila Cova","cp":"4750-792","fuels":{"Gazole":{"p":1.899,"d":"2026-07-14"},"SP95":{"p":1.939,"d":"2026-07-14"}},"brand":"Freitas"},{"id":200069320,"lat":41.534122,"lng":-8.721993,"addr":"Av. do Banho (EN 103-1  km 9,175","city":"Vila Cova","cp":"4750-792","fuels":{"Gazole":{"p":1.899,"d":"2026-07-14"},"SP95":{"p":1.939,"d":"2026-07-14"}},"brand":"Freitas"},{"id":200078885,"lat":41.392723,"lng":-8.511417,"addr":"Rua José Freitas Dias, 2093","city":"Vila Nova de Famalicão","cp":"4760-022","fuels":{"Gazole":{"p":1.899,"d":"2026-07-14"},"SP95":{"p":1.949,"d":"2026-07-14"}},"brand":"Freitas"},{"id":200069323,"lat":41.37457,"lng":-8.60016,"addr":"Rua D. Sancho I, 2436","city":"Fradelos","cp":"4760-485","fuels":{"Gazole":{"p":1.899,"d":"2026-07-14"},"SP95":{"p":1.939,"d":"2026-07-14"}},"brand":"Freitas"},{"id":200066291,"lat":41.53414,"lng":-8.46101,"addr":"Av. de Sequeira, Nº 20 (EN 103)","city":"Sequeira","cp":"4705-629","fuels":{"Gazole":{"p":1.901,"d":"2026-07-13"},"SP95":{"p":1.926,"d":"2026-07-13"}},"brand":"Cepsa"},{"id":200066314,"lat":41.446447,"lng":-8.163153,"addr":"EN 206 (Via Circular)","city":"Cavadas - Quinchães","cp":"4820-587","fuels":{"Gazole":{"p":1.901,"d":"2026-07-13"},"SP95":{"p":1.938,"d":"2026-07-13"}},"brand":"Cepsa"},{"id":200070239,"lat":41.375607,"lng":-8.308034,"addr":"Rua Ferreira Caldas, nº 146","city":"S. João das Caldas","cp":"4815-431","fuels":{"Gazole":{"p":1.903,"d":"2026-07-13"},"SP95":{"p":1.947,"d":"2026-07-13"}}},{"id":200067053,"lat":41.475166,"lng":-8.632308,"addr":"EM 306","city":"Lugar da Portela - Góios","cp":"4755-247","fuels":{"Gazole":{"p":1.903,"d":"2026-07-13"},"SP95":{"p":1.947,"d":"2026-07-13"},"SP98":{"p":2.107,"d":"2026-07-13"},"GPLc":{"p":0.888,"d":"2026-07-13"}},"brand":"Esso"},{"id":200088761,"lat":41.43241,"lng":-8.61615,"addr":"R. Santa Eulália, 1579","city":"Negreiros e Chavão","cp":"4775-193","fuels":{"Gazole":{"p":1.903,"d":"2026-07-13"},"SP95":{"p":1.947,"d":"2026-07-13"},"SP98":{"p":2.107,"d":"2026-07-13"},"GPLc":{"p":0.888,"d":"2026-07-13"}},"brand":"Esso"},{"id":200065786,"lat":41.48699,"lng":-8.35223,"addr":"Av. 25 de Abril, nº 5","city":"Caldas das Taipas - Caldelas","cp":"4805-083","fuels":{"Gazole":{"p":1.909,"d":"2026-07-13"},"SP95":{"p":1.946,"d":"2026-07-13"}},"brand":"Galp"},{"id":200066476,"lat":41.43987,"lng":-8.32216,"addr":"EN 206 - R JOAQUIM RIBEIRO MOURA","city":"Guimarães","cp":"4835-015","fuels":{"Gazole":{"p":1.909,"d":"2026-07-13"},"SP95":{"p":1.949,"d":"2026-07-13"},"GPLc":{"p":0.944,"d":"2026-07-13"}},"brand":"Repsol"},{"id":200066480,"lat":41.470614,"lng":-8.330047,"addr":"EN 101 Km 106,9","city":"Lg Tojais-S João Ponte","cp":"4800-000","fuels":{"Gazole":{"p":1.909,"d":"2026-07-13"},"SP95":{"p":1.949,"d":"2026-07-13"}},"brand":"Repsol"},{"id":200070308,"lat":41.63623,"lng":-8.5289,"addr":"Lugar da Igreja","city":"Escariz S. Mamede","cp":"4730-500","fuels":{"Gazole":{"p":1.909,"d":"2026-07-13"},"SP95":{"p":1.949,"d":"2026-07-13"}},"brand":"Repsol"},{"id":200065323,"lat":41.46474,"lng":-8.33163,"addr":"Parque Industrial de Guimarães","city":"São João de Ponte","cp":"4805-258","fuels":{"Gazole":{"p":1.909,"d":"2026-07-13"},"SP95":{"p":1.946,"d":"2026-07-13"}},"brand":"Galp"},{"id":200093238,"lat":41.439056,"lng":-8.307962,"addr":"Rua de São Miguel, Localidade de São Miguel de Baixo","city":"Guimarães","cp":"4835-106","fuels":{"Gazole":{"p":1.909,"d":"2026-07-13"},"SP95":{"p":1.954,"d":"2026-07-13"}},"brand":"Shell"},{"id":200066492,"lat":41.494,"lng":-8.36231,"addr":"Lugar Porta da Igrejas. Martinho de Sande","city":"Caldas das Taípas","cp":"4800-826","fuels":{"Gazole":{"p":1.909,"d":"2026-07-13"},"SP95":{"p":1.949,"d":"2026-07-13"},"GPLc":{"p":0.944,"d":"2026-07-13"}},"brand":"Repsol"},{"id":200093765,"lat":41.531788,"lng":-8.773096,"addr":"Avenida Comendador Francisco Alves Quintas, 1478","city":"Esposende","cp":"4740-289","fuels":{"Gazole":{"p":1.909,"d":"2026-07-13"},"SP95":{"p":1.929,"d":"2026-07-13"}}},{"id":200066400,"lat":41.36581,"lng":-8.5459,"addr":"Parque Comercial Lago Discount,\r\nLugar do Xisto,\r\nRibeirão","city":"Ribeirão","cp":"4760-727","fuels":{"Gazole":{"p":1.909,"d":"2026-07-13"},"SP95":{"p":1.946,"d":"2026-07-13"}},"brand":"Galp"},{"id":200065022,"lat":41.540028,"lng":-8.403577,"addr":"Av. Robert Smith","city":"Braga","cp":"4710-249","fuels":{"Gazole":{"p":1.909,"d":"2026-07-13"},"SP95":{"p":1.946,"d":"2026-07-13"}},"brand":"Galp"},{"id":200095234,"lat":41.41484,"lng":-8.31094,"addr":"E.N. 105,  km 42 +230 LE - Lugar da Valinha","city":"Guimarães","cp":"4835-164","fuels":{"Gazole":{"p":1.909,"d":"2026-07-13"},"SP95":{"p":1.949,"d":"2026-07-13"}},"brand":"Repsol"},{"id":200095235,"lat":41.41484,"lng":-8.31154,"addr":"E.N. 105,  km 42 +200 LD - Sentido Norte/Sul  - Lugar das Pocinhas","city":"Guimarães","cp":"4835-164","fuels":{"Gazole":{"p":1.909,"d":"2026-07-13"},"SP95":{"p":1.949,"d":"2026-07-13"}},"brand":"Repsol"},{"id":200076141,"lat":41.57648,"lng":-8.24357,"addr":"Rua do Cais nº 21Fontarcada","city":"Lugar do Cruzeiro-Fontarcada","cp":"4830-345","fuels":{"Gazole":{"p":1.909,"d":"2026-07-13"},"SP95":{"p":1.949,"d":"2026-07-13"},"SP98":{"p":2.019,"d":"2026-07-13"}},"brand":"Creixoauto"},{"id":200094763,"lat":41.38188,"lng":-8.53853,"addr":"Av D Afonso Henriques EN 14 km 24500 LE","city":"Vila Nova de Famalicão","cp":"4760-281","fuels":{"Gazole":{"p":1.909,"d":"2026-07-13"},"SP95":{"p":1.949,"d":"2026-07-13"},"GPLc":{"p":0.974,"d":"2026-07-13"}},"brand":"Repsol"},{"id":200076162,"lat":41.489304,"lng":-8.471395,"addr":"Av. Padre Manuel Joaquim Rebelo (EN 14)","city":"Priscos","cp":"4705-578","fuels":{"Gazole":{"p":1.909,"d":"2026-07-13"},"SP95":{"p":1.949,"d":"2026-07-13"}},"brand":"Freitas"},{"id":200066404,"lat":41.4512,"lng":-8.300733,"addr":"Circular Urbana Guimarães\r\nEN 105","city":"Guimarães","cp":"4810-910","fuels":{"Gazole":{"p":1.909,"d":"2026-07-14"},"SP95":{"p":1.946,"d":"2026-07-14"},"GPLc":{"p":1.099,"d":"2026-04-12"}},"brand":"Galp"},{"id":200066405,"lat":41.451572,"lng":-8.301094,"addr":"Circular Urbana de Guimarães\r\nEN 105","city":"Guimarães","cp":"4810-910","fuels":{"Gazole":{"p":1.909,"d":"2026-07-14"},"SP95":{"p":1.946,"d":"2026-07-14"},"GPLc":{"p":1.099,"d":"2026-04-12"}},"brand":"Galp"},{"id":200065325,"lat":41.49261,"lng":-8.36105,"addr":"Rodinho Sande","city":"São Martinho de Sande(Taipas)","cp":"4800-000","fuels":{"Gazole":{"p":1.909,"d":"2026-07-14"},"SP95":{"p":1.946,"d":"2026-07-14"}},"brand":"Galp"},{"id":200065326,"lat":41.432733,"lng":-8.30196,"addr":"EN 105 Km 44,183 - N/S","city":"Covas-Rodovia","cp":"4800-000","fuels":{"Gazole":{"p":1.909,"d":"2026-07-14"},"SP95":{"p":1.946,"d":"2026-07-14"}},"brand":"Galp"},{"id":200065327,"lat":41.4327,"lng":-8.30162,"addr":"EN 105, Km 44,183 - Covas","city":"Covas-Rodovia","cp":"4800-000","fuels":{"Gazole":{"p":1.909,"d":"2026-07-14"},"SP95":{"p":1.946,"d":"2026-07-14"}},"brand":"Galp"},{"id":200065321,"lat":41.45393,"lng":-8.26981,"addr":"Rua Cruz d'Argola, nº 288","city":"Guimarães","cp":"4810-255","fuels":{"Gazole":{"p":1.909,"d":"2026-07-14"},"SP95":{"p":1.946,"d":"2026-07-14"}},"brand":"Galp"},{"id":200065322,"lat":41.40181,"lng":-8.32289,"addr":"EN 105 Km 40,1","city":"Pedrinhas-Nespereira","cp":"4810-761","fuels":{"Gazole":{"p":1.909,"d":"2026-07-14"},"SP95":{"p":1.946,"d":"2026-07-14"}},"brand":"Galp"},{"id":200065794,"lat":41.44443,"lng":-8.29937,"addr":"Rua São Gonçalo - EN 105, Via Circular (Junto Estádio Guimarães)","city":"Guimarães","cp":"4800-000","fuels":{"Gazole":{"p":1.909,"d":"2026-07-14"},"SP95":{"p":1.946,"d":"2026-07-14"}},"brand":"Galp"},{"id":200065779,"lat":41.37988,"lng":-8.31382,"addr":"Rua das Teixogueiras","city":"Caldas de Vizela","cp":"4815-000","fuels":{"Gazole":{"p":1.909,"d":"2026-07-14"},"SP95":{"p":1.946,"d":"2026-07-14"}},"brand":"Galp"},{"id":200075212,"lat":41.423401,"lng":-8.353163,"addr":"Rua Albano Martins Coelho Lima","city":"Pevidem","cp":"4810-000","fuels":{"Gazole":{"p":1.909,"d":"2026-07-14"},"SP95":{"p":1.946,"d":"2026-07-14"}},"brand":"Galp"},{"id":200066491,"lat":41.469369,"lng":-8.327869,"addr":"EN 101 Km 107,310","city":"S. João da Ponte - Tojais","cp":"4800-000","fuels":{"Gazole":{"p":1.909,"d":"2026-07-14"},"SP95":{"p":1.949,"d":"2026-07-14"}},"brand":"Repsol"},{"id":200066488,"lat":41.54357,"lng":-8.42002,"addr":"Rua Conselheiro Lobato","city":"Braga","cp":"4705-089","fuels":{"Gazole":{"p":1.919,"d":"2026-07-13"},"SP95":{"p":1.959,"d":"2026-07-13"}},"brand":"Repsol"},{"id":200066487,"lat":41.416639,"lng":-8.570217,"addr":"EN 206 Km 17,7","city":"Cavalões- Fornelo","cp":"4760-000","fuels":{"Gazole":{"p":1.919,"d":"2026-07-13"},"SP95":{"p":1.959,"d":"2026-07-13"}},"brand":"Repsol"},{"id":200072081,"lat":41.41969,"lng":-8.60469,"addr":"Av. de São Felix, 1853","city":"Gondifelos","cp":"4760-503","fuels":{"Gazole":{"p":1.919,"d":"2026-07-13"},"SP95":{"p":1.959,"d":"2026-07-13"}},"brand":"Repsol"},{"id":200068060,"lat":41.57717,"lng":-8.42554,"addr":"Av. do Cávado nº114","city":"Palmeira","cp":"4700-690","fuels":{"Gazole":{"p":1.919,"d":"2026-07-13"},"SP95":{"p":1.951,"d":"2026-07-13"}},"brand":"Galp"},{"id":200094339,"lat":41.512196,"lng":-8.451928,"addr":"Av. Covedelo N01","city":"Celeirós","cp":"4705-401","fuels":{"Gazole":{"p":1.919,"d":"2026-07-13"},"SP95":{"p":1.951,"d":"2026-07-13"}},"brand":"Galp"},{"id":200094617,"lat":41.56599,"lng":-8.421331,"addr":"EN 101 - Km 88,530 - Lugar de Cabanas - Dume","city":"Braga","cp":"4700-048","fuels":{"Gazole":{"p":1.919,"d":"2026-07-13"},"SP95":{"p":1.951,"d":"2026-07-13"}},"brand":"Galp"},{"id":200066490,"lat":41.56547,"lng":-8.45018,"addr":"EN 201 Km 62,8","city":"Lugar de Carreiro","cp":"4700-000","fuels":{"Gazole":{"p":1.919,"d":"2026-07-13"},"SP95":{"p":1.959,"d":"2026-07-13"},"GPLc":{"p":0.944,"d":"2026-07-13"}},"brand":"Repsol"},{"id":200065575,"lat":41.580902,"lng":-8.276455,"addr":"Avenida da Republica","city":"Póvoa de Lanhoso","cp":"4830-000","fuels":{"Gazole":{"p":1.919,"d":"2026-07-13"},"SP95":{"p":1.959,"d":"2026-07-13"}},"brand":"BP"},{"id":200069529,"lat":41.566048,"lng":-8.267545,"addr":"Lugar de Mirão","city":"Póvoa de Lanhoso-Galegos","cp":"4830-000","fuels":{"Gazole":{"p":1.919,"d":"2026-07-13"},"SP95":{"p":1.959,"d":"2026-07-13"}},"brand":"BP"},{"id":200069579,"lat":41.588764,"lng":-8.297942,"addr":"Lugar do Pinheiro","city":"Póvoa de Lanhoso","cp":"4830-000","fuels":{"Gazole":{"p":1.919,"d":"2026-07-13"},"SP95":{"p":1.959,"d":"2026-07-13"}},"brand":"BP"},{"id":200093362,"lat":41.531124,"lng":-8.419017,"addr":"Avenida Barros e Soares - EN 101, Km 93,225","city":"Braga","cp":"4715-214","fuels":{"Gazole":{"p":1.919,"d":"2026-07-13"},"SP95":{"p":1.959,"d":"2026-07-13"}},"brand":"BP"},{"id":200093363,"lat":41.53102,"lng":-8.418591,"addr":"Rua Barros e Soares","city":"Braga","cp":"4715-000","fuels":{"Gazole":{"p":1.919,"d":"2026-07-13"},"SP95":{"p":1.959,"d":"2026-07-13"}},"brand":"Repsol"},{"id":200065576,"lat":41.580809,"lng":-8.27709,"addr":"Av. República","city":"Póvoa de Lanhoso","cp":"4830-000","fuels":{"Gazole":{"p":1.919,"d":"2026-07-13"},"SP95":{"p":1.959,"d":"2026-07-13"}},"brand":"Repsol"},{"id":200069538,"lat":41.58835,"lng":-8.297851,"addr":"Lugar do Pinheiro","city":"Póvoa de Lanhoso","cp":"4830-000","fuels":{"Gazole":{"p":1.919,"d":"2026-07-13"},"SP95":{"p":1.959,"d":"2026-07-13"}},"brand":"Repsol"},{"id":200095233,"lat":41.53681,"lng":-8.43579,"addr":"Rua Cidade do Porto","city":"Braga","cp":"4705-084","fuels":{"Gazole":{"p":1.919,"d":"2026-07-13"},"SP95":{"p":1.959,"d":"2026-07-13"}},"brand":"Repsol"},{"id":200094472,"lat":41.644604,"lng":-8.436118,"addr":"Av. António Sérgio, S/N","city":"Vila Verde","cp":"4730-709","fuels":{"Gazole":{"p":1.919,"d":"2026-07-13"},"SP95":{"p":1.949,"d":"2026-07-13"},"SP98":{"p":2.149,"d":"2026-07-13"},"GPLc":{"p":0.974,"d":"2026-07-13"}},"brand":"Repsol"},{"id":200092155,"lat":41.63654,"lng":-8.478652,"addr":"EN 201, Km54,34, lugar de Aguela","city":"Moure","cp":"4730-300","fuels":{"Gazole":{"p":1.919,"d":"2026-07-13"},"SP95":{"p":1.959,"d":"2026-07-13"}},"brand":"Shell"},{"id":200070270,"lat":41.61155,"lng":-8.246686,"addr":"Avenida das Cruzes, n.º 1535 (EN 103 Km 61.500) - União das Freguesias de Frades e Calvos","city":"Frades","cp":"4830-213","fuels":{"Gazole":{"p":1.919,"d":"2026-07-13"},"SP95":{"p":1.959,"d":"2026-07-13"}},"brand":"Shell"},{"id":200071275,"lat":41.65997,"lng":-8.274253,"addr":"Rua Santa Maria, 130","city":"Bouro de Santa Maria","cp":"4720-633","fuels":{"Gazole":{"p":1.919,"d":"2026-07-13"},"SP95":{"p":1.959,"d":"2026-07-13"}},"brand":"Shell"},{"id":200074840,"lat":41.505315,"lng":-8.456421,"addr":"Av. De Trezeste - Celeirós","city":"Celeirós","cp":"4709-001","fuels":{"Gazole":{"p":1.919,"d":"2026-07-13"}},"brand":"Alves Bandeira"},{"id":200070929,"lat":41.442947,"lng":-8.378942,"addr":"EN 206","city":"Ronfe-Lugar de Romões","cp":"4805-000","fuels":{"Gazole":{"p":1.919,"d":"2026-07-14"},"SP95":{"p":1.951,"d":"2026-07-14"}},"brand":"Galp"},{"id":200065771,"lat":41.59809,"lng":-8.46518,"addr":"EN 201, Km 58,93 - Largo do Bom Sucesso","city":"Prado Santa Maria","cp":"4730-453","fuels":{"Gazole":{"p":1.919,"d":"2026-07-14"},"SP95":{"p":1.951,"d":"2026-07-14"}},"brand":"Galp"},{"id":200065121,"lat":41.62729,"lng":-8.36911,"addr":"EN 205, Km 50 - Feira Nova","city":"Ferreiros","cp":"4720-000","fuels":{"Gazole":{"p":1.919,"d":"2026-07-14"},"SP95":{"p":1.956,"d":"2026-07-14"}},"brand":"Galp"},{"id":200065165,"lat":41.41954,"lng":-8.63251,"addr":"Rua da Estrada Nacional 206, 1543 (Km 12,020)","city":"Terra Negra-Negreiros","cp":"4775-206","fuels":{"Gazole":{"p":1.919,"d":"2026-07-14"},"SP95":{"p":1.951,"d":"2026-07-14"}},"brand":"Galp"},{"id":200065182,"lat":41.542685,"lng":-8.435685,"addr":"Largo de Madre Deus - EN 103, Km 39,95","city":"Maximinos","cp":"4700-228","fuels":{"Gazole":{"p":1.919,"d":"2026-07-14"},"SP95":{"p":1.951,"d":"2026-07-14"}},"brand":"Galp"},{"id":200065183,"lat":41.58406,"lng":-8.45472,"addr":"EN 201 - Km 60,720 - Lugar da Estrada","city":"São Pedro de Merelim","cp":"4700-000","fuels":{"Gazole":{"p":1.919,"d":"2026-07-14"},"SP95":{"p":1.951,"d":"2026-07-14"}},"brand":"Galp"},{"id":200065184,"lat":41.551822,"lng":-8.40931,"addr":"EN 14 - Av. João Paulo II","city":"Braga","cp":"4715-034","fuels":{"Gazole":{"p":1.919,"d":"2026-07-14"},"SP95":{"p":1.951,"d":"2026-07-14"},"GPLc":{"p":0.934,"d":"2026-07-13"}},"brand":"Galp"},{"id":200086388,"lat":41.37316,"lng":-8.08961,"addr":"Mondrões","city":"Borba da Montanha","cp":"4890-108","fuels":{"Gazole":{"p":1.919,"d":"2026-07-14"},"SP95":{"p":1.964,"d":"2026-07-14"}},"brand":"Petrin"},{"id":200068820,"lat":41.56111,"lng":-8.22226,"addr":"Rua de Porto d'Ave","city":"Taíde - Cidade N'Aldeia","cp":"4830-755","fuels":{"Gazole":{"p":1.92,"d":"2026-07-13"},"SP95":{"p":1.98,"d":"2026-07-13"},"SP98":{"p":2.05,"d":"2026-07-13"}},"brand":"Cidade N'Aldeia"},{"id":200069660,"lat":41.49412,"lng":-7.98348,"addr":"Parque Industrial de Lameiros","city":"Basto","cp":"4860-106","fuels":{"Gazole":{"p":1.923,"d":"2026-07-13"},"SP95":{"p":1.977,"d":"2026-07-13"},"SP98":{"p":2.137,"d":"2026-07-13"}},"brand":"Freitas"},{"id":200084864,"lat":41.49706,"lng":-7.92151,"addr":"Rua do Ribeiro do Arco","city":"Cavez","cp":"4860-176","fuels":{"Gazole":{"p":1.923,"d":"2026-07-13"},"SP95":{"p":1.997,"d":"2026-07-13"}},"brand":"Freitas"},{"id":200079557,"lat":41.34998,"lng":-8.58199,"addr":"Av. Indústria, 539","city":"Ribeirão - Lugar de Sam","cp":"4760-725","fuels":{"Gazole":{"p":1.924,"d":"2026-07-13"},"SP95":{"p":1.971,"d":"2026-07-13"}},"brand":"Alves Bandeira"},{"id":200072557,"lat":41.41959,"lng":-8.39843,"addr":"Margem Nascente da VIM","city":"Pedome","cp":"4765-167","fuels":{"Gazole":{"p":1.929,"d":"2026-07-13"},"SP95":{"p":1.969,"d":"2026-07-13"}},"brand":"Repsol"},{"id":200093234,"lat":41.54086,"lng":-8.43282,"addr":"EN 14","city":"Maximinos - Ferreiros","cp":"4700-592","fuels":{"Gazole":{"p":1.929,"d":"2026-07-13"},"SP95":{"p":1.959,"d":"2026-07-13"}},"brand":"Shell"},{"id":200093232,"lat":41.54071,"lng":-8.432424,"addr":"EN 14 - Maximinos","city":"Braga","cp":"4700-086","fuels":{"Gazole":{"p":1.929,"d":"2026-07-13"},"SP95":{"p":1.959,"d":"2026-07-13"}},"brand":"Shell"},{"id":200094927,"lat":41.53778,"lng":-8.61426,"addr":"Av. João Duarte - Arcozelo","city":"Barcelos","cp":"4750-175","fuels":{"Gazole":{"p":1.929,"d":"2026-07-13"},"SP95":{"p":1.969,"d":"2026-07-13"}},"brand":"Repsol"},{"id":200095237,"lat":41.55139,"lng":-8.405714,"addr":"Av. Frei Bartolomeu dos Mártires (Circular)","city":"Braga","cp":"4715-213","fuels":{"Gazole":{"p":1.929,"d":"2026-07-13"},"SP95":{"p":1.969,"d":"2026-07-13"}},"brand":"Repsol"},{"id":200095236,"lat":41.55135,"lng":-8.405958,"addr":"Av. Frei Bartolomeu dos Mártires (Circular)","city":"Braga","cp":"4715-213","fuels":{"Gazole":{"p":1.929,"d":"2026-07-13"},"SP95":{"p":1.969,"d":"2026-07-13"},"GPLc":{"p":0.944,"d":"2026-07-13"}},"brand":"Repsol"},{"id":200067040,"lat":41.56801,"lng":-8.381619,"addr":"Lugar da Recta - Gualtar","city":"Braga","cp":"4710-083","fuels":{"Gazole":{"p":1.929,"d":"2026-07-13"},"SP95":{"p":1.959,"d":"2026-07-13"}},"brand":"Shell"},{"id":200073223,"lat":41.470827,"lng":-8.723468,"addr":"EN 205, Lugar das Cruzinhas","city":"Barqueiros","cp":"4740-684","fuels":{"Gazole":{"p":1.929,"d":"2026-07-13"},"SP95":{"p":1.976,"d":"2026-07-13"},"SP98":{"p":2.126,"d":"2026-07-13"}},"brand":"Alves Bandeira"},{"id":200079586,"lat":41.379173,"lng":-8.451441,"addr":"Rua da Est Nacional 204/5, Nº 2035","city":"Landim","cp":"4770-309","fuels":{"Gazole":{"p":1.929,"d":"2026-07-13"},"SP95":{"p":1.976,"d":"2026-07-13"},"SP98":{"p":2.126,"d":"2026-07-13"},"GPLc":{"p":0.884,"d":"2026-07-13"}},"brand":"Alves Bandeira"},{"id":200069840,"lat":41.54473,"lng":-8.59047,"addr":"Av. Joaquim Augusto Falcão 214 (EN 205 Km 26,1)","city":"S. Veríssimo","cp":"4750-748","fuels":{"Gazole":{"p":1.929,"d":"2026-07-13"},"SP95":{"p":1.976,"d":"2026-07-13"},"SP98":{"p":2.126,"d":"2026-07-13"}},"brand":"Alves Bandeira"},{"id":200078113,"lat":41.54851,"lng":-8.277106,"addr":"EN 310 - Av. de Beche, 516","city":"Vilela","cp":"4830-811","fuels":{"Gazole":{"p":1.929,"d":"2026-07-13"},"SP95":{"p":1.976,"d":"2026-07-13"},"SP98":{"p":2.126,"d":"2026-07-13"}},"brand":"Alves Bandeira"},{"id":200067095,"lat":41.39481,"lng":-8.3902,"addr":"Av. Cidade Abreu e Lima, 2","city":"Riba de Ave","cp":"4765-181","fuels":{"Gazole":{"p":1.929,"d":"2026-07-13"},"SP95":{"p":1.976,"d":"2026-07-13"},"SP98":{"p":2.126,"d":"2026-07-13"}},"brand":"Alves Bandeira"},{"id":200094929,"lat":41.420563,"lng":-8.516664,"addr":"Av. Engº. Pinheiro Braga, 1392","city":"Vila Nova de Famalicão","cp":"4760-089","fuels":{"Gazole":{"p":1.929,"d":"2026-07-14"},"SP95":{"p":1.969,"d":"2026-07-14"}},"brand":"Repsol"},{"id":200066972,"lat":41.582527,"lng":-8.405141,"addr":"Travessa do Comércio n.º 10","city":"Adaúfe","cp":"4710-820","fuels":{"Gazole":{"p":1.939,"d":"2026-07-06"},"SP95":{"p":2.019,"d":"2026-07-06"}},"brand":"BP"},{"id":200092494,"lat":41.442571,"lng":-8.333676,"addr":"R. 25 Abril - Lugar de Carvalhais","city":"Silvares","cp":"4835-400","fuels":{"Gazole":{"p":1.939,"d":"2026-07-13"},"SP95":{"p":1.979,"d":"2026-07-13"}},"brand":"BP"},{"id":200065848,"lat":41.53333,"lng":-8.50978,"addr":"EN 103 Km 32,6","city":"Avenida de Martim, n.º 971 - Martim","cp":"4755-313","fuels":{"Gazole":{"p":1.939,"d":"2026-07-13"},"SP95":{"p":1.979,"d":"2026-07-13"}},"brand":"BP"},{"id":200068944,"lat":41.45297,"lng":-8.276314,"addr":"Rua Nª Srª da Penha nº 780","city":"Guimarães","cp":"4810-233","fuels":{"Gazole":{"p":1.939,"d":"2026-07-13"},"SP95":{"p":1.979,"d":"2026-07-13"}},"brand":"BP"},{"id":200093766,"lat":41.588642,"lng":-8.793569,"addr":"Rua da Cooperativa","city":"Sanfins","cp":"4740-165","fuels":{"Gazole":{"p":1.939,"d":"2026-07-13"}}},{"id":200065909,"lat":41.410855,"lng":-8.513199,"addr":"Av. do Brasil","city":"Vila Nova de Famalicão","cp":"4760-010","fuels":{"Gazole":{"p":1.939,"d":"2026-07-13"},"SP95":{"p":1.979,"d":"2026-07-13"}},"brand":"BP"},{"id":200065908,"lat":41.39942,"lng":-8.517175,"addr":"Av. dos Descobrimentos antas","city":"Vila Nova de Famalicão","cp":"4760-011","fuels":{"Gazole":{"p":1.939,"d":"2026-07-13"},"SP95":{"p":1.979,"d":"2026-07-13"}},"brand":"BP"},{"id":200065740,"lat":41.40162,"lng":-8.519618,"addr":"RUA D.SANCHO 1 1316","city":"Vila Nova de Famalicão","cp":"4760-325","fuels":{"Gazole":{"p":1.939,"d":"2026-07-13"},"SP95":{"p":1.979,"d":"2026-07-13"}},"brand":"BP"},{"id":200069614,"lat":41.42508,"lng":-8.35169,"addr":"Rua João Pereira Fernandes","city":"Selho S. Jorge - Pevidem","cp":"4835-324","fuels":{"Gazole":{"p":1.939,"d":"2026-07-13"},"SP95":{"p":1.979,"d":"2026-07-13"}},"brand":"BP"},{"id":200065910,"lat":41.40034,"lng":-8.53341,"addr":"Rua Dr. Alberto Sampaio nº 1150","city":"Calendário","cp":"4760-292","fuels":{"Gazole":{"p":1.939,"d":"2026-07-13"},"SP95":{"p":1.979,"d":"2026-07-13"}},"brand":"BP"},{"id":200091983,"lat":41.451916,"lng":-8.185973,"addr":"Via Circular, Santo Ovídio","city":"Fafe","cp":"4820-384","fuels":{"Gazole":{"p":1.939,"d":"2026-07-14"},"SP95":{"p":1.978,"d":"2026-07-14"},"SP98":{"p":2.085,"d":"2026-07-14"}},"brand":"Petro Basto"},{"id":200093177,"lat":41.50852,"lng":-7.994753,"addr":"Rua Monsenhor Dr. António Tanque - PINHEIRO","city":"Refojos de Basto","cp":"4860-401","fuels":{"Gazole":{"p":1.939,"d":"2026-07-14"},"SP95":{"p":1.978,"d":"2026-07-14"},"SP98":{"p":2.085,"d":"2026-07-14"},"GPLc":{"p":1.039,"d":"2026-07-14"}},"brand":"Petro Basto"},{"id":200065163,"lat":41.50344,"lng":-8.66915,"addr":"Rª Dª Elvira Gomes Barroso, Nº 274\nEN 205, Km 17,7","city":"Gilmonde","cp":"4755-233","fuels":{"Gazole":{"p":1.949,"d":"2026-07-12"},"SP95":{"p":1.986,"d":"2026-07-12"}},"brand":"Galp"},{"id":200065167,"lat":41.53148,"lng":-8.61575,"addr":"Av. de Sidónio Pais nº35","city":"Barcelos","cp":"4750-000","fuels":{"Gazole":{"p":1.949,"d":"2026-07-13"},"SP95":{"p":1.986,"d":"2026-07-13"}},"brand":"Galp"},{"id":200067675,"lat":41.38311,"lng":-8.41266,"addr":"Av. da Portela , 29","city":"Delães","cp":"4765-650","fuels":{"Gazole":{"p":1.949,"d":"2026-07-13"},"SP95":{"p":1.986,"d":"2026-07-13"}},"brand":"Galp"},{"id":200067806,"lat":41.53029,"lng":-8.63094,"addr":"EN 103-1 Km 0,950 (Rua Filipa Borges)","city":"Vila Frescainha - S. Martinho","cp":"4754-909","fuels":{"Gazole":{"p":1.949,"d":"2026-07-13"},"SP95":{"p":1.986,"d":"2026-07-13"}},"brand":"BP"},{"id":200081307,"lat":41.62274,"lng":-8.63784,"addr":"RUA NOSSA SENHORA DA LAPA, 1529","city":"Aborim","cp":"4750-026","fuels":{"Gazole":{"p":1.949,"d":"2026-07-13"},"SP95":{"p":1.989,"d":"2026-07-13"}},"brand":"Repsol"},{"id":200068133,"lat":41.4862,"lng":-8.34941,"addr":"Largo António Gonçalves","city":"Caldas das Taipas","cp":"4801-080","fuels":{"Gazole":{"p":1.949,"d":"2026-07-13"},"SP95":{"p":1.989,"d":"2026-07-13"}},"brand":"BP"},{"id":200093051,"lat":41.365585,"lng":-8.443049,"addr":"Avenida Vila Nunes, n.º 1 - Lugar Monte de Fojo","city":"Carreira","cp":"4765-072","fuels":{"Gazole":{"p":1.949,"d":"2026-07-13"},"SP95":{"p":1.994,"d":"2026-07-13"}},"brand":"Shell"},{"id":200087353,"lat":41.409595,"lng":-8.296109,"addr":"Rua Comandante João de Paiva Faria Leite Brandão n.º 3014","city":"Guimarães","cp":"4835-175","fuels":{"Gazole":{"p":1.949,"d":"2026-07-13"},"SP95":{"p":1.986,"d":"2026-07-13"},"SP98":{"p":2.157,"d":"2026-07-13"}}},{"id":200065846,"lat":41.51351,"lng":-8.65057,"addr":"EN 205 Km 19,53","city":"Gilmonde","cp":"4750-000","fuels":{"Gazole":{"p":1.949,"d":"2026-07-14"},"SP95":{"p":1.986,"d":"2026-07-14"}},"brand":"BP"},{"id":200065847,"lat":41.563145,"lng":-8.600908,"addr":"Rua dos Combatentes do Ultramar, 500  Lijó","city":"Lijó","cp":"4750-047","fuels":{"Gazole":{"p":1.949,"d":"2026-07-14"},"SP95":{"p":1.986,"d":"2026-07-14"}},"brand":"BP"},{"id":200093339,"lat":41.397,"lng":-8.44522,"addr":"Rua Ruivães","city":"Ruivães","cp":"4760-000","fuels":{"Gazole":{"p":1.949,"d":"2026-07-14"},"SP95":{"p":1.986,"d":"2026-07-14"}},"brand":"Galp"},{"id":200065739,"lat":41.40408,"lng":-8.51616,"addr":"Av. Marechal Humberto Delgado","city":"Quinta da Maia","cp":"4760-901","fuels":{"Gazole":{"p":1.949,"d":"2026-07-14"},"SP95":{"p":1.986,"d":"2026-07-14"}},"brand":"Galp"},{"id":200065679,"lat":41.71765,"lng":-8.30539,"addr":"Largo Paço Moimenta","city":"Terras de Bouro","cp":"4840-100","fuels":{"Gazole":{"p":1.949,"d":"2026-07-14"},"SP95":{"p":1.986,"d":"2026-07-14"}},"brand":"Galp"},{"id":200065233,"lat":41.45828,"lng":-8.02935,"addr":"EN 206 Km 69,2","city":"Gandarela","cp":"4890-542","fuels":{"Gazole":{"p":1.949,"d":"2026-07-14"},"SP95":{"p":1.986,"d":"2026-07-14"}},"brand":"Galp"},{"id":200065278,"lat":41.4519,"lng":-8.17784,"addr":"EN 206 (Rua dos Aliados)","city":"Fafe","cp":"4820-242","fuels":{"Gazole":{"p":1.949,"d":"2026-07-14"},"SP95":{"p":1.986,"d":"2026-07-14"}},"brand":"Galp"},{"id":200065188,"lat":41.51492,"lng":-7.99216,"addr":"EN 205 Km 102,5","city":"Cabeceiras de Basto","cp":"4860-000","fuels":{"Gazole":{"p":1.949,"d":"2026-07-14"},"SP95":{"p":1.986,"d":"2026-07-14"}},"brand":"Galp"},{"id":200065162,"lat":41.554899,"lng":-8.568338,"addr":"EN 205, Km 28,450","city":"Lurgar da Lamela - Manhente","cp":"4750-551","fuels":{"Gazole":{"p":1.949,"d":"2026-07-14"},"SP95":{"p":1.986,"d":"2026-07-14"}},"brand":"Galp"},{"id":200066093,"lat":41.557063,"lng":-8.624289,"addr":"EN 204 Km 22,1","city":"Vila Boa-Lugar da Estrada","cp":"4750-786","fuels":{"Gazole":{"p":1.949,"d":"2026-07-14"},"SP95":{"p":1.986,"d":"2026-07-14"}},"brand":"BP"},{"id":200093523,"lat":41.5387,"lng":-8.621448,"addr":"Lugar da Devesinha - Circular de Barcelos - Retail Park Barcelos","city":"Barcelos","cp":"4750-000","fuels":{"Gazole":{"p":1.949,"d":"2026-07-14"},"SP95":{"p":1.986,"d":"2026-07-14"}},"brand":"Galp"},{"id":200065741,"lat":41.389107,"lng":-8.480149,"addr":"A 7 - Km 23,5 - Famalicão/Guimarães","city":"Lagoa","cp":"4770-281","fuels":{"Gazole":{"p":1.949,"d":"2026-07-14"},"SP95":{"p":1.989,"d":"2026-07-14"}},"brand":"Galp"},{"id":200065742,"lat":41.390728,"lng":-8.480057,"addr":"A 7 - Km 23,5 - Guimarães/Famalicão","city":"Lagoa","cp":"4770-281","fuels":{"Gazole":{"p":1.949,"d":"2026-07-14"},"SP95":{"p":1.989,"d":"2026-07-14"}},"brand":"Galp"},{"id":200065277,"lat":41.44532,"lng":-8.16688,"addr":"Estrada Circular de Fafe","city":"Fafe","cp":"4820-000","fuels":{"Gazole":{"p":1.949,"d":"2026-07-14"},"SP95":{"p":1.986,"d":"2026-07-14"}},"brand":"Galp"},{"id":200065738,"lat":41.41505,"lng":-8.52241,"addr":"Av 9 de Julho nº462","city":"Vila Nova de Famalicão","cp":"4760-102","fuels":{"Gazole":{"p":1.949,"d":"2026-07-14"},"SP95":{"p":1.986,"d":"2026-07-14"}},"brand":"Galp"},{"id":200066275,"lat":41.618904,"lng":-8.407015,"addr":"Av. Pontezinhas, 162","city":"Lago","cp":"4720-543","fuels":{"Gazole":{"p":1.951,"d":"2026-07-13"},"SP95":{"p":1.988,"d":"2026-07-13"}},"brand":"Cepsa"},{"id":200066919,"lat":41.68265,"lng":-8.04813,"addr":"Lugar Quintã - N 103","city":"Ruivães","cp":"4850-343","fuels":{"Gazole":{"p":1.953,"d":"2026-07-13"},"SP95":{"p":1.997,"d":"2026-07-13"}},"brand":"Avia"},{"id":200067154,"lat":41.46119,"lng":-8.159643,"addr":"Rua da Cumieira - Apartado 166","city":"Fafe","cp":"4820-179","fuels":{"Gazole":{"p":1.959,"d":"2026-07-12"},"SP95":{"p":1.999,"d":"2026-07-12"},"SP98":{"p":2.239,"d":"2026-07-12"}},"brand":"BP"},{"id":200067278,"lat":41.487274,"lng":-8.191063,"addr":"Avenida da Liberdade, 166 - Travassós - Apartado 166","city":"Travassós","cp":"4820-775","fuels":{"Gazole":{"p":1.959,"d":"2026-07-12"},"SP95":{"p":1.999,"d":"2026-07-12"}},"brand":"BP"},{"id":200066168,"lat":41.3876,"lng":-8.33948,"addr":"Rua Nossa Senhora da Ajuda nº 29","city":"Moreira de Cónegos","cp":"4815-364","fuels":{"Gazole":{"p":1.959,"d":"2026-07-13"},"SP95":{"p":1.999,"d":"2026-07-13"},"SP98":{"p":2.239,"d":"2026-07-13"}},"brand":"BP"},{"id":200069627,"lat":41.61699,"lng":-8.30662,"addr":"EN 205","city":"Monsul","cp":"4830-400","fuels":{"Gazole":{"p":1.959,"d":"2026-07-13"},"SP95":{"p":1.999,"d":"2026-07-13"}},"brand":"Freitas"},{"id":200069573,"lat":41.55424,"lng":-8.34659,"addr":"Rua Nossa Senhora da Conceição","city":"Sobreposta","cp":"4715-554","fuels":{"Gazole":{"p":1.959,"d":"2026-07-13"},"SP95":{"p":1.999,"d":"2026-07-13"}},"brand":"BP"},{"id":200065953,"lat":41.37303,"lng":-8.35895,"addr":"EN 105 nº 940","city":"Lordelo","cp":"4815-135","fuels":{"Gazole":{"p":1.959,"d":"2026-07-13"},"SP95":{"p":1.999,"d":"2026-07-13"}},"brand":"BP"},{"id":200068447,"lat":41.651154,"lng":-8.434849,"addr":"Largo . Campo Da Feira","city":"Vila Verde","cp":"4730-000","fuels":{"Gazole":{"p":1.959,"d":"2026-07-13"},"SP95":{"p":1.999,"d":"2026-07-13"}},"brand":"BP"},{"id":200066067,"lat":41.445744,"lng":-8.400159,"addr":"Rua da Portela nº1005","city":"Vermil","cp":"4805-546","fuels":{"Gazole":{"p":1.959,"d":"2026-07-13"},"SP95":{"p":1.999,"d":"2026-07-13"},"GPLc":{"p":1.109,"d":"2026-07-13"}},"brand":"BP"},{"id":200069278,"lat":41.39664,"lng":-8.31958,"addr":"EN 106, 925","city":"Infias","cp":"4815-093","fuels":{"Gazole":{"p":1.959,"d":"2026-07-13"},"SP95":{"p":1.999,"d":"2026-07-13"}},"brand":"BP"},{"id":200073576,"lat":41.37069,"lng":-8.31226,"addr":"Rua Guilherme Caldas Peixoto","city":"Vizela","cp":"4815-435","fuels":{"Gazole":{"p":1.959,"d":"2026-07-13"},"SP95":{"p":1.999,"d":"2026-07-13"},"GPLc":{"p":1.039,"d":"2026-07-13"}},"brand":"BP"},{"id":200093047,"lat":41.39069,"lng":-8.31796,"addr":"EN 106 nº236","city":"Infias","cp":"4815-071","fuels":{"Gazole":{"p":1.959,"d":"2026-07-13"},"SP95":{"p":1.999,"d":"2026-07-13"}},"brand":"BP"},{"id":200067945,"lat":41.45328,"lng":-8.18658,"addr":"Rua Cidade de Guimaraes","city":"Fafe","cp":"4820-178","fuels":{"Gazole":{"p":1.959,"d":"2026-07-14"},"SP95":{"p":1.999,"d":"2026-07-14"}},"brand":"BP"},{"id":200066484,"lat":41.38929,"lng":-8.00245,"addr":"Rua Rodrigues Freitas","city":"Celorico de Basto","cp":"4890-235","fuels":{"Gazole":{"p":1.969,"d":"2026-07-13"},"SP95":{"p":2.009,"d":"2026-07-13"}},"brand":"Repsol"},{"id":200066918,"lat":41.34856,"lng":-8.53738,"addr":"Largo do Souto","city":"Lousado","cp":"4760-602","fuels":{"Gazole":{"p":1.969,"d":"2026-07-13"},"SP95":{"p":2.009,"d":"2026-07-13"}},"brand":"BP"},{"id":200066921,"lat":41.43837,"lng":-8.52308,"addr":"Largo da Igreja","city":"Mouquim","cp":"4770-361","fuels":{"Gazole":{"p":1.969,"d":"2026-07-13"},"SP95":{"p":2.009,"d":"2026-07-13"}},"brand":"BP"},{"id":200066933,"lat":41.37815,"lng":-8.54508,"addr":"Rua de Meães - Terra Negra","city":"Vilarinho das Cambas","cp":"4760-762","fuels":{"Gazole":{"p":1.969,"d":"2026-07-13"},"SP95":{"p":2.009,"d":"2026-07-13"}},"brand":"BP"},{"id":200066897,"lat":41.50776,"lng":-8.48862,"addr":"Largo da Igreja","city":"Tadim","cp":"4705-671","fuels":{"Gazole":{"p":1.969,"d":"2026-07-13"},"SP95":{"p":2.009,"d":"2026-07-13"}},"brand":"BP"},{"id":200093696,"lat":41.486267,"lng":-7.966994,"addr":"Rua Alambique","city":"Arco de Baúlhe","cp":"4860-064","fuels":{"Gazole":{"p":1.969,"d":"2026-07-13"},"SP95":{"p":2.016,"d":"2026-07-13"}},"brand":"Alves Bandeira"},{"id":200080419,"lat":41.530255,"lng":-8.76303,"addr":"R. Comendador Rodrigo Leite","city":"Gandra - Esposende","cp":"4740-473","fuels":{"Gazole":{"p":1.969,"d":"2026-07-13"},"SP95":{"p":2.009,"d":"2026-07-13"},"GPLc":{"p":0.964,"d":"2026-07-13"}},"brand":"Repsol"},{"id":200068254,"lat":41.56863,"lng":-8.78885,"addr":"EN 13 Km 48.65 - Lg.Rio de Moinho","city":"Marinhas","cp":"4740-313","fuels":{"Gazole":{"p":1.969,"d":"2026-07-13"},"SP95":{"p":2.009,"d":"2026-07-13"}},"brand":"Repsol"},{"id":200094930,"lat":41.5199,"lng":-8.63303,"addr":"Lugar de Mereces-Barcelinhos","city":"Barcelos","cp":"4755-064","fuels":{"Gazole":{"p":1.969,"d":"2026-07-14"},"SP95":{"p":2.009,"d":"2026-07-14"}},"brand":"Repsol"},{"id":200065234,"lat":41.423443,"lng":-7.988486,"addr":"EN 304 Km 126,4 - Fermil  de Basto","city":"Fermil de Basto","cp":"4890-342","fuels":{"Gazole":{"p":1.969,"d":"2026-07-14"},"SP95":{"p":2.009,"d":"2026-07-14"}},"brand":"Galp"},{"id":200065262,"lat":41.52204,"lng":-8.7748,"addr":"EN 13 Km 43,15","city":"Gandra","cp":"4740-475","fuels":{"Gazole":{"p":1.969,"d":"2026-07-14"},"SP95":{"p":2.009,"d":"2026-07-14"},"GPLc":{"p":0.959,"d":"2026-07-14"}},"brand":"Galp"},{"id":200094765,"lat":41.622704,"lng":-8.637946,"addr":"RUA NOSSA SENHORA DA LAPA 1529","city":"Aborim","cp":"4750-026","fuels":{"Gazole":{"p":1.969,"d":"2026-07-14"},"SP95":{"p":2.009,"d":"2026-07-14"}},"brand":"Repsol"},{"id":200066092,"lat":41.637307,"lng":-8.636548,"addr":"EN 204 km 12,1","city":"Rua Domingos da Cunha","cp":"4905-042","fuels":{"Gazole":{"p":1.969,"d":"2026-07-14"},"SP95":{"p":2.019,"d":"2026-07-14"}},"brand":"BP"},{"id":200093597,"lat":41.568516,"lng":-8.788521,"addr":"avenida 19 agosto estrada nacional 13","city":"Esposende","cp":"4740-000","fuels":{"Gazole":{"p":1.979,"d":"2026-07-13"},"SP95":{"p":2.014,"d":"2026-07-13"}},"brand":"Shell"},{"id":200067894,"lat":41.55101,"lng":-8.41017,"addr":"Av. João Paulo II","city":"São Vitor","cp":"4700-034","fuels":{"Gazole":{"p":1.994,"d":"2026-07-13"},"SP95":{"p":2.039,"d":"2026-07-13"}},"brand":"BP"},{"id":200069067,"lat":41.603848,"lng":-8.550144,"addr":"A3 AUTO EST. PORTO/VALENÇA, SUB LANÇO BRAGA/EN201, (APARTADO 600, CP 4751)","city":"Alheira","cp":"4750-058","fuels":{"Gazole":{"p":1.994,"d":"2026-07-14"},"SP95":{"p":2.029,"d":"2026-07-14"},"GPLc":{"p":0.976,"d":"2026-07-14"}},"brand":"Cepsa"},{"id":200069068,"lat":41.60596,"lng":-8.550696,"addr":"A3 AUTO EST. PORTO/VALENÇA, SUB LANÇO BRAGA/EN201, (APARTADO 600, CP 4751)","city":"Alheira","cp":"4750-058","fuels":{"Gazole":{"p":1.994,"d":"2026-07-14"},"SP95":{"p":2.029,"d":"2026-07-14"},"GPLc":{"p":0.976,"d":"2026-07-14"}},"brand":"Cepsa"},{"id":200066073,"lat":41.63548,"lng":-8.14891,"addr":"Entre as Devesas","city":"Vieira do Minho","cp":"4850-542","fuels":{"Gazole":{"p":1.999,"d":"2026-07-13"},"SP95":{"p":2.039,"d":"2026-07-13"}},"brand":"BP"},{"id":200070541,"lat":41.54517,"lng":-8.423763,"addr":"Av. Imaculada Conceição","city":"Braga","cp":"4700-034","fuels":{"Gazole":{"p":1.999,"d":"2026-07-13"},"SP95":{"p":2.039,"d":"2026-07-13"}},"brand":"BP"},{"id":200067768,"lat":41.54598,"lng":-8.4129,"addr":"Av. 31 de Janeiro","city":"Braga - Largo da Soutinha","cp":"4715-117","fuels":{"Gazole":{"p":1.999,"d":"2026-07-13"},"SP95":{"p":2.039,"d":"2026-07-13"}},"brand":"BP"},{"id":200067740,"lat":41.57374,"lng":-8.42381,"addr":"Avenida do Cávado","city":"Palmeira","cp":"4700-690","fuels":{"Gazole":{"p":1.999,"d":"2026-07-13"},"SP95":{"p":2.039,"d":"2026-07-13"}},"brand":"BP"},{"id":200093488,"lat":41.5543,"lng":-8.430862,"addr":"Rua de São Martinho, Posto BP","city":"Braga","cp":"4700-442","fuels":{"Gazole":{"p":1.999,"d":"2026-07-13"},"SP95":{"p":2.039,"d":"2026-07-13"}},"brand":"BP"},{"id":200066937,"lat":41.4875077012,"lng":-7.9635839458,"addr":"Lugar das Trojeirinhas","city":"Arco de Baúlhe","cp":"4860-083","fuels":{"Gazole":{"p":1.999,"d":"2026-07-13"},"SP95":{"p":2.039,"d":"2026-07-13"}},"brand":"BP"},{"id":200065718,"lat":41.6354,"lng":-8.18885,"addr":"EN 103, Km 68,25","city":"Cerdeirinhas","cp":"4850-000","fuels":{"Gazole":{"p":1.999,"d":"2026-07-13"},"SP95":{"p":2.039,"d":"2026-07-13"}},"brand":"BP"},{"id":200094517,"lat":41.39661,"lng":-7.993081,"addr":"E.N. 210 - Km 1.100","city":"Celorico de Basto","cp":"4890-264","fuels":{"Gazole":{"p":1.999,"d":"2026-07-13"},"SP95":{"p":2.039,"d":"2026-07-13"}},"brand":"BP"},{"id":200093112,"lat":41.5321,"lng":-8.77605,"addr":"EN 13 Km 87,400","city":"Esposende","cp":"4740-000","fuels":{"Gazole":{"p":1.999,"d":"2026-07-13"},"SP95":{"p":2.039,"d":"2026-07-13"},"SP98":{"p":2.239,"d":"2026-07-13"}},"brand":"BP"},{"id":200094346,"lat":41.50222,"lng":-8.658889,"addr":"Sub-lanço A11 - Nó da EN 205 - Nó de Barcelos","city":"Barcelos","cp":"4755-071","fuels":{"Gazole":{"p":1.999,"d":"2026-07-13"},"SP95":{"p":2.037,"d":"2026-07-13"}},"brand":"OZ Energia"},{"id":200094347,"lat":41.500847,"lng":-8.659317,"addr":"Área de Serviço Barcelos, Sub-lanço A11 - Nó da EN 205 - Nó de Barcelos","city":"Gilmonde","cp":"4755-230","fuels":{"Gazole":{"p":1.999,"d":"2026-07-13"},"SP95":{"p":2.037,"d":"2026-07-13"}},"brand":"OZ Energia"},{"id":200076446,"lat":41.430267,"lng":-8.182113,"addr":"FAFE NORTE - A7 Sentido Alvão-Guimarães","city":"Antime","cp":"4820-005","fuels":{"Gazole":{"p":1.999,"d":"2026-07-13"},"SP95":{"p":1.973,"d":"2026-07-13"}},"brand":"OZ Energia"},{"id":200076447,"lat":41.42868,"lng":-8.181183,"addr":"A7 Sentido Guimarães-Alvão","city":"Antime","cp":"4820-005","fuels":{"Gazole":{"p":1.999,"d":"2026-07-13"},"SP95":{"p":1.973,"d":"2026-07-13"}},"brand":"OZ Energia"},{"id":200069175,"lat":41.43717,"lng":-8.31279,"addr":"Rua Miradouro de Baixo","city":"Creixomil","cp":"4835-079","fuels":{"Gazole":{"p":1.999,"d":"2026-07-14"},"SP95":{"p":2.039,"d":"2026-07-14"},"GPLc":{"p":1.099,"d":"2026-07-14"}},"brand":"BP"},{"id":200069248,"lat":41.43292,"lng":-8.345817,"addr":"Rua da Circunvalação, 2431","city":"Guimarães","cp":"4835-315","fuels":{"SP95":{"p":1.859,"d":"2026-07-13"}},"brand":"Prio"},{"id":200067526,"lat":41.48271,"lng":-8.71718,"addr":"EN 205 Km 12,5 Barqueiros","city":"Barqueiros","cp":"4740-674","fuels":{"SP95":{"p":1.864,"d":"2026-07-13"}},"brand":"Prio"},{"id":200069261,"lat":41.590607,"lng":-8.585564,"addr":"Lugar de Pateirão","city":"Roriz","cp":"4750-658","fuels":{"SP95":{"p":1.889,"d":"2026-07-13"}},"brand":"Prio"},{"id":200067071,"lat":41.5706,"lng":-8.110082,"addr":"Lugar da Trasleira","city":"Trasleira","cp":"4850-312","fuels":{"SP95":{"p":1.894,"d":"2026-07-13"}},"brand":"Prio"},{"id":200069904,"lat":41.43568,"lng":-8.63285,"addr":"Avenida Central, 436","city":"Macieira de Rates","cp":"4755-272","fuels":{"SP95":{"p":1.929,"d":"2026-07-06"}},"brand":"Prio"},{"id":200091842,"lat":41.52053,"lng":-8.572459,"addr":"Rua da Gandra, N103 139","city":"Várzea","cp":"4755-522","fuels":{"SP95":{"p":1.929,"d":"2026-07-06"}},"brand":"Prio"},{"id":200065161,"lat":41.53171,"lng":-8.69155,"addr":"Rua Frei Pedro de Perelhal, 856","city":"Perelhal","cp":"4750-620","fuels":{"SP95":{"p":1.929,"d":"2026-07-06"},"GPLc":{"p":0.899,"d":"2026-07-06"}},"brand":"Prio"},{"id":200075118,"lat":41.56576,"lng":-8.377919,"addr":"Variante do Fojo - Este (São Pedro) - Avenida General Carrilho Pinto","city":"Braga","cp":"4715-570","fuels":{"SP95":{"p":1.954,"d":"2026-07-13"}},"brand":"Prio"},{"id":200077912,"lat":41.62473,"lng":-8.35003,"addr":"Rua da Cintura nº 72","city":"Amares - Ferreiros","cp":"4720-000","fuels":{"SP95":{"p":1.954,"d":"2026-07-13"}},"brand":"Prio"},{"id":200081564,"lat":41.44041,"lng":-8.28951,"addr":"Largo de São Gualter;União de Freguesias de Oliveira, São Paio e São Sebastião","city":"Guimarães","cp":"4810-438","fuels":{"SP95":{"p":1.954,"d":"2026-07-13"}},"brand":"Prio"},{"id":200093227,"lat":41.38718,"lng":-8.528221,"addr":"Rua Alfredo Correia nº 1440","city":"Vila Nova de Famalicão","cp":"4760-188","fuels":{"SP95":{"p":1.954,"d":"2026-07-13"}},"brand":"Prio"},{"id":200067505,"lat":41.5049527348,"lng":-8.76338735483,"addr":"EN 13 Km 40,6 Fão","city":"Fão","cp":"4740-325","fuels":{"SP95":{"p":1.954,"d":"2026-07-13"}},"brand":"Prio"},{"id":200067514,"lat":41.5571,"lng":-8.44069,"addr":"Estrada da Variante de Real (EN 201)","city":"Real","cp":"4700-284","fuels":{"SP95":{"p":1.954,"d":"2026-07-13"}},"brand":"Prio"},{"id":200068718,"lat":41.45848,"lng":-8.29483,"addr":"Rua Moura Machado","city":"Guimarães","cp":"4800-056","fuels":{"SP95":{"p":1.954,"d":"2026-07-13"}},"brand":"Prio"},{"id":200069258,"lat":41.524834,"lng":-8.300799,"addr":"EN 310, Km 7.500 D (Rua de Vessadas) - Rua D. Afonso Henriques","city":"Donim","cp":"4805-178","fuels":{"SP95":{"p":1.954,"d":"2026-07-13"}},"brand":"Prio"},{"id":200067077,"lat":41.65563,"lng":-8.431852,"addr":"Largo do Bom Retiro","city":"Vila Verde","cp":"4730-729","fuels":{"SP95":{"p":1.954,"d":"2026-07-13"}},"brand":"Prio"},{"id":200067078,"lat":41.72379,"lng":-8.414753,"addr":"EM 537 - Lugar da Portela do Vade","city":"Atães","cp":"4730-031","fuels":{"SP95":{"p":1.954,"d":"2026-07-13"}},"brand":"Prio"},{"id":200067079,"lat":41.612976,"lng":-8.472045,"addr":"EN 201 - Lugar da Fuzelha","city":"Fuselha","cp":"4730-461","fuels":{"SP95":{"p":1.954,"d":"2026-07-13"},"GPLc":{"p":0.899,"d":"2026-07-13"}},"brand":"Prio"},{"id":200091553,"lat":41.63525,"lng":-8.14958,"addr":"RUA DA LAMEIRA, Nº 123","city":"Eira Vedra","cp":"4850-158","fuels":{"SP95":{"p":1.954,"d":"2026-07-13"}},"brand":"Prio"},{"id":200091296,"lat":41.39718,"lng":-7.992959,"addr":"Crespos- Britelo","city":"Celorico de Basto","cp":"4890-264","fuels":{"SP95":{"p":1.954,"d":"2026-07-13"}},"brand":"Prio"},{"id":200093514,"lat":41.35363,"lng":-8.55367,"addr":"Lugar da Corga, Ribeirão, Vila Nova de Famalicão","city":"Ribeirão","cp":"4760-706","fuels":{"SP95":{"p":1.954,"d":"2026-07-13"}},"brand":"Prio"},{"id":200094406,"lat":41.42762,"lng":-8.43019,"addr":"Av. Riopele 815","city":"Pousada de Saramagos","cp":"4770-405","fuels":{"SP95":{"p":1.954,"d":"2026-07-14"},"SP98":{"p":2.059,"d":"2026-07-14"},"GPLc":{"p":0.899,"d":"2026-07-14"}},"brand":"Prio"}]