[{"id":200086395,"lat":37.26026,"lng":-8.29281,"addr":"R. João de Deus","city":"São Bartolomeu de Messines","cp":"8375-127","fuels":{"Gazole":{"p":1.729,"d":"2026-07-07"},"SP95":{"p":1.799,"d":"2026-07-07"},"SP98":{"p":1.829,"d":"2026-07-07"}},"brand":"Intermarché"},{"id":200093437,"lat":37.0505,"lng":-7.78135,"addr":"Estrada Nacional 125 em Bias do Norte","city":"Moncarapacho","cp":"8700-068","fuels":{"Gazole":{"p":1.729,"d":"2026-07-14"},"SP95":{"p":1.759,"d":"2026-07-14"}},"brand":"Transforpel"},{"id":200093037,"lat":37.13041,"lng":-8.57552,"addr":"ESTRADA DE ALVOR ED. INTERMARCHE ALVOR","city":"ALVOR","cp":"8500-071","fuels":{"Gazole":{"p":1.748,"d":"2026-07-13"},"SP95":{"p":1.818,"d":"2026-07-13"}},"brand":"Intermarché"},{"id":200080997,"lat":37.099957,"lng":-8.682131,"addr":"AMEIJEIRA VERDE- PEDRA ALÇADA","city":"Lagos","cp":"8600-546","fuels":{"Gazole":{"p":1.748,"d":"2026-07-13"},"SP95":{"p":1.818,"d":"2026-07-13"},"SP98":{"p":1.898,"d":"2026-07-13"}},"brand":"Intermarché"},{"id":200093509,"lat":37.033687,"lng":-7.929972,"addr":"Campinas Edifício intermache","city":"Faro","cp":"8005-294","fuels":{"Gazole":{"p":1.749,"d":"2026-07-06"},"SP95":{"p":1.829,"d":"2026-07-06"},"SP98":{"p":1.909,"d":"2026-07-06"}},"brand":"Intermarché"},{"id":200088401,"lat":37.31261,"lng":-8.55633,"addr":"Largo Pé da Cruz - Ceiceira","city":"Monchique","cp":"8550-328","fuels":{"Gazole":{"p":1.749,"d":"2026-07-07"},"SP95":{"p":1.829,"d":"2026-07-07"},"SP98":{"p":1.929,"d":"2026-07-07"}},"brand":"Intermarché"},{"id":200067450,"lat":37.08632,"lng":-8.827874,"addr":"AREIAS DE CIMA","city":"Budens","cp":"8650-070","fuels":{"Gazole":{"p":1.768,"d":"2026-07-13"},"SP95":{"p":1.848,"d":"2026-07-13"},"SP98":{"p":1.918,"d":"2026-07-13"}},"brand":"Intermarché"},{"id":200081066,"lat":37.015327,"lng":-8.940969,"addr":"Cercas velhas","city":"Sagres","cp":"8650-366","fuels":{"Gazole":{"p":1.788,"d":"2026-07-13"},"SP95":{"p":1.828,"d":"2026-07-13"}},"brand":"Intermarché"},{"id":200093167,"lat":37.103773,"lng":-8.234181,"addr":"Estrada de Vale Pedras, Edifício Intermarché","city":"Albufeira","cp":"8200-047","fuels":{"Gazole":{"p":1.789,"d":"2026-07-13"},"SP95":{"p":1.819,"d":"2026-07-13"},"SP98":{"p":1.849,"d":"2026-07-13"}},"brand":"Intermarché"},{"id":200070586,"lat":37.19962,"lng":-7.4196,"addr":"Largo da Estação","city":"Vila Real de Santo António","cp":"8900-216","fuels":{"Gazole":{"p":1.789,"d":"2026-07-13"},"SP95":{"p":1.829,"d":"2026-07-13"},"SP98":{"p":1.929,"d":"2026-07-13"}},"brand":"Intermarché"},{"id":200076540,"lat":37.12628,"lng":-8.23745,"addr":"Av. 12 de Julho","city":"Ferreiras - Vale de Serves","cp":"8200-559","fuels":{"Gazole":{"p":1.789,"d":"2026-07-14"},"SP95":{"p":1.819,"d":"2026-07-14"},"SP98":{"p":1.849,"d":"2026-07-14"}},"brand":"Intermarché"},{"id":200080797,"lat":37.144984251,"lng":-8.54396224,"addr":"Sítio do Poço Fojo","city":"Portimão","cp":"8500-998","fuels":{"Gazole":{"p":1.797,"d":"2026-07-14"},"SP95":{"p":1.839,"d":"2026-07-14"},"SP98":{"p":1.999,"d":"2026-07-14"}},"brand":"Recheio"},{"id":200076976,"lat":37.14776,"lng":-8.545965,"addr":"EN 125 - Rua S. Pedro","city":"Portimão","cp":"8500-524","fuels":{"Gazole":{"p":1.799,"d":"2026-07-13"},"SP95":{"p":1.839,"d":"2026-07-13"}},"brand":"Auchan"},{"id":200079717,"lat":37.13913,"lng":-7.64306,"addr":"Parque Comercial e de Exposições de Tavira\r\nSítio do Vale Formoso, Lote 16/23","city":"Tavira","cp":"8800-202","fuels":{"Gazole":{"p":1.799,"d":"2026-07-14"},"SP95":{"p":1.849,"d":"2026-07-14"}},"brand":"Recheio"},{"id":200066316,"lat":37.051697,"lng":-7.926947,"addr":"E.N. 2 ao Km 735,050","city":"Chelote","cp":"8005-442","fuels":{"Gazole":{"p":1.811,"d":"2026-07-13"},"SP95":{"p":1.848,"d":"2026-07-13"}},"brand":"Cepsa"},{"id":200093446,"lat":37.15241,"lng":-7.877694,"addr":"Campina, Estrada Nac. 270","city":"São Brás de Alportel","cp":"8150-025","fuels":{"Gazole":{"p":1.819,"d":"2026-07-13"},"SP95":{"p":1.859,"d":"2026-07-13"},"SP98":{"p":1.969,"d":"2026-07-13"}},"brand":"Intermarché"},{"id":200078468,"lat":37.02634,"lng":-7.916969,"addr":"Av. Cidade Hayward","city":"Faro","cp":"8000-074","fuels":{"Gazole":{"p":1.819,"d":"2026-07-13"},"SP95":{"p":1.849,"d":"2026-07-13"},"GPLc":{"p":0.869,"d":"2026-07-13"}},"brand":"Auchan"},{"id":200093080,"lat":37.11709,"lng":-8.246953,"addr":"Urbanização Serva EN395 - Vale Paraíso 9011","city":"Ferreiras","cp":"8200-567","fuels":{"Gazole":{"p":1.819,"d":"2026-07-13"},"SP95":{"p":1.859,"d":"2026-07-13"}},"brand":"Prio"},{"id":200093453,"lat":37.153225,"lng":-7.791646,"addr":"EN 270 - Km 52,4","city":"Alcaria Fria","cp":"8800-166","fuels":{"Gazole":{"p":1.819,"d":"2026-07-13"},"SP95":{"p":1.854,"d":"2026-07-13"}},"brand":"OZ Energia"},{"id":200088734,"lat":37.12776,"lng":-8.29955,"addr":"EN 125, Km 66,6","city":"Cortelhas","cp":"8200-413","fuels":{"Gazole":{"p":1.819,"d":"2026-07-13"},"SP95":{"p":1.869,"d":"2026-07-13"},"GPLc":{"p":0.969,"d":"2026-07-13"}},"brand":"Ecobrent"},{"id":200093407,"lat":37.03164,"lng":-7.83338,"addr":"Rua Calouste Gulbenkian","city":"Olhão - Quelfes","cp":"8700-221","fuels":{"Gazole":{"p":1.819,"d":"2026-07-14"},"SP95":{"p":1.849,"d":"2026-07-14"},"SP98":{"p":1.929,"d":"2026-07-14"}},"brand":"Intermarché"},{"id":200065986,"lat":37.031,"lng":-7.84986,"addr":"EN 125 Km 113","city":"Olhão","cp":"8700-000","fuels":{"Gazole":{"p":1.829,"d":"2026-07-13"},"SP95":{"p":1.899,"d":"2026-07-13"}},"brand":"BP"},{"id":200066171,"lat":37.10568,"lng":-8.462996,"addr":"ESTRADA NACIONAL 124-1 KM 10,7","city":"Carvoeiro","cp":"8400-524","fuels":{"Gazole":{"p":1.836,"d":"2026-07-12"},"SP95":{"p":1.913,"d":"2026-07-12"}},"brand":"Moeve"},{"id":200093574,"lat":37.131233,"lng":-8.359711,"addr":"Quintas do Rogel, Sudoeste Retail Park","city":"Parque Industrial do Rogel","cp":"8365-307","fuels":{"Gazole":{"p":1.849,"d":"2026-07-13"},"SP95":{"p":1.896,"d":"2026-07-13"},"SP98":{"p":2.046,"d":"2026-07-13"}},"brand":"Alves Bandeira"},{"id":200092973,"lat":37.17233,"lng":-8.299277,"addr":"Sitio das Ferrarias","city":"Algoz","cp":"8365-084","fuels":{"Gazole":{"p":1.853,"d":"2026-07-13"},"SP95":{"p":1.897,"d":"2026-07-13"}},"brand":"Auto Julio"},{"id":200093421,"lat":37.165702,"lng":-8.305495,"addr":"Est. 269 - Algoz","city":"Algoz","cp":"8365-064","fuels":{"Gazole":{"p":1.857,"d":"2026-07-07"},"SP95":{"p":1.909,"d":"2026-07-07"},"SP98":{"p":2.098,"d":"2026-07-07"}},"brand":"BP"},{"id":200093420,"lat":37.167315,"lng":-8.301712,"addr":"Rua do Palmeiral nº47","city":"Algoz","cp":"8365-064","fuels":{"Gazole":{"p":1.857,"d":"2026-07-07"},"SP95":{"p":1.909,"d":"2026-07-07"},"SP98":{"p":2.098,"d":"2026-07-07"}},"brand":"BP"},{"id":200076913,"lat":37.136505,"lng":-8.463485,"addr":"EN 125 - Sitio da Bemposta","city":"Bemposta","cp":"8400-701","fuels":{"Gazole":{"p":1.859,"d":"2026-07-13"},"SP95":{"p":1.899,"d":"2026-07-13"},"GPLc":{"p":0.969,"d":"2026-07-13"}},"brand":"Auchan"},{"id":200070953,"lat":37.13231,"lng":-8.45248,"addr":"ESTRADA NACIONAL 125, URBANIZAÇÃO COVAS DE AREIA, LOTE 1","city":"Lagoa","cp":"8400-430","fuels":{"Gazole":{"p":1.881,"d":"2026-07-13"},"SP95":{"p":1.918,"d":"2026-07-13"}},"brand":"Moeve"},{"id":200066233,"lat":37.17244,"lng":-8.41137,"addr":"EN 269","city":"Silves - Figueiral","cp":"8300-027","fuels":{"Gazole":{"p":1.881,"d":"2026-07-13"},"SP95":{"p":1.918,"d":"2026-07-13"}},"brand":"Cepsa"},{"id":200066356,"lat":37.150304,"lng":-8.539973,"addr":"EN 124","city":"Poço Seco-Cardosas","cp":"8500-338","fuels":{"Gazole":{"p":1.881,"d":"2026-07-13"},"SP95":{"p":1.918,"d":"2026-07-13"}},"brand":"Cepsa"},{"id":200093474,"lat":37.418903,"lng":-8.766456,"addr":"EN 120 - KM 130+340","city":"Odeceixe","cp":"8670-320","fuels":{"Gazole":{"p":1.884,"d":"2026-07-13"},"SP95":{"p":1.919,"d":"2026-07-13"}},"brand":"OZ Energia"},{"id":200067770,"lat":37.311115,"lng":-8.556418,"addr":"Pé da Cruz","city":"Pé da Cruz","cp":"8550-328","fuels":{"Gazole":{"p":1.891,"d":"2026-07-13"},"SP95":{"p":1.929,"d":"2026-07-13"}},"brand":"BP"},{"id":200089113,"lat":37.31154,"lng":-8.66628,"addr":"EN 267","city":"Marmelete","cp":"8550-000","fuels":{"Gazole":{"p":1.891,"d":"2026-07-13"},"SP95":{"p":1.929,"d":"2026-07-13"}},"brand":"BP"},{"id":200093825,"lat":37.124504,"lng":-7.644018,"addr":"Cais do Gilão - Porto de Tavira","city":"Tavira","cp":"8800-354","fuels":{"Gazole":{"p":1.893,"d":"2026-07-06"},"SP95":{"p":1.983,"d":"2026-07-06"}},"brand":"Galp"},{"id":200093141,"lat":37.23991,"lng":-8.044887,"addr":"RUA MANUEL DOURADO EUSEBIO","city":"Salir","cp":"8100-202","fuels":{"Gazole":{"p":1.898,"d":"2026-07-13"},"SP95":{"p":1.942,"d":"2026-07-13"}},"brand":"Auto Julio"},{"id":200092976,"lat":37.09262,"lng":-8.204557,"addr":"Estrada de Albufeira, CM 1287","city":"Quinta da Balaia","cp":"8200-100","fuels":{"Gazole":{"p":1.898,"d":"2026-07-13"},"SP95":{"p":1.942,"d":"2026-07-13"}},"brand":"Auto Julio"},{"id":200092975,"lat":37.312984,"lng":-8.791851,"addr":"Sitio da Feiteira - EN267","city":"Aljezur","cp":"8670-158","fuels":{"Gazole":{"p":1.898,"d":"2026-07-13"},"SP95":{"p":1.942,"d":"2026-07-13"}},"brand":"Auto Julio"},{"id":200093016,"lat":37.310833,"lng":-8.556167,"addr":"Rua Pé da Cruz","city":"Monchique","cp":"8550-328","fuels":{"Gazole":{"p":1.901,"d":"2026-07-13"},"SP95":{"p":1.939,"d":"2026-07-13"}},"brand":"Repsol"},{"id":200093089,"lat":37.1062,"lng":-8.38296,"addr":"SENHORA DA ROCHA","city":"Alporchinhos","cp":"8400-450","fuels":{"Gazole":{"p":1.901,"d":"2026-07-13"},"SP95":{"p":1.938,"d":"2026-07-13"}},"brand":"Moeve"},{"id":200069115,"lat":37.022793,"lng":-7.971152,"addr":"FARO AEROPORTO","city":"Faro","cp":"8001-701","fuels":{"Gazole":{"p":1.901,"d":"2026-07-13"},"SP95":{"p":1.938,"d":"2026-07-13"}},"brand":"Moeve"},{"id":200069169,"lat":37.07307,"lng":-8.0722,"addr":"FONTE SANTA","city":"Varzeas do Almargem","cp":"8125-306","fuels":{"Gazole":{"p":1.901,"d":"2026-07-13"},"SP95":{"p":1.938,"d":"2026-07-13"}},"brand":"Moeve"},{"id":200094474,"lat":37.123388,"lng":-8.232072,"addr":"EN 125 Km3,2 Cortesões","city":"Cortesões","cp":"8200-557","fuels":{"Gazole":{"p":1.901,"d":"2026-07-13"},"SP95":{"p":1.938,"d":"2026-07-13"}},"brand":"Moeve"},{"id":200094475,"lat":37.122841,"lng":-8.231653,"addr":"EN 125 Km3,2 Cortesões","city":"Cortesões","cp":"8200-557","fuels":{"Gazole":{"p":1.901,"d":"2026-07-13"},"SP95":{"p":1.938,"d":"2026-07-13"}},"brand":"Moeve"},{"id":200066215,"lat":37.213941,"lng":-8.543474,"addr":"EN 266","city":"Vale Pessegueiro-Rasmalho","cp":"8500-835","fuels":{"Gazole":{"p":1.901,"d":"2026-07-13"},"SP95":{"p":1.938,"d":"2026-07-13"}},"brand":"Cepsa"},{"id":200092662,"lat":37.185936,"lng":-8.443151,"addr":"Rua Cruz da Palmeira, E.N.124 Km 17.936","city":"Silves","cp":"8300-149","fuels":{"Gazole":{"p":1.901,"d":"2026-07-13"},"SP95":{"p":1.938,"d":"2026-07-13"}},"brand":"Cepsa"},{"id":200066323,"lat":37.109971,"lng":-8.676679,"addr":"Av. dos Descobrimentos","city":"Lagos","cp":"8600-645","fuels":{"Gazole":{"p":1.901,"d":"2026-07-13"},"SP95":{"p":1.938,"d":"2026-07-13"}},"brand":"Cepsa"},{"id":200094917,"lat":37.10181,"lng":-8.69289,"addr":"Urbanização Pedra Alçada, Lote 17","city":"Lagos","cp":"8600-546","fuels":{"Gazole":{"p":1.901,"d":"2026-07-13"},"SP95":{"p":1.938,"d":"2026-07-13"}},"brand":"Cepsa"},{"id":200071880,"lat":37.040318,"lng":-7.823334,"addr":"Estrada Nacional 125 - Pinheiros de Marim","city":"Pinheiros de Marim","cp":"8700-225","fuels":{"Gazole":{"p":1.901,"d":"2026-07-14"},"SP95":{"p":1.938,"d":"2026-07-14"}},"brand":"Moeve"},{"id":200093737,"lat":37.254406,"lng":-7.955207,"addr":"Cortelha-Salir","city":"Cortelha","cp":"8100-170","fuels":{"Gazole":{"p":1.907,"d":"2026-07-13"},"SP95":{"p":1.979,"d":"2026-07-13"}},"brand":"Repsol"},{"id":200094768,"lat":37.13374,"lng":-8.545472,"addr":"Quinta da Malata-V6","city":"Portimão","cp":"8500-510","fuels":{"Gazole":{"p":1.909,"d":"2026-07-06"},"SP95":{"p":1.989,"d":"2026-07-06"}},"brand":"BP"},{"id":200068236,"lat":37.18386,"lng":-7.46997,"addr":"EN 125 ALDEIA NOVA MONTE GORDO","city":"Aldeia Nova-Monte Gordo","cp":"8900-441","fuels":{"Gazole":{"p":1.909,"d":"2026-07-06"},"SP95":{"p":1.999,"d":"2026-07-06"},"GPLc":{"p":0.999,"d":"2026-07-06"}},"brand":"BP"},{"id":200065978,"lat":37.183621,"lng":-7.470475,"addr":"ESTRADA NAÇIONAL Nº 125 ALDEIA NOVA MONTE GORDO","city":"ALDEIA NOVA","cp":"8900-401","fuels":{"Gazole":{"p":1.909,"d":"2026-07-06"},"SP95":{"p":1.999,"d":"2026-07-06"}},"brand":"BP"},{"id":200093302,"lat":37.3149,"lng":-8.32185,"addr":"Sitio de Corte Pereiro, IC1 KM 713","city":"São Bartolomeu de Messines","cp":"8375-030","fuels":{"Gazole":{"p":1.909,"d":"2026-07-13"},"SP95":{"p":1.956,"d":"2026-07-13"}},"brand":"Alves Bandeira"},{"id":200094190,"lat":37.13285,"lng":-8.453011,"addr":"E.N. 125 - Largo Marques de Pombal","city":"Lagoa","cp":"8400-391","fuels":{"Gazole":{"p":1.914,"d":"2026-07-13"},"SP95":{"p":1.951,"d":"2026-07-13"}},"brand":"Galp"},{"id":200065646,"lat":37.12429,"lng":-8.33504,"addr":"EN 125 Km 63,123","city":"Pêra","cp":"8365-204","fuels":{"Gazole":{"p":1.914,"d":"2026-07-14"},"SP95":{"p":1.951,"d":"2026-07-14"}},"brand":"Galp"},{"id":200065647,"lat":37.123916,"lng":-8.334876,"addr":"EN 125 Km 63,1","city":"Pêra","cp":"8365-204","fuels":{"Gazole":{"p":1.914,"d":"2026-07-14"},"SP95":{"p":1.951,"d":"2026-07-14"}},"brand":"Galp"},{"id":200093142,"lat":37.437267,"lng":-7.508588,"addr":"SI CRUZAMENTO ALCOUTIM LT 20","city":"Alcoutim","cp":"8970-051","fuels":{"Gazole":{"p":1.918,"d":"2026-07-13"},"SP95":{"p":1.962,"d":"2026-07-13"}},"brand":"Auto Julio"},{"id":200066052,"lat":37.129156,"lng":-7.642847,"addr":"Av. Dr. Eduardo Mansinho","city":"Tavira","cp":"8800-301","fuels":{"Gazole":{"p":1.919,"d":"2026-07-06"},"SP95":{"p":1.999,"d":"2026-07-06"}},"brand":"BP"},{"id":200065280,"lat":37.05161,"lng":-7.95328,"addr":"EN 125 Km 98,4","city":"Patacão","cp":"8005-511","fuels":{"Gazole":{"p":1.919,"d":"2026-07-14"},"SP95":{"p":1.956,"d":"2026-07-14"}},"brand":"Galp"},{"id":200065281,"lat":37.02859,"lng":-7.90614,"addr":"EN 125 Km 107,6","city":"Rio Seco","cp":"8005-528","fuels":{"Gazole":{"p":1.919,"d":"2026-07-14"},"SP95":{"p":1.956,"d":"2026-07-14"},"GPLc":{"p":0.944,"d":"2026-07-13"}},"brand":"Galp"},{"id":200065282,"lat":37.02821,"lng":-7.90612,"addr":"EN 125 Km 107,6","city":"Rio Seco","cp":"8005-528","fuels":{"Gazole":{"p":1.919,"d":"2026-07-14"},"SP95":{"p":1.956,"d":"2026-07-14"}},"brand":"Galp"},{"id":200093497,"lat":37.1513,"lng":-8.55209,"addr":"R. DAS PAPOILAS- CAB. MOCHO","city":"Portimão","cp":"8500-313","fuels":{"Gazole":{"p":1.919,"d":"2026-07-14"},"SP95":{"p":1.956,"d":"2026-07-14"}},"brand":"Galp"},{"id":200066556,"lat":37.030327,"lng":-7.850788,"addr":"EN 125","city":"Brancanes","cp":"8700-207","fuels":{"Gazole":{"p":1.921,"d":"2026-07-13"},"SP95":{"p":1.964,"d":"2026-07-13"},"GPLc":{"p":0.944,"d":"2026-07-13"}},"brand":"Repsol"},{"id":200066175,"lat":37.129475,"lng":-8.039609,"addr":"Zona Industrial Lt-1","city":"Loulé","cp":"8100-272","fuels":{"Gazole":{"p":1.921,"d":"2026-07-13"},"SP95":{"p":1.958,"d":"2026-07-13"},"GPLc":{"p":0.916,"d":"2026-07-13"}},"brand":"Moeve"},{"id":200073709,"lat":37.33115,"lng":-7.81261,"addr":"EN 397","city":"Cachopo","cp":"8800-014","fuels":{"Gazole":{"p":1.921,"d":"2026-07-13"},"SP95":{"p":1.948,"d":"2026-07-13"}},"brand":"Cepsa"},{"id":200094668,"lat":37.08675,"lng":-8.270351,"addr":"Avenida D. Manuel 1, Quinta da Orada, Lote 57","city":"Albufeira","cp":"8200-372","fuels":{"Gazole":{"p":1.924,"d":"2026-07-07"},"SP95":{"p":1.999,"d":"2026-07-07"}},"brand":"Shell"},{"id":200094513,"lat":37.111027,"lng":-8.662686,"addr":"Estr. da Meia Praia - Lote 54","city":"Lagos","cp":"8600-315","fuels":{"Gazole":{"p":1.924,"d":"2026-07-13"},"SP95":{"p":1.964,"d":"2026-07-13"}},"brand":"Shell"},{"id":200066898,"lat":37.28237,"lng":-7.47099,"addr":"EN 512","city":"Azinhal-Poço dos Peixes","cp":"8950-046","fuels":{"Gazole":{"p":1.924,"d":"2026-07-13"},"SP95":{"p":1.986,"d":"2026-07-13"},"SP98":{"p":2.036,"d":"2026-07-13"}},"brand":"Avia"},{"id":200065764,"lat":37.19355,"lng":-7.42093,"addr":"EN 125 (Av. dos Bombeiros Portugueses)","city":"Vila Real de Santo António","cp":"8900-209","fuels":{"Gazole":{"p":1.924,"d":"2026-07-14"},"SP95":{"p":1.986,"d":"2026-07-14"}},"brand":"Galp"},{"id":200065337,"lat":37.111216,"lng":-8.679557,"addr":"EN 120 Km 174","city":"Lagos","cp":"8600-324","fuels":{"Gazole":{"p":1.924,"d":"2026-07-14"},"SP95":{"p":1.956,"d":"2026-07-14"}},"brand":"Galp"},{"id":200065338,"lat":37.11079,"lng":-8.67965,"addr":"EN 120 Km 174","city":"Lagos","cp":"8600-773","fuels":{"Gazole":{"p":1.924,"d":"2026-07-14"},"SP95":{"p":1.956,"d":"2026-07-14"}},"brand":"Galp"},{"id":200066548,"lat":37.04511,"lng":-7.92845,"addr":"EN 2 Km 735,8","city":"Campinas","cp":"8000-606","fuels":{"Gazole":{"p":1.926,"d":"2026-07-13"},"SP95":{"p":1.964,"d":"2026-07-13"}},"brand":"Repsol"},{"id":200066549,"lat":37.04408,"lng":-7.92912,"addr":"EN 2 Km 735,8","city":"Campinas","cp":"8000-606","fuels":{"Gazole":{"p":1.926,"d":"2026-07-13"},"SP95":{"p":1.964,"d":"2026-07-13"}},"brand":"Repsol"},{"id":200066543,"lat":37.02038,"lng":-7.92333,"addr":"Av. Dr. Almeida Carrapato","city":"Faro","cp":"8000-000","fuels":{"Gazole":{"p":1.926,"d":"2026-07-13"},"SP95":{"p":1.964,"d":"2026-07-13"}},"brand":"Repsol"},{"id":200066544,"lat":37.02005,"lng":-7.92353,"addr":"Av. Dr. Almeida Carrapato","city":"Faro","cp":"8000-000","fuels":{"Gazole":{"p":1.926,"d":"2026-07-13"},"SP95":{"p":1.964,"d":"2026-07-13"}},"brand":"Repsol"},{"id":200072279,"lat":37.44116,"lng":-7.76236,"addr":"ESTRADA NACIONAL 124","city":"Martinlongo","cp":"8970-255","fuels":{"Gazole":{"p":1.927,"d":"2026-07-06"},"SP95":{"p":2.009,"d":"2026-07-06"}},"brand":"Repsol"},{"id":200093230,"lat":37.12997,"lng":-7.638901,"addr":"Rua Almirante Candido dos Reis n° 245 - Tavira","city":"Tavira","cp":"8800-319","fuels":{"Gazole":{"p":1.929,"d":"2026-07-13"},"SP95":{"p":1.974,"d":"2026-07-13"}},"brand":"Shell"},{"id":200065678,"lat":37.126527,"lng":-7.647005,"addr":"Rua Borda D'Água Aguiar nº 13","city":"Tavira","cp":"8800-326","fuels":{"Gazole":{"p":1.929,"d":"2026-07-13"},"SP95":{"p":1.966,"d":"2026-07-13"}},"brand":"Galp"},{"id":200070183,"lat":37.1296,"lng":-7.63844,"addr":"Vale Caranguejo","city":"Tavira","cp":"8800-225","fuels":{"Gazole":{"p":1.929,"d":"2026-07-13"},"SP95":{"p":1.976,"d":"2026-07-13"},"SP98":{"p":2.126,"d":"2026-07-13"}},"brand":"Alves Bandeira"},{"id":200065675,"lat":37.11787,"lng":-7.66306,"addr":"EN 125 Km 132,8","city":"São Pedro","cp":"8800-255","fuels":{"Gazole":{"p":1.929,"d":"2026-07-14"},"SP95":{"p":1.966,"d":"2026-07-14"}},"brand":"Galp"},{"id":200065676,"lat":37.089846,"lng":-7.70834,"addr":"EN 125 Km 127","city":"Luz de Tavira","cp":"8800-000","fuels":{"Gazole":{"p":1.929,"d":"2026-07-14"},"SP95":{"p":1.966,"d":"2026-07-14"}},"brand":"Galp"},{"id":200065677,"lat":37.11808,"lng":-7.66325,"addr":"EN 125 Km 132,8","city":"São Pedro","cp":"8800-255","fuels":{"Gazole":{"p":1.929,"d":"2026-07-14"},"SP95":{"p":1.966,"d":"2026-07-14"}},"brand":"Galp"},{"id":200065611,"lat":37.15663,"lng":-7.89234,"addr":"EN 2 (Rua Evaristo São Gago) Km 722,2","city":"São Brás de Alportel","cp":"8150-139","fuels":{"Gazole":{"p":1.929,"d":"2026-07-14"},"SP95":{"p":1.966,"d":"2026-07-14"}},"brand":"Galp"},{"id":200065491,"lat":37.08316,"lng":-7.7904,"addr":"Av. Maria Purificação Palermo","city":"Moncarapacho","cp":"8700-103","fuels":{"Gazole":{"p":1.929,"d":"2026-07-14"},"SP95":{"p":1.966,"d":"2026-07-14"}},"brand":"Galp"},{"id":200065493,"lat":37.03155,"lng":-7.84713,"addr":"EN 125 Km 113,1","city":"Olhão","cp":"8700-146","fuels":{"Gazole":{"p":1.929,"d":"2026-07-14"},"SP95":{"p":1.966,"d":"2026-07-14"}},"brand":"Galp"},{"id":200065283,"lat":37.09745,"lng":-7.90605,"addr":"EN 2 Km 729,7","city":"Estoi-Coiro da Burra","cp":"8000-670","fuels":{"Gazole":{"p":1.929,"d":"2026-07-14"},"SP95":{"p":1.966,"d":"2026-07-14"}},"brand":"Galp"},{"id":200066903,"lat":37.1507999938,"lng":-7.9400000076,"addr":"EN 270 Km 38,5","city":"Vilarinhos","cp":"8150-058","fuels":{"Gazole":{"p":1.929,"d":"2026-07-14"},"SP95":{"p":1.966,"d":"2026-07-14"}},"brand":"Galp"},{"id":200070629,"lat":37.09468,"lng":-8.30422,"addr":"EM 526","city":"Vale Parra - Guia","cp":"8200-427","fuels":{"Gazole":{"p":1.931,"d":"2026-07-13"},"SP95":{"p":1.968,"d":"2026-07-13"},"SP98":{"p":2.13,"d":"2026-07-13"}},"brand":"Carrasquinho & Filhos"},{"id":200070630,"lat":37.09515,"lng":-8.30434,"addr":"EM 526","city":"Vale Parra - Guia","cp":"8200-427","fuels":{"Gazole":{"p":1.931,"d":"2026-07-13"},"SP95":{"p":1.968,"d":"2026-07-13"},"SP98":{"p":2.13,"d":"2026-07-13"},"GPLc":{"p":0.929,"d":"2026-07-13"}},"brand":"Carrasquinho & Filhos"},{"id":200070712,"lat":37.16909,"lng":-8.26132,"addr":"Travessa Poeta António Aleixo","city":"Tunes-Gateiras ou Amendoais","cp":"8365-231","fuels":{"Gazole":{"p":1.931,"d":"2026-07-13"},"SP95":{"p":1.968,"d":"2026-07-13"},"SP98":{"p":2.13,"d":"2026-07-13"},"GPLc":{"p":0.929,"d":"2026-07-13"}},"brand":"Carrasquinho & Filhos"},{"id":200093126,"lat":37.18667,"lng":-7.41901,"addr":"Estrada da Mata","city":"Vila Real de Santo António - Edifício CEPSA","cp":"8900-000","fuels":{"Gazole":{"p":1.934,"d":"2026-07-13"},"SP95":{"p":1.994,"d":"2026-07-13"}}},{"id":200065762,"lat":37.186397,"lng":-7.453348,"addr":"EN 125 Km 154,4","city":"Monte Gordo","cp":"8900-401","fuels":{"Gazole":{"p":1.936,"d":"2026-07-13"},"SP95":{"p":1.999,"d":"2026-07-13"}},"brand":"Repsol"},{"id":200066542,"lat":37.19667,"lng":-7.41454,"addr":"Av. da República nº 110","city":"Vila Real de Santo António","cp":"8900-000","fuels":{"Gazole":{"p":1.936,"d":"2026-07-13"},"SP95":{"p":1.999,"d":"2026-07-13"}},"brand":"Repsol"},{"id":200093017,"lat":37.140944,"lng":-8.5065,"addr":"ZONA INDUSTRIAL DO PATEIRO LOTE 1","city":"PARCHAL","cp":"8400-651","fuels":{"Gazole":{"p":1.936,"d":"2026-07-13"},"SP95":{"p":1.979,"d":"2026-07-13"}},"brand":"Repsol"},{"id":200093108,"lat":37.089719,"lng":-7.927981,"addr":"MARF- Guilhim - Estrada Municipal 520 - 2","city":"FARO","cp":"8009-021","fuels":{"Gazole":{"p":1.936,"d":"2026-07-13"},"SP95":{"p":1.974,"d":"2026-07-13"}},"brand":"Repsol"},{"id":200067790,"lat":37.100278,"lng":-8.05799,"addr":"EN 125,Km 89","city":"Quatro Estradas","cp":"8100-321","fuels":{"Gazole":{"p":1.939,"d":"2026-07-06"},"SP95":{"p":2.019,"d":"2026-07-06"}},"brand":"BP"},{"id":200067796,"lat":37.09987,"lng":-8.05833,"addr":"EN 125, Km 89","city":"Quatro Estradas","cp":"8100-321","fuels":{"Gazole":{"p":1.939,"d":"2026-07-06"},"SP95":{"p":2.019,"d":"2026-07-06"}},"brand":"BP"},{"id":200067525,"lat":37.01334,"lng":-8.94237,"addr":"EN 268 Km 36,100","city":"Sagres","cp":"8650-355","fuels":{"Gazole":{"p":1.941,"d":"2026-07-13"},"SP95":{"p":1.949,"d":"2026-07-13"}},"brand":"Repsol"},{"id":200066540,"lat":37.13555,"lng":-8.53549,"addr":"Av. Um e Dois da Zona do Dique","city":"Portimão","cp":"8500-000","fuels":{"Gazole":{"p":1.941,"d":"2026-07-13"},"SP95":{"p":1.979,"d":"2026-07-13"}},"brand":"Repsol"},{"id":200066536,"lat":37.105,"lng":-8.67349,"addr":"Av. dos Descobrimentos","city":"Lagos","cp":"8600-000","fuels":{"Gazole":{"p":1.941,"d":"2026-07-13"},"SP95":{"p":1.949,"d":"2026-07-13"}},"brand":"Repsol"},{"id":200066558,"lat":37.12401,"lng":-7.6454,"addr":"Rua das Salinas","city":"Tavira","cp":"8800-201","fuels":{"Gazole":{"p":1.941,"d":"2026-07-13"},"SP95":{"p":1.984,"d":"2026-07-13"}},"brand":"Repsol"},{"id":200066550,"lat":37.13755,"lng":-8.54631,"addr":"V6","city":"S. Sebastiao","cp":"8500-000","fuels":{"Gazole":{"p":1.941,"d":"2026-07-13"},"SP95":{"p":1.979,"d":"2026-07-13"}},"brand":"Repsol"},{"id":200065720,"lat":37.00872,"lng":-8.94419,"addr":"EN 268 Km 36,65Sítio do Tonel","city":"Sagres","cp":"8650-355","fuels":{"Gazole":{"p":1.941,"d":"2026-07-13"},"SP95":{"p":1.949,"d":"2026-07-13"}},"brand":"Repsol"},{"id":200066537,"lat":37.063474,"lng":-7.759924,"addr":"EN 125","city":"Alfandanga","cp":"8700-000","fuels":{"Gazole":{"p":1.941,"d":"2026-07-13"},"SP95":{"p":1.984,"d":"2026-07-13"}},"brand":"Repsol"},{"id":200066553,"lat":37.12897,"lng":-8.57951,"addr":"Estrada Municipal, 531 - 1 ALVOR","city":"Alvor","cp":"8500-045","fuels":{"Gazole":{"p":1.941,"d":"2026-07-13"},"SP95":{"p":1.979,"d":"2026-07-13"}},"brand":"Repsol"},{"id":200066557,"lat":37.150074,"lng":-8.539489,"addr":"Poço Seco - Cardosas","city":"Portimão","cp":"8500-315","fuels":{"Gazole":{"p":1.941,"d":"2026-07-14"},"SP95":{"p":1.979,"d":"2026-07-14"},"GPLc":{"p":1.024,"d":"2026-07-14"}},"brand":"Repsol"},{"id":200072342,"lat":37.17642,"lng":-7.53419,"addr":"Rua José Colaço Fernandes","city":"Vila Nova de Cacela-Coutada","cp":"8900-054","fuels":{"Gazole":{"p":1.946,"d":"2026-07-13"},"SP95":{"p":2.009,"d":"2026-07-13"}},"brand":"Repsol"},{"id":200078481,"lat":37.14604,"lng":-7.8929,"addr":"EN 2 Km 722.9","city":"Hortas e Moinhos","cp":"8150-021","fuels":{"Gazole":{"p":1.946,"d":"2026-07-13"},"SP95":{"p":1.984,"d":"2026-07-13"}},"brand":"Repsol"},{"id":200094686,"lat":37.05516,"lng":-7.744237,"addr":"Av. Marginal - Largo 1º de Maio","city":"Fuseta","cp":"8700-037","fuels":{"Gazole":{"p":1.953,"d":"2026-07-13"},"SP95":{"p":1.997,"d":"2026-07-13"}},"brand":"Galp"},{"id":200094649,"lat":37.185993,"lng":-8.443821,"addr":"EN124 ao km.17,900","city":"Silves","cp":"8300-111","fuels":{"Gazole":{"p":1.954,"d":"2026-07-13"},"SP95":{"p":1.991,"d":"2026-07-13"}},"brand":"Galp"},{"id":200065645,"lat":37.19666,"lng":-8.43019,"addr":"EN 124","city":"Enxerim","cp":"8300-025","fuels":{"Gazole":{"p":1.954,"d":"2026-07-14"},"SP95":{"p":1.991,"d":"2026-07-14"}},"brand":"Galp"},{"id":200066546,"lat":37.12915,"lng":-8.28268,"addr":"Vale VerdeGuia","city":"Tavagueira Guia","cp":"8200-856","fuels":{"Gazole":{"p":1.956,"d":"2026-07-13"},"SP95":{"p":1.994,"d":"2026-07-13"}},"brand":"Repsol"},{"id":200066009,"lat":37.12659,"lng":-8.404223,"addr":"E. N. 125 - Km 55,9","city":"Porches","cp":"8400-489","fuels":{"Gazole":{"p":1.959,"d":"2026-07-13"},"SP95":{"p":2.019,"d":"2026-07-13"}},"brand":"BP"},{"id":200066010,"lat":37.12628,"lng":-8.404112,"addr":"E. N. 125 - Km 55,9","city":"Porches","cp":"8400-489","fuels":{"Gazole":{"p":1.959,"d":"2026-07-13"},"SP95":{"p":2.019,"d":"2026-07-13"}},"brand":"BP"},{"id":200065561,"lat":37.130362,"lng":-8.54542,"addr":"EN 124-1 (V6)","city":"Alto do Quintão","cp":"8500-000","fuels":{"Gazole":{"p":1.959,"d":"2026-07-14"},"SP95":{"p":1.996,"d":"2026-07-14"},"GPLc":{"p":0.984,"d":"2026-07-13"}},"brand":"Galp"},{"id":200065064,"lat":37.318689,"lng":-8.798431,"addr":"EN 120","city":"Quartel dos Bombeiros","cp":"8670-084","fuels":{"Gazole":{"p":1.959,"d":"2026-07-14"},"SP95":{"p":1.996,"d":"2026-07-14"}},"brand":"Galp"},{"id":200066554,"lat":37.23298,"lng":-8.12158,"addr":"Rua António Provisório nº 9\r\nBairro Novo","city":"Bairro Novo Benafim","cp":"8100-351","fuels":{"Gazole":{"p":1.961,"d":"2026-07-13"},"SP95":{"p":1.984,"d":"2026-07-13"}},"brand":"Repsol"},{"id":200093444,"lat":37.128482,"lng":-8.155026,"addr":"ESTRADA NACIONAL 125, KM 79 - FONTE DE BOLIQUEIME","city":"BOLIQUEIME","cp":"8100-070","fuels":{"Gazole":{"p":1.961,"d":"2026-07-13"},"SP95":{"p":2.004,"d":"2026-07-13"}},"brand":"Repsol"},{"id":200065005,"lat":37.17709,"lng":-8.21037,"addr":"EN 270 Km 8,6","city":"Purgatório","cp":"8200-498","fuels":{"Gazole":{"p":1.964,"d":"2026-07-14"},"SP95":{"p":1.999,"d":"2026-07-14"}},"brand":"Galp"},{"id":200066538,"lat":37.10369,"lng":-8.0733,"addr":"EN 125-CERCADO","city":"Quarteira","cp":"8125-013","fuels":{"Gazole":{"p":1.966,"d":"2026-07-13"},"SP95":{"p":2.004,"d":"2026-07-13"}},"brand":"Repsol"},{"id":200066539,"lat":37.10323,"lng":-8.07321,"addr":"EN 125-CERCADO","city":"Loulé","cp":"8100-287","fuels":{"Gazole":{"p":1.966,"d":"2026-07-13"},"SP95":{"p":2.004,"d":"2026-07-13"},"GPLc":{"p":0.974,"d":"2026-07-13"}},"brand":"Repsol"},{"id":200066545,"lat":37.09599,"lng":-8.255089,"addr":"Sítio Bolota","city":"Albufeira","cp":"8200-319","fuels":{"Gazole":{"p":1.966,"d":"2026-07-14"},"SP95":{"p":2.004,"d":"2026-07-14"}},"brand":"Repsol"},{"id":200066551,"lat":37.10601,"lng":-8.230361,"addr":"Estrada Brejos","city":"Brejos-Montechoro","cp":"8200-317","fuels":{"Gazole":{"p":1.966,"d":"2026-07-14"},"SP95":{"p":2.004,"d":"2026-07-14"}},"brand":"Repsol"},{"id":200066912,"lat":37.170383,"lng":-7.54051,"addr":"Fonte Santa","city":"Montes Chave de Ouro","cp":"8900-118","fuels":{"Gazole":{"p":1.969,"d":"2026-07-13"},"SP95":{"p":1.999,"d":"2026-07-13"},"SP98":{"p":2.162,"d":"2026-07-13"}}},{"id":200066547,"lat":37.3717,"lng":-8.79994,"addr":"Av. 16 de Junho nº 81","city":"Rogil","cp":"8670-352","fuels":{"Gazole":{"p":1.969,"d":"2026-07-13"},"SP95":{"p":2.009,"d":"2026-07-13"}},"brand":"Repsol"},{"id":200066534,"lat":37.247244,"lng":-8.254897,"addr":"EN 124","city":"Portela de Messines-Sítio de Combros ou Abertas","cp":"8375-066","fuels":{"Gazole":{"p":1.969,"d":"2026-07-13"},"SP95":{"p":2.009,"d":"2026-07-13"}},"brand":"Repsol"},{"id":200068039,"lat":37.14381,"lng":-8.54823,"addr":"Avenida São Lourenço da Barrosa, Lote 18 Alto da Raminha","city":"Portimão","cp":"8500-510","fuels":{"Gazole":{"p":1.969,"d":"2026-07-13"},"SP95":{"p":2.009,"d":"2026-07-13"},"GPLc":{"p":0.999,"d":"2026-07-13"}},"brand":"BP"},{"id":200093442,"lat":37.128751,"lng":-8.153507,"addr":"EN 125 Km 87,800","city":"Fonte de Boliqueime","cp":"8100-000","fuels":{"Gazole":{"p":1.969,"d":"2026-07-13"},"SP95":{"p":2.009,"d":"2026-07-13"}},"brand":"BP"},{"id":200066013,"lat":37.128666,"lng":-8.546687,"addr":"Av. V6 Alto Quintao Bloco A","city":"Portimão","cp":"8500-510","fuels":{"Gazole":{"p":1.969,"d":"2026-07-13"},"SP95":{"p":2.009,"d":"2026-07-13"}},"brand":"BP"},{"id":200092966,"lat":37.230386,"lng":-8.169265,"addr":"EN 124, R. 25 Abril, Sítio da Calçadinha","city":"Alte","cp":"8100-012","fuels":{"Gazole":{"p":1.969,"d":"2026-07-13"},"SP95":{"p":2.009,"d":"2026-07-13"}},"brand":"TFuel"},{"id":200067942,"lat":37.10054,"lng":-8.66948,"addr":"Av. dos Descobrimentos","city":"Lagos","cp":"8600-315","fuels":{"Gazole":{"p":1.969,"d":"2026-07-13"},"SP95":{"p":2.029,"d":"2026-07-13"}},"brand":"BP"},{"id":200067880,"lat":37.119785,"lng":-8.67342,"addr":"EN125  Telheiro","city":"Lagos","cp":"8600-327","fuels":{"Gazole":{"p":1.969,"d":"2026-07-13"},"SP95":{"p":2.029,"d":"2026-07-13"},"GPLc":{"p":0.999,"d":"2026-07-13"}},"brand":"BP"},{"id":200067869,"lat":37.11993,"lng":-8.67299,"addr":"EN 125","city":"Telheiro","cp":"8600-327","fuels":{"Gazole":{"p":1.969,"d":"2026-07-13"},"SP95":{"p":2.029,"d":"2026-07-13"}},"brand":"BP"},{"id":200066003,"lat":37.161818,"lng":-8.574504,"addr":"EN 125 Km 109","city":"Alvor- Penina","cp":"8500-082","fuels":{"Gazole":{"p":1.969,"d":"2026-07-13"},"SP95":{"p":2.029,"d":"2026-07-13"}},"brand":"BP"},{"id":200066004,"lat":37.161486,"lng":-8.574579,"addr":"EN 125 Km 109","city":"Alvor- Penina","cp":"8500-082","fuels":{"Gazole":{"p":1.969,"d":"2026-07-13"},"SP95":{"p":2.029,"d":"2026-07-13"}},"brand":"BP"},{"id":200067821,"lat":37.081463,"lng":-8.910547,"addr":"EN 268 (Rua Senhora do Amparo, junto aos Bombeiros Vila do Bispo)","city":"Bombeiros Vila do Bispo","cp":"8650-425","fuels":{"Gazole":{"p":1.969,"d":"2026-07-13"},"SP95":{"p":2.016,"d":"2026-07-13"}},"brand":"Alves Bandeira"},{"id":200065376,"lat":37.134238,"lng":-8.020952,"addr":"Av. Marçal Pacheco","city":"Loulé","cp":"8100-504","fuels":{"Gazole":{"p":1.969,"d":"2026-07-14"},"SP95":{"p":2.006,"d":"2026-07-14"}},"brand":"Galp"},{"id":200065377,"lat":37.13507,"lng":-8.02117,"addr":"Av. Marçal Pacheco nº 157","city":"Loulé","cp":"8100-505","fuels":{"Gazole":{"p":1.969,"d":"2026-07-14"},"SP95":{"p":2.006,"d":"2026-07-14"}},"brand":"Galp"},{"id":200092208,"lat":37.135825,"lng":-8.523515,"addr":"Acesso Porto de Pesca do Rio Arade","city":"Parchal","cp":"8501-909","fuels":{"Gazole":{"p":1.969,"d":"2026-07-14"},"SP95":{"p":2.009,"d":"2026-07-14"}},"brand":"BP"},{"id":200066925,"lat":37.08517,"lng":-8.04257,"addr":"Estrada da Fonte Santa","city":"Barros de Almancil","cp":"8135-107","fuels":{"Gazole":{"p":1.974,"d":"2026-07-14"},"SP95":{"p":2.006,"d":"2026-07-14"},"GPLc":{"p":0.954,"d":"2026-07-13"}},"brand":"Galp"},{"id":200065651,"lat":37.2558,"lng":-8.28226,"addr":"EN 124 Km 35,7","city":"São Bartolomeu de Messines","cp":"8375-000","fuels":{"Gazole":{"p":1.974,"d":"2026-07-14"},"SP95":{"p":2.009,"d":"2026-07-14"}},"brand":"Galp"},{"id":200065644,"lat":37.346064,"lng":-8.358329,"addr":"EN 264 Km 78,6","city":"São Marcos da Serra","cp":"8375-223","fuels":{"Gazole":{"p":1.974,"d":"2026-07-14"},"SP95":{"p":2.011,"d":"2026-07-14"}},"brand":"Galp"},{"id":200068084,"lat":37.025383,"lng":-7.917921,"addr":"Av.Cidade Hayward","city":"Faro","cp":"8000-074","fuels":{"Gazole":{"p":1.979,"d":"2026-07-13"},"SP95":{"p":2.019,"d":"2026-07-13"}},"brand":"BP"},{"id":200093433,"lat":37.029915,"lng":-7.947817,"addr":"E. N. 125 - Pontes de Marchil","city":"Faro","cp":"8000-000","fuels":{"Gazole":{"p":1.979,"d":"2026-07-13"},"SP95":{"p":2.019,"d":"2026-07-13"}},"brand":"BP"},{"id":200093434,"lat":37.03025,"lng":-7.947455,"addr":"E. N. 125 - Pontes de Marchil","city":"Pontes de Marchil","cp":"8005-518","fuels":{"Gazole":{"p":1.979,"d":"2026-07-13"},"SP95":{"p":2.019,"d":"2026-07-13"}},"brand":"BP"},{"id":200084759,"lat":37.08302,"lng":-7.95838,"addr":"Sitio da Falfosa, Santa Bárbara de Nexe","city":"Falfosa","cp":"8005-436","fuels":{"Gazole":{"p":1.979,"d":"2026-07-13"},"SP95":{"p":2.019,"d":"2026-07-13"}},"brand":"BP"},{"id":200094324,"lat":37.10381,"lng":-8.193544,"addr":"P.Galp - E.Mun.256 - Vale da Azinheira","city":"Patã de Baixo","cp":"8200-592","fuels":{"Gazole":{"p":1.979,"d":"2026-07-13"},"SP95":{"p":2.011,"d":"2026-07-13"}},"brand":"Galp"},{"id":200094400,"lat":37.118633,"lng":-8.227034,"addr":"Estr. Montechoro - Torre da Mosqueira","city":"Albufeira","cp":"8200-387","fuels":{"Gazole":{"p":1.979,"d":"2026-07-13"},"SP95":{"p":2.011,"d":"2026-07-13"}},"brand":"Galp"},{"id":200065004,"lat":37.10413,"lng":-8.192463,"addr":"EN 526","city":"Vale de Azinheira","cp":"8200-315","fuels":{"Gazole":{"p":1.979,"d":"2026-07-14"},"SP95":{"p":2.011,"d":"2026-07-14"}},"brand":"Galp"},{"id":200093082,"lat":37.104103,"lng":-7.961994,"addr":"Estrada de São Brás","city":"Santa Bárbara de Nexe","cp":"8005-491","fuels":{"Gazole":{"p":1.979,"d":"2026-07-14"},"SP95":{"p":2.024,"d":"2026-07-14"}},"brand":"Prio"},{"id":200066541,"lat":37.25742,"lng":-8.30701,"addr":"EN 12 Km 33,6","city":"Barrada Amorosa - Silves","cp":"8375-010","fuels":{"Gazole":{"p":1.981,"d":"2026-07-13"},"SP95":{"p":1.999,"d":"2026-07-13"}},"brand":"Repsol"},{"id":200065378,"lat":37.08225,"lng":-8.117939,"addr":"Av. João Pires Meireles","city":"Quarteira","cp":"8125-000","fuels":{"Gazole":{"p":1.984,"d":"2026-07-14"},"SP95":{"p":2.021,"d":"2026-07-14"},"GPLc":{"p":0.959,"d":"2026-07-14"}},"brand":"Galp"},{"id":200069053,"lat":37.15181,"lng":-8.425895,"addr":"A 22, VIA DO INFANTE SAGRES, APARTADO 328","city":"Lagoa","cp":"8400-000","fuels":{"Gazole":{"p":1.994,"d":"2026-07-13"},"SP95":{"p":2.046,"d":"2026-07-13"}},"brand":"Moeve"},{"id":200069054,"lat":37.151337,"lng":-8.428372,"addr":"A 22, VIA DO INFANTE SAGRES, APARTADO 328","city":"Silves","cp":"8300-025","fuels":{"Gazole":{"p":1.994,"d":"2026-07-13"},"SP95":{"p":2.046,"d":"2026-07-13"}},"brand":"Moeve"},{"id":200066030,"lat":37.076306,"lng":-8.09537,"addr":"Av. Ceuta","city":"Quarteira","cp":"8100-116","fuels":{"Gazole":{"p":1.999,"d":"2026-07-12"},"SP95":{"p":2.039,"d":"2026-07-12"}},"brand":"BP"},{"id":200065954,"lat":37.138224,"lng":-8.028659,"addr":"Av.andrade Sousa","city":"Loulé","cp":"8100-714","fuels":{"Gazole":{"p":1.999,"d":"2026-07-13"},"SP95":{"p":2.039,"d":"2026-07-13"}},"brand":"BP"},{"id":200066079,"lat":37.115239,"lng":-8.150029,"addr":"EM 526","city":"Vilamoura - Retorta","cp":"8125-302","fuels":{"Gazole":{"p":1.999,"d":"2026-07-13"},"SP95":{"p":2.039,"d":"2026-07-13"}},"brand":"BP"},{"id":200070915,"lat":37.1499,"lng":-8.12591,"addr":"Posto BP Boliqueime Sitio Matos da Picota N270","city":"Boliqueime-Sítio Matos da Picota","cp":"8100-307","fuels":{"Gazole":{"p":1.999,"d":"2026-07-13"},"SP95":{"p":2.039,"d":"2026-07-13"}},"brand":"BP"},{"id":200093115,"lat":37.11425,"lng":-8.118029,"addr":"Avenida Vilamoura XXI","city":"Benfarras","cp":"8125-406","fuels":{"Gazole":{"p":1.999,"d":"2026-07-13"},"SP95":{"p":2.039,"d":"2026-07-13"}},"brand":"BP"},{"id":200085892,"lat":37.22903,"lng":-8.264661,"addr":"IC1 I.P.1c Lanço Guia-Messines","city":"São Bartolomeu de Messines","cp":"8375-140","fuels":{"Gazole":{"p":1.999,"d":"2026-07-13"},"SP95":{"p":2.039,"d":"2026-07-13"}},"brand":"BP"},{"id":200067084,"lat":37.2299,"lng":-8.264495,"addr":"IC1 I.P.1c Lanço Messines-Guia Km4","city":"Barrocal","cp":"8375-014","fuels":{"Gazole":{"p":1.999,"d":"2026-07-13"},"SP95":{"p":2.039,"d":"2026-07-13"},"SP98":{"p":2.239,"d":"2026-07-13"},"GPLc":{"p":0.999,"d":"2026-07-13"}},"brand":"BP"},{"id":200091015,"lat":37.15446,"lng":-8.30151,"addr":"Vales do Algoz","city":"Algoz","cp":"8365-087","fuels":{"Gazole":{"p":1.999,"d":"2026-07-13"}},"brand":"BP"},{"id":200088200,"lat":37.09143,"lng":-8.04466,"addr":"Estrada das Escanxinas","city":"Almancil","cp":"8135-016","fuels":{"Gazole":{"p":1.999,"d":"2026-07-13"},"SP95":{"p":2.039,"d":"2026-07-13"}},"brand":"BP"},{"id":200084185,"lat":37.09222,"lng":-8.0267,"addr":"VALE FORMOSO","city":"ALMANCIL","cp":"8135-148","fuels":{"Gazole":{"p":1.999,"d":"2026-07-13"},"SP95":{"p":2.039,"d":"2026-07-13"}},"brand":"BP"},{"id":200066234,"lat":37.1196,"lng":-8.35022,"addr":"Estrada 269-1","city":"Armação de Pera - Sítio do Valim - Alcantarilha","cp":"8365-000","fuels":{"Gazole":{"p":1.999,"d":"2026-07-13"},"SP95":{"p":2.039,"d":"2026-07-13"}},"brand":"BP"},{"id":200065825,"lat":37.0927,"lng":-8.23728,"addr":"Av. dos Descobrimentos (Via Rápida)","city":"Albufeira","cp":"8200-260","fuels":{"Gazole":{"p":1.999,"d":"2026-07-13"},"SP95":{"p":2.039,"d":"2026-07-13"}},"brand":"BP"},{"id":200065335,"lat":37.148962,"lng":-8.7038,"addr":"A22 - Km 4,350 - Via do Infante","city":"Sargaçal","cp":"8600-000","fuels":{"Gazole":{"p":1.999,"d":"2026-07-14"},"SP95":{"p":2.044,"d":"2026-07-14"}},"brand":"Galp"},{"id":200065336,"lat":37.148207,"lng":-8.702837,"addr":"A22 - Km 4,350 - Via do Infante","city":"Sargaçal","cp":"8600-000","fuels":{"Gazole":{"p":1.999,"d":"2026-07-14"},"SP95":{"p":2.044,"d":"2026-07-14"}},"brand":"Galp"},{"id":200065379,"lat":37.13618,"lng":-8.110881,"addr":"A22 – Km 62,500 - Sublanço Guia-Loulé 1 (Loulé/Faro)","city":"Franqueada","cp":"8100-000","fuels":{"Gazole":{"p":1.999,"d":"2026-07-14"},"SP95":{"p":2.044,"d":"2026-07-14"},"GPLc":{"p":0.984,"d":"2026-07-14"}},"brand":"Galp"},{"id":200065380,"lat":37.136974,"lng":-8.110044,"addr":"A. E. 22 Km 62.5 Sublanço Guia / Loulé_Aparta","city":"Loulé","cp":"8100-000","fuels":{"Gazole":{"p":1.999,"d":"2026-07-14"},"SP95":{"p":2.044,"d":"2026-07-14"},"GPLc":{"p":0.984,"d":"2026-07-14"}},"brand":"Galp"},{"id":200093536,"lat":37.1255,"lng":-8.23372,"addr":"Avenida 12 de Julho, Vale Serves","city":"Vale de Serves","cp":"8200-559","fuels":{"Gazole":{"p":1.999,"d":"2026-07-14"},"SP95":{"p":2.039,"d":"2026-07-14"}},"brand":"BP"},{"id":200069051,"lat":37.124535,"lng":-7.771115,"addr":"A22, VIA DO INFANTE DE SAGRES, SUB-LANÇO OLHÃO-TAVIRA, KM 97,","city":"Olhão","cp":"8700-152","fuels":{"Gazole":{"p":1.999,"d":"2026-07-14"},"SP95":{"p":2.044,"d":"2026-07-14"}},"brand":"Moeve"},{"id":200069052,"lat":37.126137,"lng":-7.770603,"addr":"A22, VIA DO INFANTE DE SAGRES, SUB-LANÇO OLHÃO-TAVIRA, KM 97,","city":"Olhão","cp":"8700-152","fuels":{"Gazole":{"p":1.999,"d":"2026-07-14"},"SP95":{"p":2.044,"d":"2026-07-14"}},"brand":"Moeve"},{"id":200066552,"lat":37.06772,"lng":-8.03969,"addr":"Rua Cristovão Pires Norte","city":"Loulé - Almancil","cp":"8135-106","fuels":{"Gazole":{"p":2.074,"d":"2026-07-13"},"SP95":{"p":2.029,"d":"2026-07-13"}},"brand":"Repsol"},{"id":200093535,"lat":37.063602,"lng":-7.920634,"addr":"Paço Branco - Conceição","city":"Paço Branco","cp":"8005-508","fuels":{"SP95":{"p":1.869,"d":"2026-07-13"}},"brand":"Prio"},{"id":200093405,"lat":37.109303,"lng":-8.689247,"addr":"Urb Cerro de Mos Lote 316","city":"Lagos","cp":"8600-657","fuels":{"SP95":{"p":1.894,"d":"2026-07-13"}},"brand":"Prio"},{"id":200067521,"lat":37.13641,"lng":-8.466227,"addr":"Recta Vale de Deus, (E.N. 125, Km 50,600)","city":"Lagoa","cp":"8400-301","fuels":{"SP95":{"p":1.919,"d":"2026-07-13"}},"brand":"Prio"},{"id":200067546,"lat":37.13616,"lng":-8.46658,"addr":"EN 125 Km 50,600","city":"Sítio de Deus","cp":"8400-123","fuels":{"SP95":{"p":1.919,"d":"2026-07-13"}},"brand":"Prio"},{"id":200078596,"lat":37.03714,"lng":-7.957144,"addr":"EN 125-10 (Estrada do Aeroporto)","city":"Faro","cp":"8005-146","fuels":{"SP95":{"p":1.954,"d":"2026-07-13"},"GPLc":{"p":0.889,"d":"2026-07-13"}},"brand":"Prio"},{"id":200068274,"lat":37.180724,"lng":-7.504723,"addr":"Urb. Laranjeiras lote 6","city":"Altura","cp":"8950-414","fuels":{"SP95":{"p":1.954,"d":"2026-07-13"}},"brand":"Prio"},{"id":200067537,"lat":37.128765,"lng":-8.346641,"addr":"E.N. 125 Km 59,635","city":"Alcantarilha","cp":"8365-011","fuels":{"SP95":{"p":1.954,"d":"2026-07-13"}},"brand":"Prio"},{"id":200066154,"lat":37.014996,"lng":-7.936694,"addr":"DOCA DE FARO","city":"Faro","cp":"8000-000","fuels":{"SP95":{"p":1.988,"d":"2026-07-13"}},"brand":"Cepsa"},{"id":200079078,"lat":37.10871,"lng":-8.231543,"addr":"Planeta Azul - Estrada de Brejos, Montechoro - Albufeira","city":"Albufeira","cp":"8200-999","fuels":{"GPLc":{"p":0.979,"d":"2026-07-14"}},"brand":"Lusiadagás"}]