[{"id":200070732,"lat":41.40387,"lng":-7.95699,"addr":"EN 304 - Lapinha","city":"Lapinha","cp":"4880-183","fuels":{"Gazole":{"p":1.739,"d":"2026-07-06"},"SP95":{"p":2.019,"d":"2026-07-06"}},"brand":"BP"},{"id":200067254,"lat":41.60636,"lng":-7.304635,"addr":"Rua do Freixo, nº 6","city":"Valpaços","cp":"5430-424","fuels":{"Gazole":{"p":1.749,"d":"2026-07-07"},"SP95":{"p":1.829,"d":"2026-07-07"},"SP98":{"p":2.005,"d":"2026-07-07"}},"brand":"Intermarché"},{"id":200087726,"lat":41.40662,"lng":-7.95689,"addr":"R. da Quinta da Igreja nº 183S. Cristóvão","city":"Mondim de Basto","cp":"4880-258","fuels":{"Gazole":{"p":1.759,"d":"2026-07-09"},"SP95":{"p":1.889,"d":"2026-07-09"},"SP98":{"p":1.969,"d":"2026-07-09"}},"brand":"Intermarché"},{"id":200070073,"lat":41.83501,"lng":-7.77362,"addr":"Loteamento Industrial , lote 14","city":"Montalegre","cp":"5470-201","fuels":{"Gazole":{"p":1.779,"d":"2026-07-07"},"SP95":{"p":1.879,"d":"2026-07-07"},"SP98":{"p":2.039,"d":"2026-07-07"}}},{"id":200088939,"lat":41.519969,"lng":-7.796516,"addr":"R. das Figueirinhas, 2","city":"Ribeira de Pena","cp":"4870-159","fuels":{"Gazole":{"p":1.799,"d":"2026-07-14"},"SP95":{"p":1.859,"d":"2026-07-14"},"SP98":{"p":1.949,"d":"2026-07-14"}}},{"id":200087198,"lat":41.77574,"lng":-7.32943,"addr":"EN 503, KM 182.25","city":"Bolideira","cp":"5400-601","fuels":{"Gazole":{"p":1.8,"d":"2026-07-07"},"SP95":{"p":1.85,"d":"2026-07-07"}},"brand":"Ilídio Mota"},{"id":200067033,"lat":41.49274,"lng":-7.64557,"addr":"Av. Abílio Ribeiro","city":"Vila Pouca de Aguiar- Lugar dos Lameirões","cp":"5450-036","fuels":{"Gazole":{"p":1.809,"d":"2026-07-13"},"SP95":{"p":1.846,"d":"2026-07-13"}},"brand":"Intermarché"},{"id":200067271,"lat":41.2694,"lng":-7.47572,"addr":"Lugar da Tapada - Apartado 22","city":"Alijó","cp":"5070-050","fuels":{"Gazole":{"p":1.809,"d":"2026-07-13"},"SP95":{"p":1.859,"d":"2026-07-13"},"SP98":{"p":2.046,"d":"2026-07-13"}},"brand":"Intermarché"},{"id":200090541,"lat":41.27549,"lng":-7.715013,"addr":"Lugar da Mata do Ramalhão - Zona Industrial - Constantim","city":"Constantim","cp":"5000-081","fuels":{"Gazole":{"p":1.829,"d":"2026-07-06"},"SP95":{"p":1.899,"d":"2026-07-06"}},"brand":"Prio"},{"id":200088674,"lat":41.16222,"lng":-7.80365,"addr":"Lugar da Salgueiral - Godim","city":"Peso da Régua","cp":"5050-102","fuels":{"Gazole":{"p":1.829,"d":"2026-07-14"},"SP95":{"p":1.859,"d":"2026-07-14"},"SP98":{"p":2.089,"d":"2026-07-14"}},"brand":"Intermarché"},{"id":200077515,"lat":41.16836,"lng":-7.80291,"addr":"Quinta das Forcas","city":"Godim","cp":"5050-063","fuels":{"Gazole":{"p":1.831,"d":"2026-07-14"},"SP95":{"p":1.863,"d":"2026-07-14"},"SP98":{"p":1.963,"d":"2026-07-14"}},"brand":"Pingo Doce"},{"id":200093381,"lat":41.7332,"lng":-7.46877,"addr":"Rotunda Raio X","city":"Chaves","cp":"5400-011","fuels":{"Gazole":{"p":1.839,"d":"2026-07-13"},"SP95":{"p":1.876,"d":"2026-07-13"},"SP98":{"p":1.999,"d":"2026-07-13"}},"brand":"Leclerc"},{"id":200075148,"lat":41.82368,"lng":-7.79829,"addr":"Av. Povo de Timor","city":"Montalegre","cp":"5470-257","fuels":{"Gazole":{"p":1.839,"d":"2026-07-14"},"SP95":{"p":1.879,"d":"2026-07-14"},"SP98":{"p":2.039,"d":"2026-07-14"}},"brand":"Intermarché"},{"id":200076316,"lat":41.7221,"lng":-7.45758,"addr":"Rua 25 de Março de 1809  n.º 4  (Lombo)","city":"Chaves","cp":"5400-016","fuels":{"Gazole":{"p":1.849,"d":"2026-07-13"},"SP95":{"p":1.889,"d":"2026-07-13"}},"brand":"Prio"},{"id":200075011,"lat":41.27658,"lng":-7.70339,"addr":"Zona Industrial Constantim","city":"Gafaria","cp":"5000-081","fuels":{"Gazole":{"p":1.849,"d":"2026-07-14"}},"brand":"Recheio"},{"id":200076106,"lat":41.29717,"lng":-7.736542,"addr":"Rua Dr. Otílio Figueiredo","city":"Vila Real","cp":"5000-587","fuels":{"Gazole":{"p":1.859,"d":"2026-07-13"},"SP95":{"p":1.869,"d":"2026-07-13"},"GPLc":{"p":0.969,"d":"2026-07-13"}},"brand":"Auchan"},{"id":200086711,"lat":41.3102,"lng":-7.72441,"addr":"Quinta do Lameirão","city":"Vila Real","cp":"5000-046","fuels":{"Gazole":{"p":1.859,"d":"2026-07-13"},"SP95":{"p":1.869,"d":"2026-07-13"},"SP98":{"p":2.009,"d":"2026-07-13"}},"brand":"Intermarché"},{"id":200080260,"lat":41.49443,"lng":-7.64438,"addr":"Largo do Toural","city":"Vila Pouca de Aguiar","cp":"5450-005","fuels":{"Gazole":{"p":1.859,"d":"2026-07-13"},"SP95":{"p":1.905,"d":"2026-07-13"}},"brand":"Gaspe"},{"id":200066075,"lat":41.308872,"lng":-7.734071,"addr":"Av. 25 de Abril","city":"Vila Real - Timpeira","cp":"5000-424","fuels":{"Gazole":{"p":1.869,"d":"2026-07-06"},"SP95":{"p":1.969,"d":"2026-07-06"}},"brand":"BP"},{"id":200069446,"lat":41.716297,"lng":-7.505522,"addr":"EN 103","city":"Curalha","cp":"5400-620","fuels":{"Gazole":{"p":1.879,"d":"2026-07-13"},"SP95":{"p":1.929,"d":"2026-07-13"}},"brand":"Galp"},{"id":200069190,"lat":41.30915,"lng":-7.735555,"addr":"QUINTA DO ENTRONCAMENTO, LOTE 16","city":"Vila Real","cp":"5000-047","fuels":{"Gazole":{"p":1.881,"d":"2026-07-13"},"SP95":{"p":1.918,"d":"2026-07-13"}},"brand":"Moeve"},{"id":200066244,"lat":41.668867,"lng":-7.336807,"addr":"EN 213, Nº2","city":"Sa - Ervões","cp":"5430-075","fuels":{"Gazole":{"p":1.899,"d":"2026-07-13"},"SP95":{"p":1.938,"d":"2026-07-13"}},"brand":"Cepsa"},{"id":200085949,"lat":41.26983,"lng":-7.47852,"addr":"Avenida 25 de Abril (EN 322, km 35,805)","city":"Alijó","cp":"5070-011","fuels":{"Gazole":{"p":1.899,"d":"2026-07-13"},"SP95":{"p":1.929,"d":"2026-07-13"}},"brand":"Tuacar"},{"id":200073351,"lat":41.28516,"lng":-7.76024,"addr":"EN 15 km 107,5/EN 2 km 67,0, Parada de Cunhos","city":"Cabril","cp":"5000-471","fuels":{"Gazole":{"p":1.899,"d":"2026-07-13"},"SP95":{"p":1.929,"d":"2026-07-13"}},"brand":"Tuacar"},{"id":200069740,"lat":41.61273,"lng":-7.31207,"addr":"Av. D. Maria do Carmo Carmona, Estrada Nº213","city":"Valpaços","cp":"5430-472","fuels":{"Gazole":{"p":1.899,"d":"2026-07-13"},"SP95":{"p":1.949,"d":"2026-07-13"}},"brand":"Freitas"},{"id":200077095,"lat":41.29553,"lng":-7.51977,"addr":"Estrada Nacional 323-1","city":"Sanfins do Douro","cp":"5070-351","fuels":{"Gazole":{"p":1.901,"d":"2026-07-13"},"SP95":{"p":1.938,"d":"2026-07-13"}},"brand":"Cepsa"},{"id":200066301,"lat":41.737092,"lng":-7.452675,"addr":"Av. Galiza","city":"Chaves","cp":"5400-293","fuels":{"Gazole":{"p":1.901,"d":"2026-07-14"},"SP95":{"p":1.938,"d":"2026-07-14"}},"brand":"Cepsa"},{"id":200093408,"lat":41.731667,"lng":-7.469065,"addr":"Av. D. João I (Rotunda Raio X)","city":"Chaves","cp":"5100-011","fuels":{"Gazole":{"p":1.901,"d":"2026-07-14"},"SP95":{"p":1.938,"d":"2026-07-14"}},"brand":"Cepsa"},{"id":200091424,"lat":41.30531,"lng":-7.72257,"addr":"R. Gaspar Sameiro,  N 920","city":"Abambres","cp":"5000-261","fuels":{"Gazole":{"p":1.909,"d":"2026-07-13"},"SP95":{"p":1.949,"d":"2026-07-13"},"GPLc":{"p":0.984,"d":"2026-07-13"}},"brand":"Repsol"},{"id":200066822,"lat":41.74178,"lng":-7.46683,"addr":"Av. 5 de Outubro nº 16","city":"Chaves","cp":"5400-000","fuels":{"Gazole":{"p":1.909,"d":"2026-07-13"},"SP95":{"p":1.949,"d":"2026-07-13"}},"brand":"Repsol"},{"id":200066818,"lat":41.7395,"lng":-7.4761,"addr":"Av. Santo Amaro, S/N","city":"Chaves","cp":"5400-000","fuels":{"Gazole":{"p":1.909,"d":"2026-07-13"},"SP95":{"p":1.949,"d":"2026-07-13"},"GPLc":{"p":1.004,"d":"2026-07-13"}},"brand":"Repsol"},{"id":200081644,"lat":41.769276,"lng":-7.485171,"addr":"Recta da Seara, Sanjurge","city":"Lugar do Extremo","cp":"5400-577","fuels":{"Gazole":{"p":1.909,"d":"2026-07-13"},"SP95":{"p":1.954,"d":"2026-07-13"}},"brand":"Shell"},{"id":200065062,"lat":41.27311,"lng":-7.476558,"addr":"EN 212 - Av. 25 de Abril","city":"Alijó","cp":"5070-000","fuels":{"Gazole":{"p":1.909,"d":"2026-07-14"},"SP95":{"p":1.946,"d":"2026-07-14"}},"brand":"Galp"},{"id":200065236,"lat":41.72866,"lng":-7.47115,"addr":"EN 2","city":"Lombo","cp":"5400-000","fuels":{"Gazole":{"p":1.909,"d":"2026-07-14"},"SP95":{"p":1.946,"d":"2026-07-14"},"GPLc":{"p":0.999,"d":"2026-07-06"}},"brand":"Galp"},{"id":200065238,"lat":41.639015,"lng":-7.570125,"addr":"EN 2","city":"Vidago","cp":"5425-000","fuels":{"Gazole":{"p":1.909,"d":"2026-07-14"},"SP95":{"p":1.946,"d":"2026-07-14"}},"brand":"Galp"},{"id":200065759,"lat":41.30092,"lng":-7.74066,"addr":"Praceta da Carreira","city":"Vila Real","cp":"5000-560","fuels":{"Gazole":{"p":1.909,"d":"2026-07-14"},"SP95":{"p":1.946,"d":"2026-07-14"}},"brand":"Galp"},{"id":200065760,"lat":41.29383,"lng":-7.73606,"addr":"Rua Visconde Carnaxide nº 26","city":"Vila Real","cp":"5000-556","fuels":{"Gazole":{"p":1.909,"d":"2026-07-14"},"SP95":{"p":1.946,"d":"2026-07-14"}},"brand":"Galp"},{"id":200066817,"lat":41.30255,"lng":-7.74116,"addr":"Av. Aureliano Barrigas","city":"Vila Real","cp":"5000-000","fuels":{"Gazole":{"p":1.909,"d":"2026-07-14"},"SP95":{"p":1.949,"d":"2026-07-14"}},"brand":"Repsol"},{"id":200080777,"lat":41.389,"lng":-7.70284,"addr":"EN 2, Vilarinho da Samardã","city":"Vilarinho da Samardã","cp":"5000-781","fuels":{"Gazole":{"p":1.909,"d":"2026-07-14"},"SP95":{"p":1.949,"d":"2026-07-14"}},"brand":"Repsol"},{"id":200066821,"lat":41.61162,"lng":-7.31303,"addr":"Bairro do Barreiro","city":"Valpaços","cp":"5430-000","fuels":{"Gazole":{"p":1.919,"d":"2026-07-13"},"SP95":{"p":1.959,"d":"2026-07-13"}},"brand":"Repsol"},{"id":200069910,"lat":41.36199,"lng":-7.37995,"addr":"Bairro de S.José","city":"Candedo","cp":"5090-000","fuels":{"Gazole":{"p":1.924,"d":"2026-07-13"},"SP95":{"p":1.956,"d":"2026-07-13"}},"brand":"Prio"},{"id":200070303,"lat":41.29141,"lng":-7.875211,"addr":"Largo da Feira","city":"Campeã","cp":"5000-071","fuels":{"Gazole":{"p":1.925,"d":"2026-07-13"},"SP95":{"p":1.975,"d":"2026-07-13"}}},{"id":200093303,"lat":41.28176,"lng":-7.85166,"addr":"Estrada Nacional 304 - Lugar da Sardoeira","city":"Torgueda","cp":"5000-742","fuels":{"Gazole":{"p":1.929,"d":"2026-07-13"},"SP95":{"p":1.976,"d":"2026-07-13"}},"brand":"Alves Bandeira"},{"id":200066103,"lat":41.307814,"lng":-7.756435,"addr":"Rua dos Lagoeiros Lt. 10","city":"Lordelo","cp":"5000-185","fuels":{"Gazole":{"p":1.939,"d":"2026-07-08"},"SP95":{"p":2.019,"d":"2026-07-08"}},"brand":"BP"},{"id":200069402,"lat":41.69014,"lng":-7.66123,"addr":"Av. de Chaves, 30","city":"Boticas","cp":"5460-301","fuels":{"Gazole":{"p":1.939,"d":"2026-07-13"},"SP95":{"p":1.975,"d":"2026-07-13"}},"brand":"Gaspe"},{"id":200094289,"lat":41.604973,"lng":-7.314413,"addr":"Rua Prof. Dr. Amândio Tavares, Nº 37","city":"Valpaços","cp":"5430-487","fuels":{"Gazole":{"p":1.949,"d":"2026-07-13"},"SP95":{"p":1.986,"d":"2026-07-13"}},"brand":"Galp"},{"id":200075137,"lat":41.6872,"lng":-7.664512,"addr":"Avenida do Noro, nº 4","city":"Boticas","cp":"5460-331","fuels":{"Gazole":{"p":1.949,"d":"2026-07-13"},"SP95":{"p":1.986,"d":"2026-07-13"}},"brand":"Galp"},{"id":200065588,"lat":41.2658,"lng":-7.57667,"addr":"Av. dos Combatentes da Grande Guerra, 17","city":"Sabrosa","cp":"5060-302","fuels":{"Gazole":{"p":1.949,"d":"2026-07-14"},"SP95":{"p":1.986,"d":"2026-07-14"}},"brand":"Galp"},{"id":200065757,"lat":41.53989,"lng":-7.60493,"addr":"Rua Henrique Maia","city":"Pedras Salgadas","cp":"5450-000","fuels":{"Gazole":{"p":1.949,"d":"2026-07-14"},"SP95":{"p":1.986,"d":"2026-07-14"}},"brand":"Galp"},{"id":200065758,"lat":41.501088,"lng":-7.643409,"addr":"EN 206 - Rua António José D'Ávila","city":"Vila Pouca de Aguiar","cp":"5450-000","fuels":{"Gazole":{"p":1.949,"d":"2026-07-14"},"SP95":{"p":1.986,"d":"2026-07-14"}},"brand":"Galp"},{"id":200065708,"lat":41.56462,"lng":-7.42686,"addr":"EN 206","city":"Carrazedo de Montenegro","cp":"5445-000","fuels":{"Gazole":{"p":1.949,"d":"2026-07-14"},"SP95":{"p":1.986,"d":"2026-07-14"}},"brand":"Galp"},{"id":200065585,"lat":41.51646,"lng":-7.80282,"addr":"EN 206","city":"Ribeira de Pena","cp":"4870-000","fuels":{"Gazole":{"p":1.949,"d":"2026-07-14"},"SP95":{"p":1.986,"d":"2026-07-14"}},"brand":"Galp"},{"id":200074835,"lat":41.469032,"lng":-7.851048,"addr":"Rua Central da Fateca, 18","city":"Cerva","cp":"4870-042","fuels":{"Gazole":{"p":1.95,"d":"2026-07-14"},"SP95":{"p":1.92,"d":"2026-07-14"},"SP98":{"p":2.02,"d":"2026-07-14"}}},{"id":200069381,"lat":41.56014,"lng":-7.428046,"addr":"Av. Dom Dinis, Nº1","city":"Carrazedo de Montenegro","cp":"5445-110","fuels":{"Gazole":{"p":1.953,"d":"2026-07-13"},"SP95":{"p":1.997,"d":"2026-07-13"}},"brand":"Freitas"},{"id":200093795,"lat":41.76412,"lng":-7.804109,"addr":"EN 103 Penedones - Montalegre","city":"Penedones","cp":"5470-069","fuels":{"Gazole":{"p":1.953,"d":"2026-07-13"},"SP95":{"p":1.997,"d":"2026-07-13"}}},{"id":200067766,"lat":41.26371,"lng":-7.58986,"addr":"Rua Ermo","city":"Passos - Marãozinho","cp":"5060-209","fuels":{"Gazole":{"p":1.953,"d":"2026-07-13"},"SP95":{"p":1.997,"d":"2026-07-13"}},"brand":"Gaspe"},{"id":200069379,"lat":41.22844,"lng":-7.82812,"addr":"Santa Quitéria - Fontes","city":"Marão","cp":"5030-452","fuels":{"Gazole":{"p":1.953,"d":"2026-07-13"},"SP95":{"p":1.997,"d":"2026-07-13"}},"brand":"Freitas"},{"id":200066954,"lat":41.320072,"lng":-7.461865,"addr":"EN 212 Km 36,900 - Vila Chã","city":"Chã","cp":"5070-533","fuels":{"Gazole":{"p":1.953,"d":"2026-07-14"},"SP95":{"p":1.997,"d":"2026-07-14"},"SP98":{"p":2.157,"d":"2026-07-14"}}},{"id":200065454,"lat":41.67315,"lng":-7.96095,"addr":"EN 103-Venda Nova","city":"Aldeia Nova de Barroso-Venda Nova","cp":"5495-000","fuels":{"Gazole":{"p":1.959,"d":"2026-07-14"},"SP95":{"p":1.996,"d":"2026-07-14"}},"brand":"Galp"},{"id":200066974,"lat":41.43512,"lng":-7.67793,"addr":"EN 2 Km 44,8","city":"Tourencinho","cp":"5450-280","fuels":{"Gazole":{"p":1.969,"d":"2026-07-13"},"SP95":{"p":2.009,"d":"2026-07-13"}},"brand":"BP"},{"id":200066819,"lat":41.40636,"lng":-7.45023,"addr":"Variante à EN 15","city":"Murça","cp":"5090-000","fuels":{"Gazole":{"p":1.969,"d":"2026-07-13"},"SP95":{"p":2.009,"d":"2026-07-13"},"GPLc":{"p":1.024,"d":"2026-07-13"}},"brand":"Repsol"},{"id":200069557,"lat":41.26789,"lng":-7.63188,"addr":"ESTRADA NACIONAL 322","city":"São Martinho de Antas","cp":"5060-432","fuels":{"Gazole":{"p":1.969,"d":"2026-07-13"},"SP95":{"p":2.065,"d":"2026-07-13"},"SP98":{"p":2.209,"d":"2026-07-13"}}},{"id":200066816,"lat":41.15877,"lng":-7.78453,"addr":"Rua da Ferreirinha","city":"Peso da Régua","cp":"5050-000","fuels":{"Gazole":{"p":1.969,"d":"2026-07-13"},"SP95":{"p":2.009,"d":"2026-07-13"}},"brand":"Repsol"},{"id":200066820,"lat":41.16459,"lng":-7.79425,"addr":"Largo da Estação","city":"Peso da Régua","cp":"5050-000","fuels":{"Gazole":{"p":1.969,"d":"2026-07-13"},"SP95":{"p":2.009,"d":"2026-07-13"}},"brand":"Repsol"},{"id":200080925,"lat":41.29635,"lng":-7.73154,"addr":"Av. da Europa","city":"Vila Real","cp":"5000-557","fuels":{"Gazole":{"p":1.969,"d":"2026-07-14"},"SP95":{"p":2.016,"d":"2026-07-14"},"SP98":{"p":2.166,"d":"2026-07-14"}}},{"id":200065452,"lat":41.41156,"lng":-7.95585,"addr":"Av. Dr. Augusto Brito","city":"Mondim de Basto","cp":"4880-232","fuels":{"Gazole":{"p":1.969,"d":"2026-07-14"},"SP95":{"p":2.009,"d":"2026-07-14"}},"brand":"Galp"},{"id":200065464,"lat":41.401507,"lng":-7.446909,"addr":"Saída do IP4","city":"Lugar do Prado","cp":"5090-102","fuels":{"Gazole":{"p":1.969,"d":"2026-07-14"},"SP95":{"p":2.009,"d":"2026-07-14"}},"brand":"Galp"},{"id":200065598,"lat":41.21288,"lng":-7.78446,"addr":"Rua dos Combatentes, 82","city":"Santa Marta de Penaguião","cp":"5030-477","fuels":{"Gazole":{"p":1.969,"d":"2026-07-14"},"SP95":{"p":2.009,"d":"2026-07-14"}},"brand":"Galp"},{"id":200065543,"lat":41.16477,"lng":-7.79401,"addr":"Rua da Ferreirinha","city":"Peso da Régua","cp":"5050-261","fuels":{"Gazole":{"p":1.969,"d":"2026-07-14"},"SP95":{"p":2.009,"d":"2026-07-14"}},"brand":"Galp"},{"id":200065436,"lat":41.159167,"lng":-7.890389,"addr":"Rua dos Abraços","city":"Mesão Frio","cp":"5040-289","fuels":{"Gazole":{"p":1.969,"d":"2026-07-14"},"SP95":{"p":2.009,"d":"2026-07-14"}},"brand":"Galp"},{"id":200074778,"lat":41.694223,"lng":-7.398284,"addr":"EN 213 Km13","city":"Alto do Barracão","cp":"5430-000","fuels":{"Gazole":{"p":1.973,"d":"2026-07-14"},"SP95":{"p":2.017,"d":"2026-07-14"},"SP98":{"p":2.157,"d":"2026-07-14"}}},{"id":200066823,"lat":41.50276,"lng":-7.63833,"addr":"EN 2","city":"Lugar de Lavadouros","cp":"5450-000","fuels":{"Gazole":{"p":1.979,"d":"2026-07-13"},"SP95":{"p":1.984,"d":"2026-07-13"}},"brand":"Repsol"},{"id":200067171,"lat":41.89314,"lng":-7.74708,"addr":"Lugar de Poços\r\nPadornelos\r\nApartado 46","city":"Padornelos","cp":"5470-341","fuels":{"Gazole":{"p":1.989,"d":"2026-07-12"},"SP95":{"p":1.989,"d":"2026-07-12"},"SP98":{"p":2.239,"d":"2026-07-12"}},"brand":"BP"},{"id":200076713,"lat":41.669277,"lng":-7.571154,"addr":"A24 Chaves – Pedras Salgadas","city":"Vilarinho das Paranheiras","cp":"5425-401","fuels":{"Gazole":{"p":1.998,"d":"2026-07-13"},"SP95":{"p":2.037,"d":"2026-07-13"}},"brand":"OZ Energia"},{"id":200074441,"lat":41.337494,"lng":-7.704931,"addr":"A24 Entre Fortunho – Vila Real","city":"Mouçõs","cp":"5000-367","fuels":{"Gazole":{"p":1.998,"d":"2026-07-13"},"SP95":{"p":2.037,"d":"2026-07-13"}},"brand":"OZ Energia"},{"id":200084943,"lat":41.32436,"lng":-7.64109,"addr":"A4 KM 101.5 Lamares","city":"Lamares","cp":"5000-132","fuels":{"Gazole":{"p":1.999,"d":"2026-07-13"},"SP95":{"p":2.044,"d":"2026-07-13"}},"brand":"BP"},{"id":200084944,"lat":41.32373,"lng":-7.641089,"addr":"A4 KM 101.5 Lamares","city":"Lamares","cp":"5000-132","fuels":{"Gazole":{"p":1.999,"d":"2026-07-13"},"SP95":{"p":2.044,"d":"2026-07-13"}},"brand":"BP"},{"id":200093111,"lat":41.300516,"lng":-7.731374,"addr":"Av. da Europa, 4","city":"Vila Real","cp":"5000-557","fuels":{"Gazole":{"p":1.999,"d":"2026-07-13"},"SP95":{"p":2.039,"d":"2026-07-13"}},"brand":"BP"},{"id":200069549,"lat":41.75012,"lng":-7.87209,"addr":"Lugar de Fernamouro","city":"Pisoes","cp":"5470-000","fuels":{"Gazole":{"p":1.999,"d":"2026-07-13"},"SP95":{"p":2.039,"d":"2026-07-13"}},"brand":"BP"},{"id":200089848,"lat":41.26472,"lng":-7.589908,"addr":"Zona Industrial de Sabrosa, Lote 20B","city":"Paços","cp":"5060-193","fuels":{"Gazole":{"p":1.999,"d":"2026-07-13"},"SP95":{"p":2.039,"d":"2026-07-13"}},"brand":"BP"},{"id":200066090,"lat":41.503796,"lng":-7.720668,"addr":"A7 Sentido V. P. Aguiar – Ribeira de Pena","city":"Lixa do Alvão","cp":"5450-266","fuels":{"Gazole":{"p":1.999,"d":"2026-07-13"},"SP95":{"p":1.973,"d":"2026-07-13"}},"brand":"OZ Energia"},{"id":200066091,"lat":41.50301,"lng":-7.720227,"addr":"A7 Sentido Ribeira de Pena – V. P. Aguiar","city":"Lixa do Alvão","cp":"5450-266","fuels":{"Gazole":{"p":1.999,"d":"2026-07-13"},"SP95":{"p":1.973,"d":"2026-07-13"}},"brand":"OZ Energia"},{"id":200066076,"lat":41.276123,"lng":-7.716888,"addr":"Zona Industrial de Constantim - Fte ao Aeródromo Constantim","city":"Constantim","cp":"5000-082","fuels":{"Gazole":{"p":1.999,"d":"2026-07-14"},"SP95":{"p":2.039,"d":"2026-07-14"}},"brand":"BP"},{"id":200065542,"lat":41.167633,"lng":-7.79733,"addr":"Av. Tondela","city":"Godim","cp":"5050-059","fuels":{"Gazole":{"p":2.009,"d":"2026-07-14"},"SP95":{"p":2.009,"d":"2026-07-14"}},"brand":"Galp"},{"id":200079225,"lat":41.41532,"lng":-7.8797,"addr":"Lugar do Meirão","city":"Vilarinho","cp":"4880-318","fuels":{"Gazole":{"p":2.049,"d":"2026-07-06"},"SP95":{"p":2.074,"d":"2026-07-06"}},"brand":"Gaspe"},{"id":200094672,"lat":41.421528,"lng":-7.937484,"addr":"EN 312 - Vale do Conde - Pedra Vedra","city":"Pedra Vedra","cp":"4880-191","fuels":{"Gazole":{"p":2.049,"d":"2026-07-06"},"SP95":{"p":2.074,"d":"2026-07-06"}},"brand":"Gaspe"},{"id":200093702,"lat":41.8233,"lng":-7.790686,"addr":"Av. Nuno Álvares Pereira","city":"Montalegre","cp":"5470-203","fuels":{"SP95":{"p":1.884,"d":"2026-07-07"}},"brand":"Prio"},{"id":200069186,"lat":41.300083,"lng":-7.741077,"addr":"Avenida 1º Maio Nº 325A","city":"Vila Real","cp":"5000-651","fuels":{"SP95":{"p":1.899,"d":"2026-07-13"}},"brand":"Prio"},{"id":200069548,"lat":41.767975,"lng":-7.467495,"addr":"Av. da Cocanha","city":"Outeiro Seco","cp":"5400-672","fuels":{"SP95":{"p":1.954,"d":"2026-07-13"}},"brand":"Prio"},{"id":200090891,"lat":41.724545,"lng":-7.466804,"addr":"Rua Dom Gualdim Pais, Lugar do Campo da Roda","city":"Lugar do Barroco","cp":"5400-574","fuels":{"SP95":{"p":1.954,"d":"2026-07-13"}},"brand":"Prio"},{"id":200093728,"lat":41.45755,"lng":-7.926569,"addr":"EN 312 - Lugar da Praça","city":"Atei","cp":"4880-030","fuels":{"SP95":{"p":1.999,"d":"2026-07-14"}},"brand":"Prio"}]